{"id":"247","directions":{"0":{"feriale":[{"id":"325","name":"Parcheggio Famà (2)","lat":37.52256566,"lon":15.09411128,"times":["06:15","07:00","07:50","08:40","09:00","09:30","09:45","10:20","10:30","11:10","11:20","12:00","12:10","12:50","13:00","13:40","14:30","15:15","16:00","16:45","17:00","17:30","17:50","18:15","18:40","19:00","19:30","19:45","20:15","20:30","21:15","22:00","22:45"]},{"id":"392","name":"Vittorio Veneto Michelangelo","lat":37.52357351,"lon":15.09618356,"times":["06:16","07:01","07:51","08:41","09:01","09:31","09:46","10:21","10:31","11:11","11:21","12:01","12:11","12:51","13:01","13:41","14:31","15:16","16:01","16:46","17:01","17:31","17:51","18:16","18:41","19:01","19:31","19:46","20:17","20:31","21:16","22:01","22:46"]},{"id":"393","name":"Vittorio Veneto Bramante","lat":37.52473645,"lon":15.09595871,"times":["06:16","07:01","07:51","08:41","09:01","09:31","09:46","10:21","10:31","11:11","11:21","12:01","12:11","12:51","13:01","13:41","14:31","15:16","16:01","16:46","17:01","17:31","17:51","18:16","18:41","19:01","19:31","19:46","20:17","20:31","21:16","22:01","22:46"]},{"id":"394","name":"Vittorio Veneto Duca Abruzzi","lat":37.52652136,"lon":15.0957007,"times":["06:17","07:02","07:52","08:42","09:02","09:32","09:47","10:22","10:32","11:12","11:22","12:02","12:12","12:52","13:02","13:42","14:32","15:17","16:02","16:47","17:02","17:32","17:52","18:17","18:42","19:02","19:32","19:47","20:19","20:32","21:17","22:02","22:47"]},{"id":"519","name":"Duca Abruzzi Polo","lat":37.52801815,"lon":15.09504618,"times":["06:18","07:03","07:53","08:43","09:03","09:33","09:48","10:23","10:33","11:13","11:23","12:03","12:13","12:53","13:03","13:43","14:33","15:18","16:03","16:48","17:03","17:33","17:53","18:18","18:43","19:03","19:33","19:48","20:20","20:33","21:18","22:03","22:48"]},{"id":"520","name":"Polo Pidatella","lat":37.5284771,"lon":15.0959635,"times":["06:18","07:03","07:53","08:43","09:03","09:33","09:48","10:23","10:33","11:13","11:23","12:03","12:13","12:53","13:03","13:43","14:33","15:18","16:03","16:48","17:03","17:33","17:53","18:18","18:43","19:03","19:33","19:48","20:20","20:33","21:18","22:03","22:48"]},{"id":"396","name":"Polo Cagnoni Sud","lat":37.53001613,"lon":15.09876103,"times":["06:20","07:05","07:55","08:45","09:05","09:35","09:50","10:25","10:35","11:15","11:25","12:05","12:15","12:55","13:05","13:45","14:35","15:20","16:05","16:50","17:05","17:35","17:55","18:20","18:45","19:05","19:35","19:50","20:22","20:35","21:20","22:05","22:50"]},{"id":"397","name":"La Rocca Ulisse","lat":37.53205988,"lon":15.10085111,"times":["06:22","07:07","07:57","08:47","09:07","09:37","09:52","10:27","10:37","11:17","11:27","12:07","12:17","12:57","13:07","13:47","14:37","15:22","16:07","16:52","17:07","17:37","17:57","18:22","18:47","19:07","19:37","19:52","20:26","20:37","21:22","22:07","22:52"]},{"id":"398","name":"Altavilla Est","lat":37.53265365,"lon":15.1028165,"times":["06:23","07:08","07:58","08:48","09:08","09:38","09:53","10:28","10:38","11:18","11:28","12:08","12:18","12:58","13:08","13:48","14:38","15:23","16:08","16:53","17:08","17:38","17:58","18:23","18:48","19:08","19:38","19:53","20:27","20:38","21:23","22:08","22:53"]},{"id":"399","name":"Altavilla Vescovo Maurizio","lat":37.53395126,"lon":15.10322575,"times":["06:24","07:09","07:59","08:49","09:09","09:39","09:54","10:29","10:39","11:19","11:29","12:09","12:19","12:59","13:09","13:49","14:39","15:24","16:09","16:54","17:09","17:39","17:59","18:24","18:49","19:09","19:39","19:54","20:28","20:39","21:24","22:09","22:54"]},{"id":"1287","name":"Vescovo Maurizio Sud","lat":37.53470669,"lon":15.10516229,"times":["06:25","07:10","08:00","08:50","09:10","09:40","09:55","10:30","10:40","11:20","11:30","12:10","12:20","13:00","13:10","13:50","14:40","15:25","16:10","16:55","17:10","17:40","18:00","18:25","18:50","19:10","19:40","19:55","20:30","20:40","21:25","22:10","22:55"]}],"sabato":[{"id":"325","name":"Parcheggio Famà (2)","lat":37.52256566,"lon":15.09411128,"times":["06:15","07:00","07:50","08:40","09:30","10:20","11:10","12:00","12:50","13:40","14:30","15:15","16:00","16:45","17:30","18:15","19:00","19:45","20:30","21:15","22:00","22:45"]},{"id":"392","name":"Vittorio Veneto Michelangelo","lat":37.52357351,"lon":15.09618356,"times":["06:16","07:01","07:51","08:41","09:31","10:21","11:11","12:01","12:51","13:41","14:31","15:16","16:01","16:46","17:31","18:16","19:01","19:46","20:31","21:16","22:01","22:46"]},{"id":"393","name":"Vittorio Veneto Bramante","lat":37.52473645,"lon":15.09595871,"times":["06:16","07:01","07:51","08:41","09:31","10:21","11:11","12:01","12:51","13:41","14:31","15:16","16:01","16:46","17:31","18:16","19:01","19:46","20:31","21:16","22:01","22:46"]},{"id":"394","name":"Vittorio Veneto Duca Abruzzi","lat":37.52652136,"lon":15.0957007,"times":["06:17","07:02","07:52","08:42","09:32","10:22","11:12","12:02","12:52","13:42","14:32","15:17","16:02","16:47","17:32","18:17","19:02","19:47","20:32","21:17","22:02","22:47"]},{"id":"519","name":"Duca Abruzzi Polo","lat":37.52801815,"lon":15.09504618,"times":["06:18","07:03","07:53","08:43","09:33","10:23","11:13","12:03","12:53","13:43","14:33","15:18","16:03","16:48","17:33","18:18","19:03","19:48","20:33","21:18","22:03","22:48"]},{"id":"520","name":"Polo Pidatella","lat":37.5284771,"lon":15.0959635,"times":["06:18","07:03","07:53","08:43","09:33","10:23","11:13","12:03","12:53","13:43","14:33","15:18","16:03","16:48","17:33","18:18","19:03","19:48","20:33","21:18","22:03","22:48"]},{"id":"396","name":"Polo Cagnoni Sud","lat":37.53001613,"lon":15.09876103,"times":["06:20","07:05","07:55","08:45","09:35","10:25","11:15","12:05","12:55","13:45","14:35","15:20","16:05","16:50","17:35","18:20","19:05","19:50","20:35","21:20","22:05","22:50"]},{"id":"397","name":"La Rocca Ulisse","lat":37.53205988,"lon":15.10085111,"times":["06:22","07:07","07:57","08:47","09:37","10:27","11:17","12:07","12:57","13:47","14:37","15:22","16:07","16:52","17:37","18:22","19:07","19:52","20:37","21:22","22:07","22:52"]},{"id":"398","name":"Altavilla Est","lat":37.53265365,"lon":15.1028165,"times":["06:23","07:08","07:58","08:48","09:38","10:28","11:18","12:08","12:58","13:48","14:38","15:23","16:08","16:53","17:38","18:23","19:08","19:53","20:38","21:23","22:08","22:53"]},{"id":"399","name":"Altavilla Vescovo Maurizio","lat":37.53395126,"lon":15.10322575,"times":["06:24","07:09","07:59","08:49","09:39","10:29","11:19","12:09","12:59","13:49","14:39","15:24","16:09","16:54","17:39","18:24","19:09","19:54","20:39","21:24","22:09","22:54"]},{"id":"1287","name":"Vescovo Maurizio Sud","lat":37.53470669,"lon":15.10516229,"times":["06:25","07:10","08:00","08:50","09:40","10:30","11:20","12:10","13:00","13:50","14:40","15:25","16:10","16:55","17:40","18:25","19:10","19:55","20:40","21:25","22:10","22:55"]}],"domenica":[{"id":"325","name":"Parcheggio Famà (2)","lat":37.52256566,"lon":15.09411128,"times":["06:45","07:30","08:15","09:00","09:45","10:30","11:20","12:10","13:00","15:45","16:30","17:15","18:00","18:45","19:30","20:15"]},{"id":"392","name":"Vittorio Veneto Michelangelo","lat":37.52357351,"lon":15.09618356,"times":["06:46","07:31","08:16","09:01","09:46","10:31","11:21","12:11","13:01","15:46","16:31","17:16","18:01","18:46","19:31","20:16"]},{"id":"393","name":"Vittorio Veneto Bramante","lat":37.52473645,"lon":15.09595871,"times":["06:46","07:31","08:16","09:01","09:46","10:31","11:21","12:11","13:01","15:46","16:31","17:16","18:01","18:46","19:31","20:16"]},{"id":"394","name":"Vittorio Veneto Duca Abruzzi","lat":37.52652136,"lon":15.0957007,"times":["06:47","07:32","08:17","09:02","09:47","10:32","11:22","12:12","13:02","15:47","16:32","17:17","18:02","18:47","19:32","20:17"]},{"id":"519","name":"Duca Abruzzi Polo","lat":37.52801815,"lon":15.09504618,"times":["06:48","07:33","08:18","09:03","09:48","10:33","11:23","12:13","13:03","15:48","16:33","17:18","18:03","18:48","19:33","20:18"]},{"id":"520","name":"Polo Pidatella","lat":37.5284771,"lon":15.0959635,"times":["06:48","07:33","08:18","09:03","09:48","10:33","11:23","12:13","13:03","15:48","16:33","17:18","18:03","18:48","19:33","20:18"]},{"id":"396","name":"Polo Cagnoni Sud","lat":37.53001613,"lon":15.09876103,"times":["06:50","07:35","08:20","09:05","09:50","10:35","11:25","12:15","13:05","15:50","16:35","17:20","18:05","18:50","19:35","20:20"]},{"id":"397","name":"La Rocca Ulisse","lat":37.53205988,"lon":15.10085111,"times":["06:52","07:37","08:22","09:07","09:52","10:37","11:27","12:17","13:07","15:52","16:37","17:22","18:07","18:52","19:37","20:22"]},{"id":"398","name":"Altavilla Est","lat":37.53265365,"lon":15.1028165,"times":["06:53","07:38","08:23","09:08","09:53","10:38","11:28","12:18","13:08","15:53","16:38","17:23","18:08","18:53","19:38","20:23"]},{"id":"399","name":"Altavilla Vescovo Maurizio","lat":37.53395126,"lon":15.10322575,"times":["06:54","07:39","08:24","09:09","09:54","10:39","11:29","12:19","13:09","15:54","16:39","17:24","18:09","18:54","19:39","20:24"]},{"id":"1287","name":"Vescovo Maurizio Sud","lat":37.53470669,"lon":15.10516229,"times":["06:55","07:40","08:25","09:10","09:55","10:40","11:30","12:20","13:10","15:55","16:40","17:25","18:10","18:55","19:40","20:25"]}]},"1":{"feriale":[{"id":"1287","name":"Vescovo Maurizio Sud","lat":37.53470669,"lon":15.10516229,"times":["06:25","07:10","08:00","08:50","09:10","09:40","09:55","10:30","10:40","11:20","11:30","12:10","12:20","13:00","13:10","13:50","14:40","15:25","16:10","16:55","17:10","17:40","18:00","18:25","18:50","19:10","19:40","19:55","20:30","20:40","21:25","22:10","22:55"]},{"id":"1769","name":"Motta Tornabene Sud","lat":37.53583833,"lon":15.10994614,"times":["06:26","07:11","08:01","08:51","09:11","09:41","09:56","10:31","10:41","11:22","11:31","12:11","12:21","13:01","13:11","13:51","14:41","15:26","16:11","16:56","17:11","17:41","18:01","18:26","18:51","19:11","19:41","19:56","20:31","20:41","21:26","22:11","22:56"]},{"id":"474","name":"Albanese Lainò","lat":37.53870067,"lon":15.11386114,"times":["06:28","07:14","08:04","08:54","09:13","09:44","09:58","10:34","10:43","11:24","11:33","12:14","12:23","13:04","13:14","13:54","14:43","15:28","16:13","16:59","17:13","17:43","18:03","18:28","18:53","19:13","19:43","19:58","20:34","20:43","21:28","22:13","22:14","22:57"]},{"id":"456","name":"Albanese Vasta","lat":37.5400337,"lon":15.11487061,"times":["06:29","07:14","08:04","08:54","09:14","09:44","09:59","10:34","10:44","11:25","11:34","12:14","12:24","13:04","13:14","13:54","14:44","15:29","16:14","16:59","17:14","17:44","18:04","18:29","18:54","19:14","19:44","19:59","20:34","20:44","21:29","22:14","22:58"]},{"id":"1247","name":"Olimpiadi Combi","lat":37.5411608,"lon":15.11446483,"times":["06:29","07:15","08:05","08:55","09:14","09:45","09:59","10:35","10:44","11:26","11:34","12:15","12:24","13:05","13:15","13:55","14:44","15:29","16:14","17:00","17:14","17:44","18:04","18:29","18:54","19:14","19:44","19:59","20:35","20:44","21:29","22:14","22:15","22:59"]},{"id":"1248","name":"Olimpiadi ","lat":37.5425702,"lon":15.11323609,"times":["06:30","07:16","08:06","08:56","09:15","09:46","10:00","10:36","10:45","11:27","11:35","12:16","12:25","13:06","13:16","13:56","14:45","15:30","16:15","17:01","17:15","17:45","18:05","18:30","18:55","19:15","19:45","20:00","20:36","20:45","21:30","22:15","22:16","22:59"]},{"id":"1714","name":"Olimpiadi Sgroppillo","lat":37.54355356,"lon":15.11098841,"times":["06:31","07:17","08:07","08:57","09:16","09:47","10:01","10:37","10:46","11:28","11:36","12:17","12:26","13:07","13:17","13:57","14:46","15:31","16:16","17:02","17:16","17:46","18:06","18:31","18:56","19:16","19:46","20:01","20:37","20:46","21:31","22:16","22:17","23:00"]},{"id":"1249","name":"Sgroppillo Olimpiadi","lat":37.54352689,"lon":15.10969138,"times":["06:31","07:17","08:07","08:57","09:16","09:47","10:01","10:37","10:46","11:29","11:36","12:17","12:26","13:07","13:17","13:57","14:46","15:31","16:16","17:02","17:16","17:46","18:06","18:31","18:56","19:16","19:46","20:01","20:37","20:46","21:31","22:16","22:17","23:00"]},{"id":"1773","name":"Sgroppillo Scuola","lat":37.54186147,"lon":15.10802156,"times":["06:32","07:18","08:08","08:58","09:17","09:48","10:02","10:38","10:47","11:30","11:37","12:18","12:27","13:08","13:18","13:58","14:47","15:32","16:17","17:03","17:17","17:47","18:07","18:32","18:57","19:17","19:47","20:02","20:38","20:47","21:32","22:17","22:18","23:01"]},{"id":"1250","name":"Sgroppillo ","lat":37.54086266,"lon":15.10552184,"times":["06:33","07:19","08:09","08:59","09:18","09:49","10:03","10:39","10:48","11:31","11:38","12:19","12:28","13:09","13:19","13:59","14:48","15:33","16:18","17:04","17:18","17:48","18:08","18:33","18:58","19:18","19:48","20:03","20:39","20:48","21:33","22:18","22:19","23:02"]},{"id":"1251","name":"Sgroppillo Magellano","lat":37.54041708,"lon":15.10421933,"times":["06:33","07:20","08:10","09:00","09:18","09:50","10:03","10:40","10:48","11:31","11:38","12:20","12:28","13:10","13:20","14:00","14:48","15:33","16:18","17:05","17:18","17:48","18:08","18:33","18:58","19:18","19:48","20:03","20:40","20:48","21:33","22:18","22:20","23:02"]},{"id":"404","name":"Nuovaluce Magna Grecia","lat":37.53909152,"lon":15.10031243,"times":["06:35","07:21","08:11","09:01","09:20","09:51","10:05","10:41","10:50","11:33","11:40","12:21","12:30","13:11","13:21","14:01","14:50","15:35","16:20","17:06","17:20","17:50","18:10","18:35","19:00","19:20","19:50","20:05","20:41","20:50","21:35","22:20","22:21","23:03"]},{"id":"1671","name":"Parco Est","lat":37.53703667,"lon":15.10001538,"times":["06:36","07:23","08:13","09:03","09:21","09:53","10:06","10:43","10:51","11:35","11:41","12:23","12:31","13:13","13:23","14:03","14:51","15:36","16:21","17:08","17:21","17:51","18:11","18:36","19:01","19:21","19:51","20:06","20:43","20:51","21:36","22:21","22:23","23:04"]},{"id":"405","name":"Nuovaluce Almirante","lat":37.53802065,"lon":15.09823958,"times":["06:38","07:25","08:15","09:05","09:23","09:55","10:08","10:45","10:53","11:37","11:43","12:25","12:33","13:15","13:25","14:05","14:53","15:38","16:23","17:10","17:23","17:53","18:13","18:38","19:03","19:23","19:53","20:08","20:45","20:53","21:38","22:23","22:25","23:05"]},{"id":"406","name":"Nuovaluce Montelauro","lat":37.53884289,"lon":15.09579568,"times":["06:39","07:26","08:16","09:06","09:24","09:56","10:09","10:46","10:54","11:38","11:44","12:26","12:34","13:16","13:26","14:06","14:54","15:39","16:24","17:11","17:24","17:54","18:14","18:39","19:04","19:24","19:54","20:09","20:46","20:54","21:39","22:24","22:26","23:06"]},{"id":"195","name":"Montelauro","lat":37.53997029,"lon":15.09493684,"times":["06:39","07:27","08:17","09:07","09:24","09:57","10:09","10:47","10:54","11:39","11:44","12:27","12:34","13:17","13:27","14:07","14:54","15:39","16:24","17:12","17:24","17:54","18:14","18:39","19:04","19:24","19:54","20:09","20:47","20:54","21:39","22:24","22:27","23:07"]},{"id":"416","name":"Carnazza Montelauro","lat":37.54257363,"lon":15.09688716,"times":["06:40","07:28","08:18","09:08","09:25","09:58","10:10","10:48","10:55","11:41","11:45","12:28","12:35","13:18","13:28","14:08","14:55","15:40","16:25","17:13","17:25","17:55","18:15","18:40","19:05","19:25","19:55","20:10","20:48","20:55","21:40","22:25","22:28","23:08"]},{"id":"417","name":"Convento Carmine Carnazza","lat":37.54396891,"lon":15.09909639,"times":["06:41","07:29","08:19","09:09","09:26","09:59","10:11","10:49","10:56","11:42","11:46","12:29","12:36","13:19","13:29","14:09","14:56","15:41","16:26","17:14","17:26","17:56","18:16","18:41","19:06","19:26","19:56","20:11","20:49","20:56","21:41","22:26","22:29","23:09"]},{"id":"418","name":"Convento Carmine Colombo (1)","lat":37.543625,"lon":15.10073735,"times":["06:42","07:30","08:20","09:10","09:27","10:00","10:12","10:50","10:57","11:43","11:47","12:30","12:37","13:20","13:30","14:10","14:57","15:42","16:27","17:15","17:27","17:57","18:17","18:42","19:07","19:27","19:57","20:12","20:50","20:57","21:42","22:27","22:30","23:09"]},{"id":"419","name":"Convento Carmine Colombo (2)","lat":37.54256978,"lon":15.10147172,"times":["06:42","07:30","08:20","09:10","09:27","10:00","10:12","10:50","10:57","11:43","11:47","12:30","12:37","13:20","13:30","14:10","14:57","15:42","16:27","17:15","17:27","17:57","18:17","18:42","19:07","19:27","19:57","20:12","20:50","20:57","21:42","22:27","22:30","23:09"]},{"id":"420","name":"Convento Carmine San Marco","lat":37.54133478,"lon":15.10163984,"times":["06:43","07:31","08:21","09:11","09:28","10:01","10:13","10:51","10:58","11:44","11:48","12:31","12:38","13:21","13:31","14:11","14:58","15:43","16:28","17:16","17:28","17:58","18:18","18:43","19:08","19:28","19:58","20:13","20:51","20:58","21:43","22:28","22:31","23:10"]},{"id":"421","name":"Nuovalucello Sgroppillo","lat":37.53866609,"lon":15.10240594,"times":["06:44","07:32","08:22","09:12","09:29","10:02","10:14","10:52","10:59","11:45","11:49","12:32","12:39","13:22","13:32","14:12","14:59","15:44","16:29","17:17","17:29","17:59","18:19","18:44","19:09","19:29","19:59","20:14","20:52","20:59","21:44","22:29","22:32","23:11"]},{"id":"422","name":"Nuovalucello ","lat":37.53582764,"lon":15.10143995,"times":["06:45","07:34","08:24","09:14","09:30","10:04","10:15","10:54","11:00","11:47","11:50","12:34","12:40","13:24","13:34","14:14","15:00","15:45","16:30","17:19","17:30","18:00","18:20","18:45","19:10","19:30","20:00","20:15","20:54","21:00","21:45","22:30","22:34","23:12"]},{"id":"423","name":"Nuovalucello Vescovo Maurizio","lat":37.53389047,"lon":15.10055447,"times":["06:46","07:34","08:24","09:14","09:31","10:04","10:16","10:54","11:01","11:48","11:51","12:34","12:41","13:24","13:34","14:14","15:01","15:46","16:31","17:19","17:31","18:01","18:21","18:46","19:11","19:31","20:01","20:16","20:54","21:01","21:46","22:31","22:34","23:12"]},{"id":"428","name":"Ulisse Nord","lat":37.53134014,"lon":15.09993987,"times":["06:47","07:36","08:26","09:16","09:32","10:06","10:17","10:56","11:02","11:49","11:52","12:36","12:42","13:26","13:36","14:16","15:02","15:47","16:32","17:21","17:32","18:02","18:22","18:47","19:12","19:32","20:02","20:17","20:56","21:02","21:47","22:32","22:36","23:13"]},{"id":"429","name":"Polo Cagnoni Nord","lat":37.52974615,"lon":15.09824004,"times":["06:48","07:37","08:27","09:17","09:33","10:07","10:18","10:57","11:03","11:50","11:53","12:37","12:43","13:27","13:37","14:17","15:03","15:48","16:33","17:22","17:33","18:03","18:23","18:48","19:13","19:33","20:03","20:18","20:57","21:03","21:48","22:33","22:37","23:14"]},{"id":"475","name":"Polo Nuovalucello","lat":37.528371,"lon":15.09339424,"times":["06:49","07:38","08:28","09:18","09:34","10:08","10:19","10:58","11:04","11:53","11:54","12:38","12:44","13:28","13:38","14:18","15:04","15:49","16:34","17:23","17:34","18:04","18:24","18:49","19:14","19:34","20:04","20:19","20:58","21:04","21:49","22:34","22:38","23:15"]},{"id":"1564","name":"Polo Pordenone","lat":37.52800219,"lon":15.09244309,"times":["06:50","07:40","08:30","09:20","09:35","10:10","10:20","11:00","11:05","11:54","11:55","12:40","12:45","13:30","13:40","14:20","15:05","15:50","16:35","17:25","17:35","18:05","18:25","18:50","19:15","19:35","20:05","20:20","21:00","21:05","21:50","22:35","22:40","23:16"]},{"id":"430","name":"Duca Abruzzi Vittorio Veneto","lat":37.52743206,"lon":15.09530574,"times":["06:52","07:41","08:31","09:21","09:37","10:11","10:22","11:01","11:07","11:56","11:57","12:41","12:47","13:31","13:41","14:21","15:07","15:52","16:37","17:26","17:37","18:07","18:27","18:52","19:17","19:37","20:07","20:22","21:01","21:07","21:52","22:37","22:41","23:17"]},{"id":"431","name":"Vittorio Veneto Ravenna","lat":37.52655755,"lon":15.09553098,"times":["06:52","07:41","08:31","09:21","09:37","10:11","10:22","11:01","11:07","11:56","11:57","12:41","12:47","13:31","13:41","14:21","15:07","15:52","16:37","17:26","17:37","18:07","18:27","18:52","19:17","19:37","20:07","20:22","21:01","21:07","21:52","22:37","22:41","23:17"]},{"id":"1134","name":"Vagliasindi Patanè Romeo","lat":37.52474325,"lon":15.09476567,"times":["06:53","07:43","08:33","09:23","09:38","10:13","10:23","11:03","11:08","11:57","11:58","12:43","12:48","13:33","13:43","14:23","15:08","15:53","16:38","17:28","17:38","18:08","18:28","18:53","19:18","19:38","20:08","20:23","21:03","21:08","21:53","22:38","22:43","23:18"]},{"id":"277","name":"Michelangelo","lat":37.52350215,"lon":15.09526679,"times":["06:53","07:43","08:33","09:23","09:38","10:13","10:23","11:03","11:08","11:58","12:43","12:48","13:33","13:43","14:23","15:08","15:53","16:38","17:28","17:38","18:08","18:28","18:53","19:18","19:38","20:08","20:23","21:03","21:08","21:53","22:38","22:43","23:19"]},{"id":"325","name":"Parcheggio Famà (2)","lat":37.52256566,"lon":15.09411128,"times":["06:55","07:45","08:35","09:25","09:40","10:15","10:25","11:05","11:10","12:00","12:45","12:50","13:35","13:45","14:25","15:10","15:55","16:40","17:30","17:40","18:10","18:30","18:55","19:20","19:40","20:10","20:25","21:05","21:10","21:55","22:40","22:45","23:20"]}],"sabato":[{"id":"1287","name":"Vescovo Maurizio Sud","lat":37.53470669,"lon":15.10516229,"times":["06:25","07:10","08:00","08:50","09:40","10:30","11:20","12:10","13:00","13:50","14:40","15:25","16:10","16:55","17:40","18:25","19:10","19:55","20:40","21:25","22:10","22:55"]},{"id":"1769","name":"Motta Tornabene Sud","lat":37.53583833,"lon":15.10994614,"times":["06:26","07:11","08:01","08:51","09:41","10:31","11:22","12:11","13:01","13:51","14:41","15:26","16:11","16:56","17:41","18:26","19:11","19:56","20:41","21:26","22:11","22:56"]},{"id":"474","name":"Albanese Lainò","lat":37.53870067,"lon":15.11386114,"times":["06:28","07:14","08:04","08:54","09:44","10:34","11:24","12:14","13:04","13:54","14:43","15:28","16:13","16:59","17:43","18:28","19:13","19:58","20:43","21:28","22:13","22:14","22:57"]},{"id":"456","name":"Albanese Vasta","lat":37.5400337,"lon":15.11487061,"times":["06:29","07:14","08:04","08:54","09:44","10:34","11:25","12:14","13:04","13:54","14:44","15:29","16:14","16:59","17:44","18:29","19:14","19:59","20:44","21:29","22:14","22:58"]},{"id":"1247","name":"Olimpiadi Combi","lat":37.5411608,"lon":15.11446483,"times":["06:29","07:15","08:05","08:55","09:45","10:35","11:26","12:15","13:05","13:55","14:44","15:29","16:14","17:00","17:44","18:29","19:14","19:59","20:44","21:29","22:14","22:15","22:59"]},{"id":"1248","name":"Olimpiadi ","lat":37.5425702,"lon":15.11323609,"times":["06:30","07:16","08:06","08:56","09:46","10:36","11:27","12:16","13:06","13:56","14:45","15:30","16:15","17:01","17:45","18:30","19:15","20:00","20:45","21:30","22:15","22:16","22:59"]},{"id":"1714","name":"Olimpiadi Sgroppillo","lat":37.54355356,"lon":15.11098841,"times":["06:31","07:17","08:07","08:57","09:47","10:37","11:28","12:17","13:07","13:57","14:46","15:31","16:16","17:02","17:46","18:31","19:16","20:01","20:46","21:31","22:16","22:17","23:00"]},{"id":"1249","name":"Sgroppillo Olimpiadi","lat":37.54352689,"lon":15.10969138,"times":["06:31","07:17","08:07","08:57","09:47","10:37","11:29","12:17","13:07","13:57","14:46","15:31","16:16","17:02","17:46","18:31","19:16","20:01","20:46","21:31","22:16","22:17","23:00"]},{"id":"1773","name":"Sgroppillo Scuola","lat":37.54186147,"lon":15.10802156,"times":["06:32","07:18","08:08","08:58","09:48","10:38","11:30","12:18","13:08","13:58","14:47","15:32","16:17","17:03","17:47","18:32","19:17","20:02","20:47","21:32","22:17","22:18","23:01"]},{"id":"1250","name":"Sgroppillo ","lat":37.54086266,"lon":15.10552184,"times":["06:33","07:19","08:09","08:59","09:49","10:39","11:31","12:19","13:09","13:59","14:48","15:33","16:18","17:04","17:48","18:33","19:18","20:03","20:48","21:33","22:18","22:19","23:02"]},{"id":"1251","name":"Sgroppillo Magellano","lat":37.54041708,"lon":15.10421933,"times":["06:33","07:20","08:10","09:00","09:50","10:40","11:31","12:20","13:10","14:00","14:48","15:33","16:18","17:05","17:48","18:33","19:18","20:03","20:48","21:33","22:18","22:20","23:02"]},{"id":"404","name":"Nuovaluce Magna Grecia","lat":37.53909152,"lon":15.10031243,"times":["06:35","07:21","08:11","09:01","09:51","10:41","11:33","12:21","13:11","14:01","14:50","15:35","16:20","17:06","17:50","18:35","19:20","20:05","20:50","21:35","22:20","22:21","23:03"]},{"id":"1671","name":"Parco Est","lat":37.53703667,"lon":15.10001538,"times":["06:36","07:23","08:13","09:03","09:53","10:43","11:35","12:23","13:13","14:03","14:51","15:36","16:21","17:08","17:51","18:36","19:21","20:06","20:51","21:36","22:21","22:23","23:04"]},{"id":"405","name":"Nuovaluce Almirante","lat":37.53802065,"lon":15.09823958,"times":["06:38","07:25","08:15","09:05","09:55","10:45","11:37","12:25","13:15","14:05","14:53","15:38","16:23","17:10","17:53","18:38","19:23","20:08","20:53","21:38","22:23","22:25","23:05"]},{"id":"406","name":"Nuovaluce Montelauro","lat":37.53884289,"lon":15.09579568,"times":["06:39","07:26","08:16","09:06","09:56","10:46","11:38","12:26","13:16","14:06","14:54","15:39","16:24","17:11","17:54","18:39","19:24","20:09","20:54","21:39","22:24","22:26","23:06"]},{"id":"195","name":"Montelauro","lat":37.53997029,"lon":15.09493684,"times":["06:39","07:27","08:17","09:07","09:57","10:47","11:39","12:27","13:17","14:07","14:54","15:39","16:24","17:12","17:54","18:39","19:24","20:09","20:54","21:39","22:24","22:27","23:07"]},{"id":"416","name":"Carnazza Montelauro","lat":37.54257363,"lon":15.09688716,"times":["06:40","07:28","08:18","09:08","09:58","10:48","11:41","12:28","13:18","14:08","14:55","15:40","16:25","17:13","17:55","18:40","19:25","20:10","20:55","21:40","22:25","22:28","23:08"]},{"id":"417","name":"Convento Carmine Carnazza","lat":37.54396891,"lon":15.09909639,"times":["06:41","07:29","08:19","09:09","09:59","10:49","11:42","12:29","13:19","14:09","14:56","15:41","16:26","17:14","17:56","18:41","19:26","20:11","20:56","21:41","22:26","22:29","23:09"]},{"id":"418","name":"Convento Carmine Colombo (1)","lat":37.543625,"lon":15.10073735,"times":["06:42","07:30","08:20","09:10","10:00","10:50","11:43","12:30","13:20","14:10","14:57","15:42","16:27","17:15","17:57","18:42","19:27","20:12","20:57","21:42","22:27","22:30","23:09"]},{"id":"419","name":"Convento Carmine Colombo (2)","lat":37.54256978,"lon":15.10147172,"times":["06:42","07:30","08:20","09:10","10:00","10:50","11:43","12:30","13:20","14:10","14:57","15:42","16:27","17:15","17:57","18:42","19:27","20:12","20:57","21:42","22:27","22:30","23:09"]},{"id":"420","name":"Convento Carmine San Marco","lat":37.54133478,"lon":15.10163984,"times":["06:43","07:31","08:21","09:11","10:01","10:51","11:44","12:31","13:21","14:11","14:58","15:43","16:28","17:16","17:58","18:43","19:28","20:13","20:58","21:43","22:28","22:31","23:10"]},{"id":"421","name":"Nuovalucello Sgroppillo","lat":37.53866609,"lon":15.10240594,"times":["06:44","07:32","08:22","09:12","10:02","10:52","11:45","12:32","13:22","14:12","14:59","15:44","16:29","17:17","17:59","18:44","19:29","20:14","20:59","21:44","22:29","22:32","23:11"]},{"id":"422","name":"Nuovalucello ","lat":37.53582764,"lon":15.10143995,"times":["06:45","07:34","08:24","09:14","10:04","10:54","11:47","12:34","13:24","14:14","15:00","15:45","16:30","17:19","18:00","18:45","19:30","20:15","21:00","21:45","22:30","22:34","23:12"]},{"id":"423","name":"Nuovalucello Vescovo Maurizio","lat":37.53389047,"lon":15.10055447,"times":["06:46","07:34","08:24","09:14","10:04","10:54","11:48","12:34","13:24","14:14","15:01","15:46","16:31","17:19","18:01","18:46","19:31","20:16","21:01","21:46","22:31","22:34","23:12"]},{"id":"428","name":"Ulisse Nord","lat":37.53134014,"lon":15.09993987,"times":["06:47","07:36","08:26","09:16","10:06","10:56","11:49","12:36","13:26","14:16","15:02","15:47","16:32","17:21","18:02","18:47","19:32","20:17","21:02","21:47","22:32","22:36","23:13"]},{"id":"429","name":"Polo Cagnoni Nord","lat":37.52974615,"lon":15.09824004,"times":["06:48","07:37","08:27","09:17","10:07","10:57","11:50","12:37","13:27","14:17","15:03","15:48","16:33","17:22","18:03","18:48","19:33","20:18","21:03","21:48","22:33","22:37","23:14"]},{"id":"475","name":"Polo Nuovalucello","lat":37.528371,"lon":15.09339424,"times":["06:49","07:38","08:28","09:18","10:08","10:58","11:53","12:38","13:28","14:18","15:04","15:49","16:34","17:23","18:04","18:49","19:34","20:19","21:04","21:49","22:34","22:38","23:15"]},{"id":"1564","name":"Polo Pordenone","lat":37.52800219,"lon":15.09244309,"times":["06:50","07:40","08:30","09:20","10:10","11:00","11:54","12:40","13:30","14:20","15:05","15:50","16:35","17:25","18:05","18:50","19:35","20:20","21:05","21:50","22:35","22:40","23:16"]},{"id":"430","name":"Duca Abruzzi Vittorio Veneto","lat":37.52743206,"lon":15.09530574,"times":["06:52","07:41","08:31","09:21","10:11","11:01","11:56","12:41","13:31","14:21","15:07","15:52","16:37","17:26","18:07","18:52","19:37","20:22","21:07","21:52","22:37","22:41","23:17"]},{"id":"431","name":"Vittorio Veneto Ravenna","lat":37.52655755,"lon":15.09553098,"times":["06:52","07:41","08:31","09:21","10:11","11:01","11:56","12:41","13:31","14:21","15:07","15:52","16:37","17:26","18:07","18:52","19:37","20:22","21:07","21:52","22:37","22:41","23:17"]},{"id":"1134","name":"Vagliasindi Patanè Romeo","lat":37.52474325,"lon":15.09476567,"times":["06:53","07:43","08:33","09:23","10:13","11:03","11:57","12:43","13:33","14:23","15:08","15:53","16:38","17:28","18:08","18:53","19:38","20:23","21:08","21:53","22:38","22:43","23:18"]},{"id":"277","name":"Michelangelo","lat":37.52350215,"lon":15.09526679,"times":["06:53","07:43","08:33","09:23","10:13","11:03","11:58","12:43","13:33","14:23","15:08","15:53","16:38","17:28","18:08","18:53","19:38","20:23","21:08","21:53","22:38","22:43","23:19"]},{"id":"325","name":"Parcheggio Famà (2)","lat":37.52256566,"lon":15.09411128,"times":["06:55","07:45","08:35","09:25","10:15","11:05","12:00","12:45","13:35","14:25","15:10","15:55","16:40","17:30","18:10","18:55","19:40","20:25","21:10","21:55","22:40","22:45","23:20"]}],"domenica":[{"id":"1287","name":"Vescovo Maurizio Sud","lat":37.53470669,"lon":15.10516229,"times":["06:55","07:40","08:25","09:10","09:55","10:40","11:30","12:20","13:10","15:55","16:40","17:25","18:10","18:55","19:40","20:25"]},{"id":"1769","name":"Motta Tornabene Sud","lat":37.53583833,"lon":15.10994614,"times":["06:56","07:41","08:26","09:11","09:56","10:41","11:31","12:21","13:11","15:56","16:41","17:26","18:11","18:56","19:41","20:27"]},{"id":"474","name":"Albanese Lainò","lat":37.53870067,"lon":15.11386114,"times":["06:58","07:43","08:28","09:13","09:58","10:43","11:33","12:23","13:14","15:58","16:43","17:28","18:13","18:58","19:43","20:29"]},{"id":"456","name":"Albanese Vasta","lat":37.5400337,"lon":15.11487061,"times":["06:59","07:44","08:29","09:14","09:59","10:44","11:34","12:24","13:14","15:59","16:44","17:29","18:14","18:59","19:44","20:30"]},{"id":"1247","name":"Olimpiadi Combi","lat":37.5411608,"lon":15.11446483,"times":["06:59","07:44","08:29","09:14","09:59","10:44","11:34","12:24","13:15","15:59","16:44","17:29","18:14","18:59","19:44","20:31"]},{"id":"1248","name":"Olimpiadi ","lat":37.5425702,"lon":15.11323609,"times":["07:00","07:45","08:30","09:15","10:00","10:45","11:35","12:25","13:16","16:00","16:45","17:30","18:15","19:00","19:45","20:32"]},{"id":"1714","name":"Olimpiadi Sgroppillo","lat":37.54355356,"lon":15.11098841,"times":["07:01","07:46","08:31","09:16","10:01","10:46","11:36","12:26","13:17","16:01","16:46","17:31","18:16","19:01","19:46","20:33"]},{"id":"1249","name":"Sgroppillo Olimpiadi","lat":37.54352689,"lon":15.10969138,"times":["07:01","07:46","08:31","09:16","10:01","10:46","11:36","12:26","13:17","16:01","16:46","17:31","18:16","19:01","19:46","20:34"]},{"id":"1773","name":"Sgroppillo Scuola","lat":37.54186147,"lon":15.10802156,"times":["07:02","07:47","08:32","09:17","10:02","10:47","11:37","12:27","13:18","16:02","16:47","17:32","18:17","19:02","19:47","20:35"]},{"id":"1250","name":"Sgroppillo ","lat":37.54086266,"lon":15.10552184,"times":["07:03","07:48","08:33","09:18","10:03","10:48","11:38","12:28","13:19","16:03","16:48","17:33","18:18","19:03","19:48","20:36"]},{"id":"1251","name":"Sgroppillo Magellano","lat":37.54041708,"lon":15.10421933,"times":["07:03","07:48","08:33","09:18","10:03","10:48","11:38","12:28","13:20","16:03","16:48","17:33","18:18","19:03","19:48","20:36"]},{"id":"404","name":"Nuovaluce Magna Grecia","lat":37.53909152,"lon":15.10031243,"times":["07:05","07:50","08:35","09:20","10:05","10:50","11:40","12:30","13:21","16:05","16:50","17:35","18:20","19:05","19:50","20:38"]},{"id":"1671","name":"Parco Est","lat":37.53703667,"lon":15.10001538,"times":["07:06","07:51","08:36","09:21","10:06","10:51","11:41","12:31","13:23","16:06","16:51","17:36","18:21","19:06","19:51","20:40"]},{"id":"405","name":"Nuovaluce Almirante","lat":37.53802065,"lon":15.09823958,"times":["07:08","07:53","08:38","09:23","10:08","10:53","11:43","12:33","13:25","16:08","16:53","17:38","18:23","19:08","19:53","20:42"]},{"id":"406","name":"Nuovaluce Montelauro","lat":37.53884289,"lon":15.09579568,"times":["07:09","07:54","08:39","09:24","10:09","10:54","11:44","12:34","13:26","16:09","16:54","17:39","18:24","19:09","19:54","20:43"]},{"id":"195","name":"Montelauro","lat":37.53997029,"lon":15.09493684,"times":["07:09","07:54","08:39","09:24","10:09","10:54","11:44","12:34","13:27","16:09","16:54","17:39","18:24","19:09","19:54","20:44"]},{"id":"416","name":"Carnazza Montelauro","lat":37.54257363,"lon":15.09688716,"times":["07:10","07:55","08:40","09:25","10:10","10:55","11:45","12:35","13:28","16:10","16:55","17:40","18:25","19:10","19:55","20:46"]},{"id":"417","name":"Convento Carmine Carnazza","lat":37.54396891,"lon":15.09909639,"times":["07:11","07:56","08:41","09:26","10:11","10:56","11:46","12:36","13:29","16:11","16:56","17:41","18:26","19:11","19:56","20:47"]},{"id":"418","name":"Convento Carmine Colombo (1)","lat":37.543625,"lon":15.10073735,"times":["07:12","07:57","08:42","09:27","10:12","10:57","11:47","12:37","13:30","16:12","16:57","17:42","18:27","19:12","19:57","20:48"]},{"id":"419","name":"Convento Carmine Colombo (2)","lat":37.54256978,"lon":15.10147172,"times":["07:12","07:57","08:42","09:27","10:12","10:57","11:47","12:37","13:30","16:12","16:57","17:42","18:27","19:12","19:57","20:48"]},{"id":"420","name":"Convento Carmine San Marco","lat":37.54133478,"lon":15.10163984,"times":["07:13","07:58","08:43","09:28","10:13","10:58","11:48","12:38","13:31","16:13","16:58","17:43","18:28","19:13","19:58","20:49"]},{"id":"421","name":"Nuovalucello Sgroppillo","lat":37.53866609,"lon":15.10240594,"times":["07:14","07:59","08:44","09:29","10:14","10:59","11:49","12:39","13:32","16:14","16:59","17:44","18:29","19:14","19:59","20:50"]},{"id":"422","name":"Nuovalucello ","lat":37.53582764,"lon":15.10143995,"times":["07:15","08:00","08:45","09:30","10:15","11:00","11:50","12:40","13:34","16:15","17:00","17:45","18:30","19:15","20:00","20:52"]},{"id":"423","name":"Nuovalucello Vescovo Maurizio","lat":37.53389047,"lon":15.10055447,"times":["07:16","08:01","08:46","09:31","10:16","11:01","11:51","12:41","13:34","16:16","17:01","17:46","18:31","19:16","20:01","20:53"]},{"id":"428","name":"Ulisse Nord","lat":37.53134014,"lon":15.09993987,"times":["07:17","08:02","08:47","09:32","10:17","11:02","11:52","12:42","13:36","16:17","17:02","17:47","18:32","19:17","20:02","20:54"]},{"id":"429","name":"Polo Cagnoni Nord","lat":37.52974615,"lon":15.09824004,"times":["07:18","08:03","08:48","09:33","10:18","11:03","11:53","12:43","13:37","16:18","17:03","17:48","18:33","19:18","20:03","20:55"]},{"id":"475","name":"Polo Nuovalucello","lat":37.528371,"lon":15.09339424,"times":["07:19","08:04","08:49","09:34","10:19","11:04","11:54","12:44","13:38","16:19","17:04","17:49","18:34","19:19","20:04","20:58"]},{"id":"1564","name":"Polo Pordenone","lat":37.52800219,"lon":15.09244309,"times":["07:20","08:05","08:50","09:35","10:20","11:05","11:55","12:45","13:40","16:20","17:05","17:50","18:35","19:20","20:05","20:59"]},{"id":"430","name":"Duca Abruzzi Vittorio Veneto","lat":37.52743206,"lon":15.09530574,"times":["07:22","08:07","08:52","09:37","10:22","11:07","11:57","12:47","13:41","16:22","17:07","17:52","18:37","19:22","20:07","21:01"]},{"id":"431","name":"Vittorio Veneto Ravenna","lat":37.52655755,"lon":15.09553098,"times":["07:22","08:07","08:52","09:37","10:22","11:07","11:57","12:47","13:41","16:22","17:07","17:52","18:37","19:22","20:07","21:01"]},{"id":"1134","name":"Vagliasindi Patanè Romeo","lat":37.52474325,"lon":15.09476567,"times":["07:23","08:08","08:53","09:38","10:23","11:08","11:58","12:48","13:43","16:23","17:08","17:53","18:38","19:23","20:08","21:02"]},{"id":"277","name":"Michelangelo","lat":37.52350215,"lon":15.09526679,"times":["07:23","08:08","08:53","09:38","10:23","11:08","11:58","12:48","13:43","16:23","17:08","17:53","18:38","19:23","20:08","21:03"]},{"id":"325","name":"Parcheggio Famà (2)","lat":37.52256566,"lon":15.09411128,"times":["07:25","08:10","08:55","09:40","10:25","11:10","12:00","12:50","13:45","16:25","17:10","17:55","18:40","19:25","20:10","21:05"]}]}}}