{"id":"421","directions":{"0":{"feriale":[{"id":"881","name":"Terminal Stazione Centrale","lat":37.50684685,"lon":15.09959863,"times":["05:45","06:20","06:40","07:00","07:20","07:40","08:00","08:20","08:40","09:00","09:20","09:30","09:40","10:00","10:20","10:30","10:40","11:00","11:20","11:30","11:40","12:00","12:20","12:30","12:40","13:00","13:20","13:40","14:00","14:27","14:54","15:21","15:48","16:15","16:42","17:09","17:36","17:40","18:03","18:20","18:30","18:57","19:00","19:24","19:40","19:51","20:18","20:20","20:45","21:00","21:15","22:00","23:00","00:00"]},{"id":"644","name":"Giovanni XXIII Metro Est","lat":37.50838205,"lon":15.10037316,"times":["05:45","06:20","06:41","07:01","07:21","07:41","08:01","08:21","08:41","09:00","09:01","09:21","09:30","09:41","10:00","10:01","10:21","10:30","10:41","11:00","11:01","11:21","11:30","11:41","12:00","12:01","12:21","12:30","12:41","13:00","13:01","13:21","13:41","14:01","14:28","14:55","15:22","15:49","16:16","16:43","17:10","17:37","17:40","18:04","18:20","18:31","18:58","19:00","19:25","19:40","19:52","20:19","20:20","20:46","21:00","21:15","22:00","23:00","00:00"]},{"id":"645","name":"Africa Ciminiere","lat":37.51077787,"lon":15.10248097,"times":["05:47","06:22","06:43","07:03","07:23","07:43","08:03","08:23","08:43","09:02","09:03","09:23","09:32","09:43","10:02","10:03","10:23","10:32","10:43","11:02","11:03","11:23","11:32","11:43","12:02","12:03","12:23","12:32","12:43","13:02","13:03","13:23","13:42","14:02","14:29","14:56","15:23","15:50","16:17","16:44","17:11","17:38","17:42","18:05","18:22","18:32","18:59","19:02","19:26","19:27","19:42","19:53","19:54","20:20","20:21","20:47","21:02","21:17","22:02","23:02","00:02"]},{"id":"646","name":"Africa Galatea Est","lat":37.51260677,"lon":15.10347923,"times":["05:47","06:23","06:44","07:04","07:24","07:44","08:04","08:24","08:44","09:03","09:04","09:24","09:33","09:44","10:03","10:04","10:24","10:33","10:44","11:03","11:04","11:24","11:33","11:44","12:03","12:04","12:24","12:33","12:44","13:03","13:04","13:24","13:43","14:04","14:31","14:58","15:25","15:52","16:19","16:46","17:13","17:40","17:43","18:07","18:23","18:34","19:01","19:03","19:28","19:43","19:55","20:21","20:22","20:49","21:03","21:18","22:03","23:03","00:02"]},{"id":"943","name":"Africa Europa FS","lat":37.51463959,"lon":15.10467252,"times":["05:48","06:24","06:45","07:05","07:25","07:45","08:05","08:25","08:45","09:04","09:05","09:25","09:34","09:45","10:04","10:05","10:25","10:34","10:45","11:04","11:05","11:25","11:34","11:45","12:04","12:05","12:25","12:34","12:45","13:04","13:05","13:25","13:44","14:05","14:32","14:59","15:26","15:53","16:20","16:47","17:14","17:41","17:44","18:08","18:24","18:35","19:02","19:04","19:29","19:30","19:44","19:56","19:57","20:22","20:50","21:04","21:19","22:04","23:04","00:03"]},{"id":"1256","name":"Italia Europa","lat":37.51654464,"lon":15.10471811,"times":["05:50","06:26","06:48","07:08","07:28","07:48","08:08","08:28","08:48","09:06","09:08","09:28","09:36","09:48","10:06","10:08","10:28","10:36","10:48","11:06","11:08","11:28","11:36","11:48","12:06","12:08","12:28","12:36","12:48","13:06","13:08","13:28","13:47","14:07","14:34","15:01","15:28","15:55","16:22","16:49","17:16","17:43","17:46","18:10","18:26","18:37","19:04","19:06","19:31","19:32","19:46","19:58","19:59","20:24","20:25","20:52","21:06","21:21","22:06","23:06","00:05"]},{"id":"106","name":"Italia Aquileia","lat":37.51615018,"lon":15.10227332,"times":["05:51","06:27","06:49","07:09","07:29","07:49","08:09","08:29","08:49","09:07","09:09","09:29","09:37","09:49","10:07","10:09","10:29","10:37","10:49","11:07","11:09","11:29","11:37","11:49","12:07","12:09","12:29","12:37","12:49","13:07","13:09","13:29","13:48","14:09","14:36","15:03","15:30","15:57","16:24","16:51","17:18","17:45","17:47","18:12","18:27","18:39","19:06","19:07","19:33","19:34","19:47","20:00","20:01","20:24","20:26","20:54","21:07","21:22","22:07","23:07","00:06"]},{"id":"107","name":"Italia Pasubio Nord","lat":37.51577359,"lon":15.09995305,"times":["05:52","06:28","06:50","07:10","07:30","07:50","08:10","08:30","08:50","09:08","09:10","09:30","09:38","09:50","10:08","10:10","10:30","10:38","10:50","11:08","11:10","11:30","11:38","11:50","12:08","12:10","12:30","12:38","12:50","13:08","13:10","13:30","13:49","14:10","14:37","15:04","15:31","15:58","16:25","16:52","17:19","17:46","17:48","18:13","18:28","18:40","19:07","19:08","19:34","19:35","19:48","20:01","20:02","20:25","20:27","20:55","21:08","21:23","22:08","23:08","00:07"]},{"id":"108","name":"Italia Vittorio Veneto","lat":37.51523567,"lon":15.09646707,"times":["05:53","06:29","06:52","07:12","07:32","07:52","08:12","08:32","08:52","09:10","09:12","09:32","09:40","09:52","10:10","10:12","10:32","10:40","10:52","11:10","11:12","11:32","11:40","11:52","12:10","12:12","12:32","12:39","12:52","13:09","13:12","13:32","13:50","14:11","14:38","15:05","15:32","15:59","16:26","16:53","17:20","17:47","17:50","18:14","18:30","18:41","19:08","19:10","19:35","19:37","19:50","20:02","20:04","20:26","20:28","20:56","21:09","21:24","22:09","23:09","00:08"]},{"id":"109","name":"Verga Nord","lat":37.51455384,"lon":15.09246044,"times":["05:55","06:30","06:54","07:14","07:34","07:54","08:14","08:34","08:54","09:11","09:14","09:34","09:41","09:54","10:11","10:14","10:34","10:41","10:54","11:11","11:14","11:34","11:41","11:54","12:11","12:14","12:34","12:40","12:54","13:10","13:14","13:34","13:52","14:13","14:40","15:07","15:34","16:01","16:28","16:55","17:22","17:49","17:51","18:16","18:31","18:43","19:10","19:11","19:37","19:39","19:51","20:04","20:06","20:27","20:30","20:58","21:10","21:25","22:10","23:10","00:10"]},{"id":"110","name":"Trento Nord","lat":37.51408752,"lon":15.08934808,"times":["05:56","06:32","06:56","07:16","07:36","07:56","08:16","08:36","08:56","09:13","09:16","09:36","09:43","09:56","10:13","10:16","10:36","10:43","10:56","11:13","11:16","11:36","11:43","11:56","12:13","12:16","12:36","12:42","12:56","13:12","13:16","13:36","13:53","14:15","14:42","15:09","15:36","16:03","16:30","16:57","17:24","17:51","17:53","18:18","18:33","18:45","19:12","19:13","19:39","19:41","19:53","20:06","20:08","20:28","20:31","21:00","21:12","21:27","22:12","23:12","00:11"]},{"id":"111","name":"XX Settembre Imbriani","lat":37.51358073,"lon":15.08633398,"times":["05:57","06:33","06:57","07:17","07:37","07:57","08:17","08:37","08:57","09:14","09:17","09:37","09:44","09:57","10:14","10:17","10:37","10:44","10:57","11:14","11:17","11:37","11:44","11:57","12:14","12:17","12:37","12:43","12:57","13:13","13:17","13:37","13:55","14:16","14:43","15:10","15:37","16:04","16:31","16:58","17:25","17:52","17:54","18:19","18:34","18:46","19:13","19:14","19:40","19:42","19:54","20:07","20:09","20:28","20:32","21:01","21:13","21:28","22:13","23:13","00:12"]},{"id":"303","name":"ROMA","lat":37.51314501,"lon":15.08400605,"times":["05:58","06:34","06:58","07:18","07:38","07:58","08:18","08:38","08:58","09:15","09:18","09:38","09:45","09:58","10:15","10:18","10:38","10:45","10:58","11:15","11:18","11:38","11:45","11:58","12:15","12:18","12:38","12:44","12:58","13:14","13:18","13:38","13:56","14:17","14:44","15:11","15:38","16:05","16:32","16:59","17:26","17:53","17:55","18:20","18:35","18:47","19:14","19:15","19:41","19:44","19:55","20:08","20:11","20:29","20:33","21:02","21:14","21:29","22:14","23:14","00:13"]},{"id":"304","name":"Regina Margherita Tomaselli","lat":37.51275023,"lon":15.08141438,"times":["05:58","06:35","07:00","07:20","07:40","08:00","08:20","08:40","09:00","09:16","09:20","09:40","09:46","10:00","10:16","10:20","10:40","10:46","11:00","11:16","11:20","11:40","11:46","12:00","12:16","12:20","12:40","12:45","13:00","13:15","13:20","13:40","13:57","14:19","14:46","15:13","15:40","16:07","16:34","17:01","17:28","17:55","17:56","18:22","18:36","18:49","19:16","19:43","19:45","19:56","20:10","20:12","20:30","20:35","21:04","21:15","21:30","22:15","23:15","00:13"]},{"id":"305","name":"S.M. Gesù Cifali","lat":37.51230144,"lon":15.078619,"times":["05:59","06:36","07:01","07:21","07:41","08:01","08:21","08:41","09:01","09:17","09:21","09:41","09:47","10:01","10:17","10:21","10:41","10:47","11:01","11:17","11:21","11:41","11:47","12:01","12:17","12:21","12:41","12:46","13:01","13:16","13:21","13:41","13:58","14:20","14:47","15:14","15:41","16:08","16:35","17:02","17:29","17:56","17:57","18:23","18:37","18:50","19:17","19:44","19:47","19:57","20:11","20:14","20:30","20:36","21:05","21:16","21:31","22:16","23:16","00:14"]},{"id":"668","name":"Rapisardi Lavaggi","lat":37.51161016,"lon":15.07434112,"times":["06:01","06:37","07:03","07:23","07:43","08:03","08:23","08:43","09:03","09:19","09:23","09:43","09:49","10:03","10:19","10:23","10:43","10:49","11:03","11:19","11:23","11:43","11:49","12:03","12:19","12:23","12:43","12:47","13:03","13:17","13:23","13:43","14:00","14:22","14:49","15:16","15:43","16:10","16:37","17:04","17:31","17:58","17:59","18:25","18:39","18:52","19:19","19:46","19:49","19:59","20:13","20:16","20:31","20:38","21:07","21:17","21:32","22:17","23:17","00:16"]},{"id":"944","name":"Rapisardi Fava","lat":37.51117003,"lon":15.07185135,"times":["06:02","06:38","07:05","07:25","07:45","08:05","08:25","08:45","09:05","09:20","09:25","09:45","09:50","10:05","10:20","10:25","10:45","10:50","11:05","11:20","11:25","11:45","11:50","12:05","12:20","12:25","12:45","12:48","13:05","13:18","13:25","13:45","14:01","14:23","14:50","15:17","15:44","16:11","16:38","17:05","17:32","17:59","18:00","18:26","18:40","18:53","19:20","19:47","19:50","20:00","20:14","20:17","20:32","20:39","21:08","21:18","21:33","22:18","23:18","00:17"]},{"id":"945","name":"Rapisardi Due Giugno","lat":37.51079291,"lon":15.06941823,"times":["06:03","06:39","07:06","07:26","07:46","08:06","08:26","08:46","09:06","09:21","09:26","09:46","09:51","10:06","10:21","10:26","10:46","10:51","11:06","11:21","11:26","11:46","11:51","12:06","12:21","12:26","12:46","12:49","13:06","13:19","13:26","13:46","14:02","14:24","14:51","15:18","15:45","16:12","16:39","17:06","17:33","18:00","18:01","18:27","18:41","18:54","19:21","19:48","19:52","20:01","20:15","20:19","20:33","20:40","21:09","21:19","21:34","22:19","23:19","00:18"]},{"id":"946","name":"Rapisardi Martelli Castaldi","lat":37.51035277,"lon":15.06675879,"times":["06:04","06:40","07:07","07:27","07:47","08:07","08:27","08:47","09:07","09:22","09:27","09:47","09:52","10:07","10:22","10:27","10:47","10:52","11:07","11:22","11:27","11:47","11:52","12:07","12:22","12:27","12:47","12:50","13:07","13:20","13:27","13:47","14:03","14:26","14:53","15:20","15:47","16:14","16:41","17:08","17:35","18:02","18:29","18:42","18:56","19:22","19:23","19:50","19:53","20:02","20:17","20:20","20:33","20:41","21:11","21:20","21:35","22:20","23:20","00:19"]},{"id":"947","name":"Rapisardi San Luigi","lat":37.51004734,"lon":15.06490286,"times":["06:04","06:41","07:08","07:28","07:48","08:08","08:28","08:48","09:08","09:23","09:28","09:48","09:53","10:08","10:23","10:28","10:48","10:53","11:08","11:23","11:28","11:48","11:53","12:08","12:23","12:28","12:48","12:51","13:08","13:21","13:28","13:48","14:04","14:26","14:53","15:20","15:47","16:14","16:41","17:08","17:35","18:02","18:03","18:29","18:43","18:56","19:23","19:50","19:54","20:03","20:17","20:21","20:34","20:42","21:11","21:21","21:36","22:21","23:21","00:19"]},{"id":"948","name":"Rapisardi Villarà","lat":37.50962511,"lon":15.06228874,"times":["06:05","06:42","07:10","07:30","07:50","08:10","08:30","08:50","09:10","09:24","09:30","09:50","09:54","10:10","10:24","10:30","10:50","10:54","11:10","11:24","11:30","11:50","11:54","12:10","12:24","12:30","12:50","12:52","13:10","13:22","13:30","13:50","14:05","14:28","14:55","15:22","15:49","16:16","16:43","17:10","17:37","18:04","18:31","18:44","18:58","19:24","19:25","19:52","19:56","20:04","20:19","20:23","20:35","20:43","21:13","21:22","21:37","22:22","23:22","00:20"]},{"id":"949","name":"Rapisardi Sauro","lat":37.5093555,"lon":15.06074969,"times":["06:06","06:43","07:10","07:30","07:50","08:10","08:30","08:50","09:10","09:25","09:30","09:50","09:55","10:10","10:25","10:30","10:50","10:55","11:10","11:25","11:30","11:50","11:55","12:10","12:25","12:30","12:50","12:53","13:10","13:23","13:30","13:50","14:06","14:28","14:55","15:22","15:49","16:16","16:43","17:10","17:37","18:04","18:05","18:31","18:45","18:58","19:25","19:52","19:56","20:05","20:19","20:23","20:35","20:43","21:13","21:23","21:38","22:23","23:23","00:21"]},{"id":"950","name":"Rapisardi Diaz","lat":37.50890628,"lon":15.05784142,"times":["06:07","06:44","07:12","07:32","07:52","08:12","08:32","08:52","09:12","09:26","09:32","09:52","09:56","10:12","10:26","10:32","10:52","10:56","11:12","11:26","11:32","11:52","11:56","12:12","12:26","12:32","12:52","12:54","13:12","13:24","13:32","13:52","14:07","14:30","14:57","15:24","15:51","16:18","16:45","17:12","17:39","18:06","18:33","18:46","19:00","19:26","19:27","19:54","19:58","20:06","20:21","20:25","20:36","20:45","21:15","21:24","21:39","22:24","23:24","00:22"]},{"id":"319","name":"Rapisardi Stoppani","lat":37.50854672,"lon":15.05579316,"times":["06:08","06:45","07:13","07:33","07:53","08:13","08:33","08:53","09:13","09:27","09:33","09:53","09:57","10:13","10:27","10:33","10:53","10:57","11:13","11:27","11:33","11:53","11:57","12:13","12:27","12:33","12:53","12:55","13:13","13:25","13:33","13:53","14:08","14:31","14:58","15:25","15:52","16:19","16:46","17:13","17:40","18:07","18:34","18:47","19:01","19:27","19:28","19:55","19:59","20:07","20:22","20:26","20:36","20:46","21:16","21:25","21:40","22:25","23:25","00:23"]},{"id":"320","name":"Rapisardi Savi","lat":37.50828606,"lon":15.05422022,"times":["06:08","06:45","07:14","07:34","07:54","08:14","08:34","08:54","09:14","09:27","09:34","09:54","09:57","10:14","10:27","10:34","10:54","10:57","11:14","11:27","11:34","11:54","11:57","12:14","12:27","12:34","12:54","12:55","13:14","13:25","13:34","13:54","14:09","14:32","14:59","15:26","15:53","16:20","16:47","17:14","17:41","18:07","18:08","18:35","18:47","19:02","19:27","19:29","19:56","20:00","20:07","20:23","20:27","20:37","20:46","21:17","21:25","21:40","22:25","23:25","00:23"]},{"id":"321","name":"Rapisardi Fermi Nord","lat":37.50786357,"lon":15.05164017,"times":["06:09","06:46","07:15","07:35","07:55","08:15","08:35","08:55","09:15","09:28","09:35","09:55","09:58","10:15","10:28","10:35","10:55","10:58","11:15","11:28","11:35","11:55","11:58","12:15","12:28","12:35","12:55","12:56","13:15","13:26","13:35","13:55","14:10","14:33","15:00","15:27","15:54","16:21","16:48","17:15","17:42","18:08","18:09","18:36","18:48","19:03","19:28","19:30","19:57","20:01","20:08","20:24","20:28","20:37","20:47","21:18","21:26","21:41","22:26","23:26","00:24"]},{"id":"491","name":"Eroi D'Ungheria","lat":37.50751291,"lon":15.04961461,"times":["06:10","06:47","07:16","07:36","07:56","08:16","08:36","08:56","09:16","09:29","09:36","09:56","09:59","10:16","10:29","10:36","10:56","10:59","11:16","11:29","11:36","11:56","11:59","12:16","12:29","12:36","12:56","12:57","13:16","13:27","13:36","13:56","14:11","14:34","15:01","15:28","15:55","16:22","16:49","17:16","17:43","18:09","18:10","18:37","18:49","19:04","19:29","19:31","19:58","20:02","20:09","20:25","20:29","20:38","20:48","21:19","21:27","21:42","22:27","23:27","00:25"]},{"id":"951","name":"Rapisardi Marconi Nord","lat":37.50705419,"lon":15.04721562,"times":["06:11","06:48","07:17","07:37","07:57","08:17","08:37","08:57","09:17","09:30","09:37","09:57","10:00","10:17","10:30","10:37","10:57","11:00","11:17","11:30","11:37","11:57","12:00","12:17","12:30","12:37","12:57","12:58","13:17","13:28","13:37","13:57","14:12","14:35","15:02","15:29","15:56","16:23","16:50","17:17","17:44","18:10","18:11","18:38","18:50","19:05","19:30","19:32","19:59","20:04","20:10","20:26","20:31","20:38","20:49","21:20","21:28","21:43","22:28","23:28","00:26"]},{"id":"906","name":"Palermo Nord (2)","lat":37.50949068,"lon":15.04487798,"times":["06:12","06:50","07:20","07:40","08:00","08:20","08:40","09:00","09:20","09:32","09:40","10:00","10:02","10:20","10:32","10:40","11:00","11:02","11:20","11:32","11:40","12:00","12:02","12:20","12:32","12:40","13:00","13:20","13:30","13:40","14:00","14:14","14:37","15:04","15:31","15:58","16:25","16:52","17:19","17:46","18:12","18:13","18:40","18:52","19:07","19:32","19:34","20:01","20:06","20:12","20:28","20:33","20:40","20:51","21:22","21:30","21:45","22:30","23:30","00:27"]},{"id":"1696","name":"Palermo Garibaldi (3)","lat":37.51133775,"lon":15.04169651,"times":["06:13","06:51","07:22","07:42","08:02","08:22","08:42","09:02","09:22","09:34","09:42","10:02","10:04","10:22","10:34","10:42","11:02","11:04","11:22","11:34","11:42","12:02","12:04","12:22","12:34","12:42","13:01","13:02","13:22","13:31","13:42","14:02","14:15","14:39","15:06","15:33","16:00","16:27","16:54","17:21","17:48","18:14","18:15","18:42","18:54","19:09","19:34","19:36","20:03","20:08","20:14","20:30","20:35","20:41","20:53","21:24","21:31","21:46","22:31","23:31","00:28"]},{"id":"1784","name":"Mezzocampo Fontana","lat":37.51250958,"lon":15.03807089,"times":["06:15","06:53","07:24","07:44","08:04","08:24","08:44","09:04","09:24","09:36","09:44","10:04","10:06","10:24","10:36","10:44","11:04","11:06","11:24","11:36","11:44","12:04","12:06","12:24","12:36","12:44","13:03","13:04","13:24","13:33","13:44","14:04","14:18","14:41","15:08","15:35","16:02","16:29","16:56","17:23","17:50","18:16","18:17","18:44","18:56","19:11","19:36","19:38","20:05","20:11","20:16","20:32","20:38","20:42","20:55","21:26","21:33","21:48","22:33","23:33","00:30"]},{"id":"549","name":"Vigo Mercato Ovest","lat":37.51041132,"lon":15.03567638,"times":["06:17","06:55","07:27","07:47","08:07","08:27","08:47","09:07","09:27","09:38","09:47","10:07","10:08","10:27","10:38","10:47","11:07","11:08","11:27","11:38","11:47","12:07","12:08","12:27","12:38","12:47","13:05","13:07","13:27","13:35","13:47","14:07","14:20","14:44","15:11","15:38","16:05","16:32","16:59","17:26","17:53","18:18","18:20","18:47","18:58","19:14","19:38","19:41","20:08","20:14","20:18","20:35","20:41","20:43","20:57","21:29","21:35","21:50","22:35","23:35","00:32"]},{"id":"550","name":"Vigo Municipio","lat":37.50851851,"lon":15.03549444,"times":["06:18","06:56","07:28","07:48","08:08","08:28","08:48","09:08","09:28","09:39","09:48","10:08","10:09","10:28","10:39","10:48","11:08","11:09","11:28","11:39","11:48","12:08","12:09","12:28","12:39","12:48","13:06","13:08","13:28","13:36","13:48","14:08","14:21","14:45","15:12","15:39","16:06","16:33","17:00","17:27","17:54","18:19","18:21","18:48","18:59","19:15","19:39","19:42","20:09","20:15","20:19","20:36","20:42","20:44","20:58","21:30","21:36","21:51","22:36","23:36","00:33"]},{"id":"551","name":"Raccuglia (1)","lat":37.5073201,"lon":15.03411349,"times":["06:19","06:57","07:29","07:49","08:09","08:29","08:49","09:09","09:29","09:40","09:49","10:09","10:10","10:29","10:40","10:49","11:09","11:10","11:29","11:40","11:49","12:09","12:10","12:29","12:40","12:49","13:07","13:09","13:29","13:37","13:49","14:09","14:22","14:46","15:13","15:40","16:07","16:34","17:01","17:28","17:55","18:20","18:22","18:49","19:00","19:16","19:40","19:43","20:10","20:16","20:20","20:37","20:43","20:44","20:59","21:31","21:37","21:52","22:37","23:37","00:34"]},{"id":"552","name":"Raccuglia (2)","lat":37.50680675,"lon":15.03260843,"times":["06:19","06:57","07:30","07:50","08:10","08:30","08:50","09:10","09:30","09:40","09:50","10:10","10:30","10:40","10:50","11:10","11:30","11:40","11:50","12:10","12:30","12:40","12:50","13:07","13:10","13:30","13:37","13:50","14:10","14:22","14:47","15:14","15:41","16:08","16:35","17:02","17:29","17:56","18:20","18:23","18:50","19:00","19:17","19:40","19:44","20:11","20:17","20:20","20:38","20:44","20:45","21:00","21:32","21:37","21:52","22:37","23:37","00:34"]},{"id":"553","name":"Pitrè Raccuglia","lat":37.50767121,"lon":15.03555061,"times":["06:21","06:59","07:32","07:52","08:12","08:32","08:52","09:12","09:32","09:42","09:52","10:12","10:32","10:42","10:52","11:12","11:32","11:42","11:52","12:12","12:32","12:42","12:52","13:09","13:12","13:32","13:39","13:52","14:12","14:24","14:49","15:16","15:43","16:10","16:37","17:04","17:31","17:58","18:22","18:25","18:52","19:02","19:19","19:42","19:46","20:13","20:19","20:22","20:40","20:46","21:01","21:34","21:39","21:54","22:39","23:39","00:36"]},{"id":"554","name":"Salomone Marino Sorrento Nord","lat":37.50678802,"lon":15.03506367,"times":["06:22","07:00","07:34","07:54","08:14","08:34","08:54","09:14","09:34","09:44","09:54","10:14","10:34","10:44","10:54","11:14","11:34","11:44","11:54","12:14","12:34","12:44","12:54","13:10","13:14","13:34","13:40","13:54","14:14","14:26","14:50","15:17","15:44","16:11","16:38","17:05","17:32","17:59","18:24","18:26","18:53","19:04","19:20","19:44","19:47","20:14","20:21","20:24","20:41","20:47","20:48","21:03","21:35","21:40","21:55","22:40","23:40","00:37"]},{"id":"555","name":"Salomone Marino","lat":37.50609468,"lon":15.03257418,"times":["06:23","07:01","07:35","07:55","08:15","08:35","08:55","09:15","09:35","09:45","09:55","10:15","10:35","10:45","10:55","11:15","11:35","11:45","11:55","12:15","12:35","12:45","12:55","13:11","13:15","13:35","13:41","13:55","14:15","14:27","14:52","15:19","15:46","16:13","16:40","17:07","17:34","18:01","18:25","18:28","18:55","19:05","19:22","19:45","19:49","20:16","20:22","20:25","20:43","20:47","20:49","21:04","21:37","21:41","21:56","22:41","23:41","00:38"]},{"id":"1220","name":"Salomone Marino Monte Po ","lat":37.50589644,"lon":15.03235912,"times":["06:23","07:02","07:36","07:56","08:16","08:36","08:56","09:16","09:36","09:45","09:56","10:15","10:16","10:36","10:45","10:56","11:15","11:16","11:36","11:45","11:56","12:15","12:16","12:36","12:45","12:56","13:12","13:16","13:36","13:42","13:56","14:16","14:27","14:52","15:19","15:46","16:13","16:40","17:07","17:34","18:01","18:25","18:28","18:55","19:05","19:22","19:45","19:49","20:16","20:23","20:25","20:43","20:48","20:50","21:04","21:37","21:42","21:57","22:42","23:42","00:38"]},{"id":"525","name":"Salomone Marino Sorrento Sud","lat":37.50684204,"lon":15.03526736,"times":["06:24","07:03","07:37","07:57","08:17","08:37","08:57","09:17","09:37","09:46","09:57","10:16","10:17","10:37","10:46","10:57","11:16","11:17","11:37","11:46","11:57","12:16","12:17","12:37","12:46","12:57","13:13","13:17","13:37","13:43","13:57","14:17","14:28","14:54","15:21","15:48","16:15","16:42","17:09","17:36","18:03","18:26","18:30","18:57","19:06","19:24","19:46","19:51","20:18","20:25","20:26","20:45","20:48","20:52","21:06","21:39","21:43","21:58","22:43","23:43","00:39"]},{"id":"526","name":"Pitrè","lat":37.50783336,"lon":15.0358675,"times":["06:25","07:04","07:39","07:59","08:19","08:39","08:59","09:19","09:39","09:48","09:59","10:18","10:19","10:39","10:48","10:59","11:18","11:19","11:39","11:48","11:59","12:18","12:19","12:39","12:48","12:59","13:14","13:19","13:39","13:44","13:59","14:19","14:30","14:55","15:22","15:49","16:16","16:43","17:10","17:37","18:04","18:28","18:31","18:58","19:08","19:25","19:48","19:52","20:19","20:26","20:28","20:46","20:49","20:53","21:07","21:40","21:44","21:59","22:44","23:44","00:40"]},{"id":"529","name":"Vigo","lat":37.50852749,"lon":15.03560759,"times":["06:26","07:05","07:40","08:00","08:20","08:40","09:00","09:20","09:40","09:48","10:00","10:18","10:20","10:40","10:48","11:00","11:18","11:20","11:40","11:48","12:00","12:18","12:20","12:40","12:48","13:00","13:15","13:20","13:40","13:45","14:00","14:20","14:31","14:56","15:23","15:50","16:17","16:44","17:11","17:38","18:05","18:28","18:32","18:59","19:08","19:26","19:48","19:53","20:20","20:27","20:28","20:47","20:50","20:54","21:08","21:41","21:45","22:00","22:45","23:45","00:41"]},{"id":"530","name":"Vigo Mercato Est","lat":37.51015874,"lon":15.03633253,"times":["06:27","07:06","07:41","08:01","08:21","08:41","09:01","09:21","09:41","09:49","10:01","10:19","10:21","10:41","10:49","11:01","11:19","11:21","11:41","11:49","12:01","12:19","12:21","12:41","12:49","13:01","13:16","13:21","13:41","13:46","14:01","14:21","14:32","14:57","15:24","15:51","16:18","16:45","17:12","17:39","18:06","18:29","18:33","19:00","19:09","19:27","19:49","19:54","20:21","20:29","20:48","20:50","20:56","21:09","21:42","21:46","22:01","22:46","23:46","00:42"]},{"id":"531","name":"Palermo Favara","lat":37.51178069,"lon":15.0379514,"times":["06:28","07:07","07:43","08:03","08:23","08:43","09:03","09:23","09:43","09:51","10:03","10:21","10:23","10:43","10:51","11:03","11:21","11:23","11:43","11:51","12:03","12:21","12:23","12:43","12:51","13:03","13:17","13:23","13:43","13:47","14:03","14:23","14:33","14:59","15:26","15:53","16:20","16:47","17:14","17:41","18:08","18:31","18:35","19:02","19:11","19:29","19:51","19:56","20:23","20:31","20:50","20:51","20:58","21:10","21:44","21:47","22:02","22:47","23:47","00:43"]},{"id":"1165","name":"Lineri","lat":37.5154491,"lon":15.03837194,"times":["06:31","07:10","07:47","08:07","08:27","08:47","09:07","09:27","09:47","09:54","10:07","10:24","10:27","10:47","10:54","11:07","11:24","11:27","11:47","11:54","12:07","12:24","12:27","12:47","12:54","13:07","13:20","13:27","13:47","13:50","14:07","14:27","14:37","15:03","15:30","15:57","16:24","16:51","17:18","17:45","18:12","18:34","18:39","19:06","19:14","19:33","19:54","20:00","20:27","20:34","20:35","20:53","20:54","21:02","21:14","21:48","21:50","22:05","22:50","23:50","00:46"]},{"id":"1166","name":"Gaudioso Milano","lat":37.5181984,"lon":15.03795465,"times":["06:32","07:11","07:49","08:09","08:29","08:49","09:09","09:29","09:49","09:56","10:09","10:26","10:29","10:49","10:56","11:09","11:26","11:29","11:49","11:56","12:09","12:26","12:29","12:49","12:56","13:09","13:21","13:29","13:49","13:51","14:09","14:29","14:38","15:04","15:31","15:58","16:25","16:52","17:19","17:46","18:13","18:36","18:40","19:07","19:16","19:34","19:56","20:01","20:28","20:36","20:37","20:54","20:55","21:04","21:15","21:49","21:51","22:06","22:51","23:51","00:47"]},{"id":"1648","name":"Taormina Eredia","lat":37.51926088,"lon":15.04132747,"times":["06:34","07:13","07:51","08:11","08:31","08:51","09:11","09:31","09:51","09:57","10:11","10:27","10:31","10:51","10:57","11:11","11:27","11:31","11:51","11:57","12:11","12:27","12:31","12:51","12:57","13:11","13:23","13:31","13:51","13:53","14:11","14:31","14:40","15:06","15:33","16:00","16:27","16:54","17:21","17:48","18:15","18:37","18:42","19:09","19:17","19:36","19:57","20:03","20:30","20:37","20:39","20:55","20:57","21:06","21:17","21:51","21:53","22:08","22:53","23:53","00:49"]},{"id":"267","name":"Eredia Taormina","lat":37.51917765,"lon":15.04404116,"times":["06:35","07:14","07:53","08:13","08:33","08:53","09:13","09:33","09:53","09:59","10:13","10:29","10:33","10:53","10:59","11:13","11:29","11:33","11:53","11:59","12:13","12:29","12:33","12:53","12:59","13:13","13:24","13:33","13:53","13:54","14:13","14:33","14:42","15:08","15:35","16:02","16:29","16:56","17:23","17:50","18:17","18:39","18:44","19:11","19:19","19:38","19:59","20:05","20:32","20:39","20:41","20:56","20:59","21:08","21:19","21:53","21:54","22:09","22:54","23:54","00:50"]},{"id":"1778","name":"Arezzo Borgese","lat":37.52037076,"lon":15.04537125,"times":["06:35","07:15","07:54","08:14","08:34","08:54","09:14","09:34","09:54","10:00","10:14","10:30","10:34","10:54","11:00","11:14","11:30","11:34","11:54","12:00","12:14","12:30","12:34","12:54","13:00","13:14","13:25","13:34","13:54","13:55","14:14","14:34","14:42","15:09","15:36","16:03","16:30","16:57","17:24","17:51","18:18","18:40","18:45","19:12","19:20","19:39","20:00","20:06","20:33","20:40","20:42","20:57","21:00","21:09","21:20","21:54","21:55","22:10","22:55","23:55","00:50"]},{"id":"1235","name":"Borgese","lat":37.52093503,"lon":15.0476544,"times":["06:36","07:16","07:55","08:15","08:35","08:55","09:15","09:35","09:55","10:01","10:15","10:31","10:35","10:55","11:01","11:15","11:31","11:35","11:55","12:01","12:15","12:31","12:35","12:55","13:01","13:15","13:26","13:35","13:55","13:56","14:15","14:35","14:44","15:10","15:37","16:04","16:31","16:58","17:25","17:52","18:19","18:41","18:46","19:13","19:21","19:40","20:01","20:07","20:34","20:41","20:44","20:57","21:01","21:11","21:21","21:55","21:56","22:11","22:56","23:56","00:51"]},{"id":"1254","name":"Arezzo San Giacomo Ovest","lat":37.51913218,"lon":15.04794748,"times":["06:38","07:17","07:57","08:17","08:37","08:57","09:17","09:37","09:57","10:02","10:17","10:32","10:37","10:57","11:02","11:17","11:32","11:37","11:57","12:02","12:17","12:32","12:37","12:57","13:02","13:17","13:27","13:37","13:57","14:17","14:37","14:45","15:12","15:39","16:06","16:33","17:00","17:27","17:54","18:21","18:42","18:48","19:15","19:22","19:42","20:02","20:09","20:36","20:42","20:46","20:58","21:03","21:13","21:22","21:57","22:12","22:57","23:57","00:53"]},{"id":"1257","name":"San Giacomo Amari","lat":37.51839221,"lon":15.05001788,"times":["06:38","07:18","07:58","08:18","08:38","08:58","09:18","09:38","09:58","10:03","10:18","10:33","10:38","10:58","11:03","11:18","11:33","11:38","11:58","12:03","12:18","12:33","12:38","12:58","13:03","13:18","13:28","13:38","13:58","14:18","14:38","14:46","15:13","15:40","16:07","16:34","17:01","17:28","17:55","18:22","18:43","18:49","19:16","19:23","19:43","20:03","20:10","20:37","20:43","20:47","20:59","21:04","21:14","21:23","21:58","22:13","22:58","23:58","00:53"]},{"id":"1845","name":"Parcheggio Nesima","lat":37.51702842,"lon":15.04994588,"times":["06:40","07:20","08:00","08:20","08:40","09:00","09:20","09:40","10:00","10:05","10:20","10:35","10:40","11:00","11:05","11:20","11:35","11:40","12:00","12:05","12:20","12:35","12:40","13:00","13:05","13:20","13:30","13:40","14:00","14:20","14:40","14:48","15:15","15:42","16:09","16:36","17:03","17:30","17:57","18:24","18:45","18:51","19:18","19:25","19:45","20:05","20:12","20:39","20:45","20:49","21:00","21:06","21:16","21:25","22:00","22:15","23:00","00:00","00:55"]}],"sabato":[{"id":"881","name":"Terminal Stazione Centrale","lat":37.50684685,"lon":15.09959863,"times":["05:45","06:20","06:40","07:00","07:20","07:40","08:00","08:20","08:40","09:00","09:20","09:40","10:00","10:20","10:40","11:00","11:20","11:40","12:00","12:20","12:40","13:00","13:20","13:40","14:00","14:27","14:54","15:21","15:48","16:15","16:42","17:09","17:36","18:03","18:30","18:57","19:24","19:51","20:18","20:45","21:15","22:00","23:00","00:00"]},{"id":"644","name":"Giovanni XXIII Metro Est","lat":37.50838205,"lon":15.10037316,"times":["05:45","06:20","06:41","07:01","07:21","07:41","08:01","08:21","08:41","09:01","09:21","09:41","10:01","10:21","10:41","11:01","11:21","11:41","12:01","12:21","12:41","13:01","13:21","13:41","14:01","14:28","14:55","15:22","15:49","16:16","16:43","17:10","17:37","18:04","18:31","18:58","19:25","19:52","20:19","20:46","21:15","22:00","23:00","00:00"]},{"id":"645","name":"Africa Ciminiere","lat":37.51077787,"lon":15.10248097,"times":["05:47","06:22","06:43","07:03","07:23","07:43","08:03","08:23","08:43","09:03","09:23","09:43","10:03","10:23","10:43","11:03","11:23","11:43","12:03","12:23","12:43","13:03","13:23","13:42","14:02","14:29","14:56","15:23","15:50","16:17","16:44","17:11","17:38","18:05","18:32","18:59","19:26","19:27","19:53","19:54","20:20","20:47","21:17","22:02","23:02","00:02"]},{"id":"646","name":"Africa Galatea Est","lat":37.51260677,"lon":15.10347923,"times":["05:47","06:23","06:44","07:04","07:24","07:44","08:04","08:24","08:44","09:04","09:24","09:44","10:04","10:24","10:44","11:04","11:24","11:44","12:04","12:24","12:44","13:04","13:24","13:43","14:04","14:31","14:58","15:25","15:52","16:19","16:46","17:13","17:40","18:07","18:34","19:01","19:28","19:55","20:21","20:49","21:18","22:03","23:03","00:02"]},{"id":"943","name":"Africa Europa FS","lat":37.51463959,"lon":15.10467252,"times":["05:48","06:24","06:45","07:05","07:25","07:45","08:05","08:25","08:45","09:05","09:25","09:45","10:05","10:25","10:45","11:05","11:25","11:45","12:05","12:25","12:45","13:05","13:25","13:44","14:05","14:32","14:59","15:26","15:53","16:20","16:47","17:14","17:41","18:08","18:35","19:02","19:29","19:30","19:56","19:57","20:22","20:50","21:19","22:04","23:04","00:03"]},{"id":"1256","name":"Italia Europa","lat":37.51654464,"lon":15.10471811,"times":["05:50","06:26","06:48","07:08","07:28","07:48","08:08","08:28","08:48","09:08","09:28","09:48","10:08","10:28","10:48","11:08","11:28","11:48","12:08","12:28","12:48","13:08","13:28","13:47","14:07","14:34","15:01","15:28","15:55","16:22","16:49","17:16","17:43","18:10","18:37","19:04","19:31","19:32","19:58","19:59","20:25","20:52","21:21","22:06","23:06","00:05"]},{"id":"106","name":"Italia Aquileia","lat":37.51615018,"lon":15.10227332,"times":["05:51","06:27","06:49","07:09","07:29","07:49","08:09","08:29","08:49","09:09","09:29","09:49","10:09","10:29","10:49","11:09","11:29","11:49","12:09","12:29","12:49","13:09","13:29","13:48","14:09","14:36","15:03","15:30","15:57","16:24","16:51","17:18","17:45","18:12","18:39","19:06","19:33","19:34","20:00","20:01","20:26","20:54","21:22","22:07","23:07","00:06"]},{"id":"107","name":"Italia Pasubio Nord","lat":37.51577359,"lon":15.09995305,"times":["05:52","06:28","06:50","07:10","07:30","07:50","08:10","08:30","08:50","09:10","09:30","09:50","10:10","10:30","10:50","11:10","11:30","11:50","12:10","12:30","12:50","13:10","13:30","13:49","14:10","14:37","15:04","15:31","15:58","16:25","16:52","17:19","17:46","18:13","18:40","19:07","19:34","19:35","20:01","20:02","20:27","20:55","21:23","22:08","23:08","00:07"]},{"id":"108","name":"Italia Vittorio Veneto","lat":37.51523567,"lon":15.09646707,"times":["05:53","06:29","06:52","07:12","07:32","07:52","08:12","08:32","08:52","09:12","09:32","09:52","10:12","10:32","10:52","11:12","11:32","11:52","12:12","12:32","12:52","13:12","13:32","13:50","14:11","14:38","15:05","15:32","15:59","16:26","16:53","17:20","17:47","18:14","18:41","19:08","19:35","19:37","20:02","20:04","20:28","20:56","21:24","22:09","23:09","00:08"]},{"id":"109","name":"Verga Nord","lat":37.51455384,"lon":15.09246044,"times":["05:55","06:30","06:54","07:14","07:34","07:54","08:14","08:34","08:54","09:14","09:34","09:54","10:14","10:34","10:54","11:14","11:34","11:54","12:14","12:34","12:54","13:14","13:34","13:52","14:13","14:40","15:07","15:34","16:01","16:28","16:55","17:22","17:49","18:16","18:43","19:10","19:37","19:39","20:04","20:06","20:30","20:58","21:25","22:10","23:10","00:10"]},{"id":"110","name":"Trento Nord","lat":37.51408752,"lon":15.08934808,"times":["05:56","06:32","06:56","07:16","07:36","07:56","08:16","08:36","08:56","09:16","09:36","09:56","10:16","10:36","10:56","11:16","11:36","11:56","12:16","12:36","12:56","13:16","13:36","13:53","14:15","14:42","15:09","15:36","16:03","16:30","16:57","17:24","17:51","18:18","18:45","19:12","19:39","19:41","20:06","20:08","20:31","21:00","21:27","22:12","23:12","00:11"]},{"id":"111","name":"XX Settembre Imbriani","lat":37.51358073,"lon":15.08633398,"times":["05:57","06:33","06:57","07:17","07:37","07:57","08:17","08:37","08:57","09:17","09:37","09:57","10:17","10:37","10:57","11:17","11:37","11:57","12:17","12:37","12:57","13:17","13:37","13:55","14:16","14:43","15:10","15:37","16:04","16:31","16:58","17:25","17:52","18:19","18:46","19:13","19:40","19:42","20:07","20:09","20:32","21:01","21:28","22:13","23:13","00:12"]},{"id":"303","name":"ROMA","lat":37.51314501,"lon":15.08400605,"times":["05:58","06:34","06:58","07:18","07:38","07:58","08:18","08:38","08:58","09:18","09:38","09:58","10:18","10:38","10:58","11:18","11:38","11:58","12:18","12:38","12:58","13:18","13:38","13:56","14:17","14:44","15:11","15:38","16:05","16:32","16:59","17:26","17:53","18:20","18:47","19:14","19:41","19:44","20:08","20:11","20:33","21:02","21:29","22:14","23:14","00:13"]},{"id":"304","name":"Regina Margherita Tomaselli","lat":37.51275023,"lon":15.08141438,"times":["05:58","06:35","07:00","07:20","07:40","08:00","08:20","08:40","09:00","09:20","09:40","10:00","10:20","10:40","11:00","11:20","11:40","12:00","12:20","12:40","13:00","13:20","13:40","13:57","14:19","14:46","15:13","15:40","16:07","16:34","17:01","17:28","17:55","18:22","18:49","19:16","19:43","19:45","20:10","20:12","20:35","21:04","21:30","22:15","23:15","00:13"]},{"id":"305","name":"S.M. Gesù Cifali","lat":37.51230144,"lon":15.078619,"times":["05:59","06:36","07:01","07:21","07:41","08:01","08:21","08:41","09:01","09:21","09:41","10:01","10:21","10:41","11:01","11:21","11:41","12:01","12:21","12:41","13:01","13:21","13:41","13:58","14:20","14:47","15:14","15:41","16:08","16:35","17:02","17:29","17:56","18:23","18:50","19:17","19:44","19:47","20:11","20:14","20:36","21:05","21:31","22:16","23:16","00:14"]},{"id":"668","name":"Rapisardi Lavaggi","lat":37.51161016,"lon":15.07434112,"times":["06:01","06:37","07:03","07:23","07:43","08:03","08:23","08:43","09:03","09:23","09:43","10:03","10:23","10:43","11:03","11:23","11:43","12:03","12:23","12:43","13:03","13:23","13:43","14:00","14:22","14:49","15:16","15:43","16:10","16:37","17:04","17:31","17:58","18:25","18:52","19:19","19:46","19:49","20:13","20:16","20:38","21:07","21:32","22:17","23:17","00:16"]},{"id":"944","name":"Rapisardi Fava","lat":37.51117003,"lon":15.07185135,"times":["06:02","06:38","07:05","07:25","07:45","08:05","08:25","08:45","09:05","09:25","09:45","10:05","10:25","10:45","11:05","11:25","11:45","12:05","12:25","12:45","13:05","13:25","13:45","14:01","14:23","14:50","15:17","15:44","16:11","16:38","17:05","17:32","17:59","18:26","18:53","19:20","19:47","19:50","20:14","20:17","20:39","21:08","21:33","22:18","23:18","00:17"]},{"id":"945","name":"Rapisardi Due Giugno","lat":37.51079291,"lon":15.06941823,"times":["06:03","06:39","07:06","07:26","07:46","08:06","08:26","08:46","09:06","09:26","09:46","10:06","10:26","10:46","11:06","11:26","11:46","12:06","12:26","12:46","13:06","13:26","13:46","14:02","14:24","14:51","15:18","15:45","16:12","16:39","17:06","17:33","18:00","18:27","18:54","19:21","19:48","19:52","20:15","20:19","20:40","21:09","21:34","22:19","23:19","00:18"]},{"id":"946","name":"Rapisardi Martelli Castaldi","lat":37.51035277,"lon":15.06675879,"times":["06:04","06:40","07:07","07:27","07:47","08:07","08:27","08:47","09:07","09:27","09:47","10:07","10:27","10:47","11:07","11:27","11:47","12:07","12:27","12:47","13:07","13:27","13:47","14:03","14:26","14:53","15:20","15:47","16:14","16:41","17:08","17:35","18:02","18:29","18:56","19:23","19:50","19:53","20:17","20:20","20:41","21:11","21:35","22:20","23:20","00:19"]},{"id":"947","name":"Rapisardi San Luigi","lat":37.51004734,"lon":15.06490286,"times":["06:04","06:41","07:08","07:28","07:48","08:08","08:28","08:48","09:08","09:28","09:48","10:08","10:28","10:48","11:08","11:28","11:48","12:08","12:28","12:48","13:08","13:28","13:48","14:04","14:26","14:53","15:20","15:47","16:14","16:41","17:08","17:35","18:02","18:29","18:56","19:23","19:50","19:54","20:17","20:21","20:42","21:11","21:36","22:21","23:21","00:19"]},{"id":"948","name":"Rapisardi Villarà","lat":37.50962511,"lon":15.06228874,"times":["06:05","06:42","07:10","07:30","07:50","08:10","08:30","08:50","09:10","09:30","09:50","10:10","10:30","10:50","11:10","11:30","11:50","12:10","12:30","12:50","13:10","13:30","13:50","14:05","14:28","14:55","15:22","15:49","16:16","16:43","17:10","17:37","18:04","18:31","18:58","19:25","19:52","19:56","20:19","20:23","20:43","21:13","21:37","22:22","23:22","00:20"]},{"id":"949","name":"Rapisardi Sauro","lat":37.5093555,"lon":15.06074969,"times":["06:06","06:43","07:10","07:30","07:50","08:10","08:30","08:50","09:10","09:30","09:50","10:10","10:30","10:50","11:10","11:30","11:50","12:10","12:30","12:50","13:10","13:30","13:50","14:06","14:28","14:55","15:22","15:49","16:16","16:43","17:10","17:37","18:04","18:31","18:58","19:25","19:52","19:56","20:19","20:23","20:43","21:13","21:38","22:23","23:23","00:21"]},{"id":"950","name":"Rapisardi Diaz","lat":37.50890628,"lon":15.05784142,"times":["06:07","06:44","07:12","07:32","07:52","08:12","08:32","08:52","09:12","09:32","09:52","10:12","10:32","10:52","11:12","11:32","11:52","12:12","12:32","12:52","13:12","13:32","13:52","14:07","14:30","14:57","15:24","15:51","16:18","16:45","17:12","17:39","18:06","18:33","19:00","19:27","19:54","19:58","20:21","20:25","20:45","21:15","21:39","22:24","23:24","00:22"]},{"id":"319","name":"Rapisardi Stoppani","lat":37.50854672,"lon":15.05579316,"times":["06:08","06:45","07:13","07:33","07:53","08:13","08:33","08:53","09:13","09:33","09:53","10:13","10:33","10:53","11:13","11:33","11:53","12:13","12:33","12:53","13:13","13:33","13:53","14:08","14:31","14:58","15:25","15:52","16:19","16:46","17:13","17:40","18:07","18:34","19:01","19:28","19:55","19:59","20:22","20:26","20:46","21:16","21:40","22:25","23:25","00:23"]},{"id":"320","name":"Rapisardi Savi","lat":37.50828606,"lon":15.05422022,"times":["06:08","06:45","07:14","07:34","07:54","08:14","08:34","08:54","09:14","09:34","09:54","10:14","10:34","10:54","11:14","11:34","11:54","12:14","12:34","12:54","13:14","13:34","13:54","14:09","14:32","14:59","15:26","15:53","16:20","16:47","17:14","17:41","18:08","18:35","19:02","19:29","19:56","20:00","20:23","20:27","20:46","21:17","21:40","22:25","23:25","00:23"]},{"id":"321","name":"Rapisardi Fermi Nord","lat":37.50786357,"lon":15.05164017,"times":["06:09","06:46","07:15","07:35","07:55","08:15","08:35","08:55","09:15","09:35","09:55","10:15","10:35","10:55","11:15","11:35","11:55","12:15","12:35","12:55","13:15","13:35","13:55","14:10","14:33","15:00","15:27","15:54","16:21","16:48","17:15","17:42","18:09","18:36","19:03","19:30","19:57","20:01","20:24","20:28","20:47","21:18","21:41","22:26","23:26","00:24"]},{"id":"491","name":"Eroi D'Ungheria","lat":37.50751291,"lon":15.04961461,"times":["06:10","06:47","07:16","07:36","07:56","08:16","08:36","08:56","09:16","09:36","09:56","10:16","10:36","10:56","11:16","11:36","11:56","12:16","12:36","12:56","13:16","13:36","13:56","14:11","14:34","15:01","15:28","15:55","16:22","16:49","17:16","17:43","18:10","18:37","19:04","19:31","19:58","20:02","20:25","20:29","20:48","21:19","21:42","22:27","23:27","00:25"]},{"id":"951","name":"Rapisardi Marconi Nord","lat":37.50705419,"lon":15.04721562,"times":["06:11","06:48","07:17","07:37","07:57","08:17","08:37","08:57","09:17","09:37","09:57","10:17","10:37","10:57","11:17","11:37","11:57","12:17","12:37","12:57","13:17","13:37","13:57","14:12","14:35","15:02","15:29","15:56","16:23","16:50","17:17","17:44","18:11","18:38","19:05","19:32","19:59","20:04","20:26","20:31","20:49","21:20","21:43","22:28","23:28","00:26"]},{"id":"906","name":"Palermo Nord (2)","lat":37.50949068,"lon":15.04487798,"times":["06:12","06:50","07:20","07:40","08:00","08:20","08:40","09:00","09:20","09:40","10:00","10:20","10:40","11:00","11:20","11:40","12:00","12:20","12:40","13:00","13:20","13:40","14:00","14:14","14:37","15:04","15:31","15:58","16:25","16:52","17:19","17:46","18:13","18:40","19:07","19:34","20:01","20:06","20:28","20:33","20:51","21:22","21:45","22:30","23:30","00:27"]},{"id":"1696","name":"Palermo Garibaldi (3)","lat":37.51133775,"lon":15.04169651,"times":["06:13","06:51","07:22","07:42","08:02","08:22","08:42","09:02","09:22","09:42","10:02","10:22","10:42","11:02","11:22","11:42","12:02","12:22","12:42","13:02","13:22","13:42","14:02","14:15","14:39","15:06","15:33","16:00","16:27","16:54","17:21","17:48","18:15","18:42","19:09","19:36","20:03","20:08","20:30","20:35","20:53","21:24","21:46","22:31","23:31","00:28"]},{"id":"1784","name":"Mezzocampo Fontana","lat":37.51250958,"lon":15.03807089,"times":["06:15","06:53","07:24","07:44","08:04","08:24","08:44","09:04","09:24","09:44","10:04","10:24","10:44","11:04","11:24","11:44","12:04","12:24","12:44","13:04","13:24","13:44","14:04","14:18","14:41","15:08","15:35","16:02","16:29","16:56","17:23","17:50","18:17","18:44","19:11","19:38","20:05","20:11","20:32","20:38","20:55","21:26","21:48","22:33","23:33","00:30"]},{"id":"549","name":"Vigo Mercato Ovest","lat":37.51041132,"lon":15.03567638,"times":["06:17","06:55","07:27","07:47","08:07","08:27","08:47","09:07","09:27","09:47","10:07","10:27","10:47","11:07","11:27","11:47","12:07","12:27","12:47","13:07","13:27","13:47","14:07","14:20","14:44","15:11","15:38","16:05","16:32","16:59","17:26","17:53","18:20","18:47","19:14","19:41","20:08","20:14","20:35","20:41","20:57","21:29","21:50","22:35","23:35","00:32"]},{"id":"550","name":"Vigo Municipio","lat":37.50851851,"lon":15.03549444,"times":["06:18","06:56","07:28","07:48","08:08","08:28","08:48","09:08","09:28","09:48","10:08","10:28","10:48","11:08","11:28","11:48","12:08","12:28","12:48","13:08","13:28","13:48","14:08","14:21","14:45","15:12","15:39","16:06","16:33","17:00","17:27","17:54","18:21","18:48","19:15","19:42","20:09","20:15","20:36","20:42","20:58","21:30","21:51","22:36","23:36","00:33"]},{"id":"551","name":"Raccuglia (1)","lat":37.5073201,"lon":15.03411349,"times":["06:19","06:57","07:29","07:49","08:09","08:29","08:49","09:09","09:29","09:49","10:09","10:29","10:49","11:09","11:29","11:49","12:09","12:29","12:49","13:09","13:29","13:49","14:09","14:22","14:46","15:13","15:40","16:07","16:34","17:01","17:28","17:55","18:22","18:49","19:16","19:43","20:10","20:16","20:37","20:43","20:59","21:31","21:52","22:37","23:37","00:34"]},{"id":"552","name":"Raccuglia (2)","lat":37.50680675,"lon":15.03260843,"times":["06:19","06:57","07:30","07:50","08:10","08:30","08:50","09:10","09:30","09:50","10:10","10:30","10:50","11:10","11:30","11:50","12:10","12:30","12:50","13:10","13:30","13:50","14:10","14:22","14:47","15:14","15:41","16:08","16:35","17:02","17:29","17:56","18:23","18:50","19:17","19:44","20:11","20:17","20:38","20:44","21:00","21:32","21:52","22:37","23:37","00:34"]},{"id":"553","name":"Pitrè Raccuglia","lat":37.50767121,"lon":15.03555061,"times":["06:21","06:59","07:32","07:52","08:12","08:32","08:52","09:12","09:32","09:52","10:12","10:32","10:52","11:12","11:32","11:52","12:12","12:32","12:52","13:12","13:32","13:52","14:12","14:24","14:49","15:16","15:43","16:10","16:37","17:04","17:31","17:58","18:25","18:52","19:19","19:46","20:13","20:19","20:40","20:46","21:01","21:34","21:54","22:39","23:39","00:36"]},{"id":"554","name":"Salomone Marino Sorrento Nord","lat":37.50678802,"lon":15.03506367,"times":["06:22","07:00","07:34","07:54","08:14","08:34","08:54","09:14","09:34","09:54","10:14","10:34","10:54","11:14","11:34","11:54","12:14","12:34","12:54","13:14","13:34","13:54","14:14","14:26","14:50","15:17","15:44","16:11","16:38","17:05","17:32","17:59","18:26","18:53","19:20","19:47","20:14","20:21","20:41","20:48","21:03","21:35","21:55","22:40","23:40","00:37"]},{"id":"555","name":"Salomone Marino","lat":37.50609468,"lon":15.03257418,"times":["06:23","07:01","07:35","07:55","08:15","08:35","08:55","09:15","09:35","09:55","10:15","10:35","10:55","11:15","11:35","11:55","12:15","12:35","12:55","13:15","13:35","13:55","14:15","14:27","14:52","15:19","15:46","16:13","16:40","17:07","17:34","18:01","18:28","18:55","19:22","19:49","20:16","20:22","20:43","20:49","21:04","21:37","21:56","22:41","23:41","00:38"]},{"id":"1220","name":"Salomone Marino Monte Po ","lat":37.50589644,"lon":15.03235912,"times":["06:23","07:02","07:36","07:56","08:16","08:36","08:56","09:16","09:36","09:56","10:16","10:36","10:56","11:16","11:36","11:56","12:16","12:36","12:56","13:16","13:36","13:56","14:16","14:27","14:52","15:19","15:46","16:13","16:40","17:07","17:34","18:01","18:28","18:55","19:22","19:49","20:16","20:23","20:43","20:50","21:04","21:37","21:57","22:42","23:42","00:38"]},{"id":"525","name":"Salomone Marino Sorrento Sud","lat":37.50684204,"lon":15.03526736,"times":["06:24","07:03","07:37","07:57","08:17","08:37","08:57","09:17","09:37","09:57","10:17","10:37","10:57","11:17","11:37","11:57","12:17","12:37","12:57","13:17","13:37","13:57","14:17","14:28","14:54","15:21","15:48","16:15","16:42","17:09","17:36","18:03","18:30","18:57","19:24","19:51","20:18","20:25","20:45","20:52","21:06","21:39","21:58","22:43","23:43","00:39"]},{"id":"526","name":"Pitrè","lat":37.50783336,"lon":15.0358675,"times":["06:25","07:04","07:39","07:59","08:19","08:39","08:59","09:19","09:39","09:59","10:19","10:39","10:59","11:19","11:39","11:59","12:19","12:39","12:59","13:19","13:39","13:59","14:19","14:30","14:55","15:22","15:49","16:16","16:43","17:10","17:37","18:04","18:31","18:58","19:25","19:52","20:19","20:26","20:46","20:53","21:07","21:40","21:59","22:44","23:44","00:40"]},{"id":"529","name":"Vigo","lat":37.50852749,"lon":15.03560759,"times":["06:26","07:05","07:40","08:00","08:20","08:40","09:00","09:20","09:40","10:00","10:20","10:40","11:00","11:20","11:40","12:00","12:20","12:40","13:00","13:20","13:40","14:00","14:20","14:31","14:56","15:23","15:50","16:17","16:44","17:11","17:38","18:05","18:32","18:59","19:26","19:53","20:20","20:27","20:47","20:54","21:08","21:41","22:00","22:45","23:45","00:41"]},{"id":"530","name":"Vigo Mercato Est","lat":37.51015874,"lon":15.03633253,"times":["06:27","07:06","07:41","08:01","08:21","08:41","09:01","09:21","09:41","10:01","10:21","10:41","11:01","11:21","11:41","12:01","12:21","12:41","13:01","13:21","13:41","14:01","14:21","14:32","14:57","15:24","15:51","16:18","16:45","17:12","17:39","18:06","18:33","19:00","19:27","19:54","20:21","20:29","20:48","20:56","21:09","21:42","22:01","22:46","23:46","00:42"]},{"id":"531","name":"Palermo Favara","lat":37.51178069,"lon":15.0379514,"times":["06:28","07:07","07:43","08:03","08:23","08:43","09:03","09:23","09:43","10:03","10:23","10:43","11:03","11:23","11:43","12:03","12:23","12:43","13:03","13:23","13:43","14:03","14:23","14:33","14:59","15:26","15:53","16:20","16:47","17:14","17:41","18:08","18:35","19:02","19:29","19:56","20:23","20:31","20:50","20:58","21:10","21:44","22:02","22:47","23:47","00:43"]},{"id":"1165","name":"Lineri","lat":37.5154491,"lon":15.03837194,"times":["06:31","07:10","07:47","08:07","08:27","08:47","09:07","09:27","09:47","10:07","10:27","10:47","11:07","11:27","11:47","12:07","12:27","12:47","13:07","13:27","13:47","14:07","14:27","14:37","15:03","15:30","15:57","16:24","16:51","17:18","17:45","18:12","18:39","19:06","19:33","20:00","20:27","20:35","20:54","21:02","21:14","21:48","22:05","22:50","23:50","00:46"]},{"id":"1166","name":"Gaudioso Milano","lat":37.5181984,"lon":15.03795465,"times":["06:32","07:11","07:49","08:09","08:29","08:49","09:09","09:29","09:49","10:09","10:29","10:49","11:09","11:29","11:49","12:09","12:29","12:49","13:09","13:29","13:49","14:09","14:29","14:38","15:04","15:31","15:58","16:25","16:52","17:19","17:46","18:13","18:40","19:07","19:34","20:01","20:28","20:37","20:55","21:04","21:15","21:49","22:06","22:51","23:51","00:47"]},{"id":"1648","name":"Taormina Eredia","lat":37.51926088,"lon":15.04132747,"times":["06:34","07:13","07:51","08:11","08:31","08:51","09:11","09:31","09:51","10:11","10:31","10:51","11:11","11:31","11:51","12:11","12:31","12:51","13:11","13:31","13:51","14:11","14:31","14:40","15:06","15:33","16:00","16:27","16:54","17:21","17:48","18:15","18:42","19:09","19:36","20:03","20:30","20:39","20:57","21:06","21:17","21:51","22:08","22:53","23:53","00:49"]},{"id":"267","name":"Eredia Taormina","lat":37.51917765,"lon":15.04404116,"times":["06:35","07:14","07:53","08:13","08:33","08:53","09:13","09:33","09:53","10:13","10:33","10:53","11:13","11:33","11:53","12:13","12:33","12:53","13:13","13:33","13:53","14:13","14:33","14:42","15:08","15:35","16:02","16:29","16:56","17:23","17:50","18:17","18:44","19:11","19:38","20:05","20:32","20:41","20:59","21:08","21:19","21:53","22:09","22:54","23:54","00:50"]},{"id":"1778","name":"Arezzo Borgese","lat":37.52037076,"lon":15.04537125,"times":["06:35","07:15","07:54","08:14","08:34","08:54","09:14","09:34","09:54","10:14","10:34","10:54","11:14","11:34","11:54","12:14","12:34","12:54","13:14","13:34","13:54","14:14","14:34","14:42","15:09","15:36","16:03","16:30","16:57","17:24","17:51","18:18","18:45","19:12","19:39","20:06","20:33","20:42","21:00","21:09","21:20","21:54","22:10","22:55","23:55","00:50"]},{"id":"1235","name":"Borgese","lat":37.52093503,"lon":15.0476544,"times":["06:36","07:16","07:55","08:15","08:35","08:55","09:15","09:35","09:55","10:15","10:35","10:55","11:15","11:35","11:55","12:15","12:35","12:55","13:15","13:35","13:55","14:15","14:35","14:44","15:10","15:37","16:04","16:31","16:58","17:25","17:52","18:19","18:46","19:13","19:40","20:07","20:34","20:44","21:01","21:11","21:21","21:55","22:11","22:56","23:56","00:51"]},{"id":"1254","name":"Arezzo San Giacomo Ovest","lat":37.51913218,"lon":15.04794748,"times":["06:38","07:17","07:57","08:17","08:37","08:57","09:17","09:37","09:57","10:17","10:37","10:57","11:17","11:37","11:57","12:17","12:37","12:57","13:17","13:37","13:57","14:17","14:37","14:45","15:12","15:39","16:06","16:33","17:00","17:27","17:54","18:21","18:48","19:15","19:42","20:09","20:36","20:46","21:03","21:13","21:22","21:57","22:12","22:57","23:57","00:53"]},{"id":"1257","name":"San Giacomo Amari","lat":37.51839221,"lon":15.05001788,"times":["06:38","07:18","07:58","08:18","08:38","08:58","09:18","09:38","09:58","10:18","10:38","10:58","11:18","11:38","11:58","12:18","12:38","12:58","13:18","13:38","13:58","14:18","14:38","14:46","15:13","15:40","16:07","16:34","17:01","17:28","17:55","18:22","18:49","19:16","19:43","20:10","20:37","20:47","21:04","21:14","21:23","21:58","22:13","22:58","23:58","00:53"]},{"id":"1845","name":"Parcheggio Nesima","lat":37.51702842,"lon":15.04994588,"times":["06:40","07:20","08:00","08:20","08:40","09:00","09:20","09:40","10:00","10:20","10:40","11:00","11:20","11:40","12:00","12:20","12:40","13:00","13:20","13:40","14:00","14:20","14:40","14:48","15:15","15:42","16:09","16:36","17:03","17:30","17:57","18:24","18:51","19:18","19:45","20:12","20:39","20:49","21:06","21:16","21:25","22:00","22:15","23:00","00:00","00:55"]}],"domenica":[{"id":"881","name":"Terminal Stazione Centrale","lat":37.50684685,"lon":15.09959863,"times":["06:15","07:00","07:30","08:00","08:30","09:00","09:30","10:00","10:30","11:00","11:30","12:00","12:30","13:00","14:00","15:20","16:00","16:40","17:20","18:00","18:40","19:20","20:00","20:40","21:20","22:00","00:00"]},{"id":"644","name":"Giovanni XXIII Metro Est","lat":37.50838205,"lon":15.10037316,"times":["06:16","07:00","07:30","08:00","08:30","09:00","09:30","10:00","10:30","11:00","11:30","12:00","12:30","13:00","14:00","15:20","16:00","16:40","17:20","18:00","18:40","19:20","20:00","20:40","21:20","22:00","00:00"]},{"id":"645","name":"Africa Ciminiere","lat":37.51077787,"lon":15.10248097,"times":["06:18","07:02","07:32","08:02","08:32","09:02","09:32","10:02","10:32","11:02","11:32","12:02","12:32","13:02","14:02","15:22","16:02","16:42","17:22","18:02","18:42","19:22","20:02","20:42","21:22","22:02","00:02"]},{"id":"646","name":"Africa Galatea Est","lat":37.51260677,"lon":15.10347923,"times":["06:19","07:03","07:33","08:03","08:33","09:03","09:33","10:03","10:33","11:03","11:33","12:03","12:33","13:03","14:03","15:23","16:03","16:43","17:23","18:03","18:43","19:23","20:03","20:42","21:22","22:03","00:02"]},{"id":"943","name":"Africa Europa FS","lat":37.51463959,"lon":15.10467252,"times":["06:20","07:04","07:34","08:04","08:34","09:04","09:34","10:04","10:34","11:04","11:34","12:04","12:34","13:04","14:04","15:24","16:04","16:44","17:24","18:04","18:44","19:24","20:04","20:43","21:23","22:04","00:03"]},{"id":"1256","name":"Italia Europa","lat":37.51654464,"lon":15.10471811,"times":["06:23","07:06","07:36","08:06","08:36","09:06","09:36","10:06","10:36","11:06","11:36","12:06","12:36","13:06","14:06","15:26","16:06","16:46","17:26","18:06","18:46","19:26","20:06","20:45","21:25","22:06","00:05"]},{"id":"106","name":"Italia Aquileia","lat":37.51615018,"lon":15.10227332,"times":["06:24","07:07","07:37","08:07","08:37","09:07","09:37","10:07","10:37","11:07","11:37","12:07","12:37","13:07","14:07","15:27","16:07","16:47","17:27","18:07","18:47","19:27","20:07","20:46","21:26","22:07","00:06"]},{"id":"107","name":"Italia Pasubio Nord","lat":37.51577359,"lon":15.09995305,"times":["06:25","07:08","07:38","08:08","08:38","09:08","09:38","10:08","10:38","11:08","11:38","12:08","12:38","13:08","14:08","15:28","16:08","16:48","17:28","18:08","18:48","19:28","20:08","20:47","21:27","22:08","00:07"]},{"id":"108","name":"Italia Vittorio Veneto","lat":37.51523567,"lon":15.09646707,"times":["06:27","07:10","07:40","08:10","08:40","09:10","09:40","10:10","10:40","11:10","11:40","12:10","12:39","13:09","14:10","15:30","16:10","16:50","17:30","18:10","18:50","19:30","20:10","20:48","21:28","22:09","00:08"]},{"id":"109","name":"Verga Nord","lat":37.51455384,"lon":15.09246044,"times":["06:29","07:11","07:41","08:11","08:41","09:11","09:41","10:11","10:41","11:11","11:41","12:11","12:40","13:10","14:11","15:31","16:11","16:51","17:31","18:11","18:51","19:31","20:11","20:50","21:30","22:10","00:10"]},{"id":"110","name":"Trento Nord","lat":37.51408752,"lon":15.08934808,"times":["06:31","07:13","07:43","08:13","08:43","09:13","09:43","10:13","10:43","11:13","11:43","12:13","12:42","13:12","14:13","15:33","16:13","16:53","17:33","18:13","18:53","19:33","20:13","20:51","21:31","22:12","00:11"]},{"id":"111","name":"XX Settembre Imbriani","lat":37.51358073,"lon":15.08633398,"times":["06:32","07:14","07:44","08:14","08:44","09:14","09:44","10:14","10:44","11:14","11:44","12:14","12:43","13:13","14:14","15:34","16:14","16:54","17:34","18:14","18:54","19:34","20:14","20:52","21:32","22:13","00:12"]},{"id":"303","name":"ROMA","lat":37.51314501,"lon":15.08400605,"times":["06:33","07:15","07:45","08:15","08:45","09:15","09:45","10:15","10:45","11:15","11:45","12:15","12:44","13:14","14:15","15:35","16:15","16:55","17:35","18:15","18:55","19:35","20:15","20:53","21:33","22:14","00:13"]},{"id":"304","name":"Regina Margherita Tomaselli","lat":37.51275023,"lon":15.08141438,"times":["06:35","07:16","07:46","08:16","08:46","09:16","09:46","10:16","10:46","11:16","11:46","12:16","12:45","13:15","14:16","15:36","16:16","16:56","17:36","18:16","18:56","19:36","20:16","20:53","21:33","22:15","00:13"]},{"id":"305","name":"S.M. Gesù Cifali","lat":37.51230144,"lon":15.078619,"times":["06:36","07:17","07:47","08:17","08:47","09:17","09:47","10:17","10:47","11:17","11:47","12:17","12:46","13:16","14:17","15:37","16:17","16:57","17:37","18:17","18:57","19:37","20:17","20:54","21:34","22:16","00:14"]},{"id":"668","name":"Rapisardi Lavaggi","lat":37.51161016,"lon":15.07434112,"times":["06:38","07:19","07:49","08:19","08:49","09:19","09:49","10:19","10:49","11:19","11:49","12:19","12:47","13:17","14:19","15:39","16:19","16:59","17:39","18:19","18:59","19:39","20:19","20:56","21:36","22:17","00:16"]},{"id":"944","name":"Rapisardi Fava","lat":37.51117003,"lon":15.07185135,"times":["06:40","07:20","07:50","08:20","08:50","09:20","09:50","10:20","10:50","11:20","11:50","12:20","12:48","13:18","14:20","15:40","16:20","17:00","17:40","18:20","19:00","19:40","20:20","20:57","21:37","22:18","00:17"]},{"id":"945","name":"Rapisardi Due Giugno","lat":37.51079291,"lon":15.06941823,"times":["06:41","07:21","07:51","08:21","08:51","09:21","09:51","10:21","10:51","11:21","11:51","12:21","12:49","13:19","14:21","15:41","16:21","17:01","17:41","18:21","19:01","19:41","20:21","20:58","21:38","22:19","00:18"]},{"id":"946","name":"Rapisardi Martelli Castaldi","lat":37.51035277,"lon":15.06675879,"times":["06:42","07:22","07:52","08:22","08:52","09:22","09:52","10:22","10:52","11:22","11:52","12:22","12:50","13:20","14:22","15:42","16:22","17:02","17:42","18:22","19:02","19:42","20:22","20:59","21:39","22:20","00:19"]},{"id":"947","name":"Rapisardi San Luigi","lat":37.51004734,"lon":15.06490286,"times":["06:43","07:23","07:53","08:23","08:53","09:23","09:53","10:23","10:53","11:23","11:53","12:23","12:51","13:21","14:23","15:43","16:23","17:03","17:43","18:23","19:03","19:43","20:23","20:59","21:39","22:21","00:19"]},{"id":"948","name":"Rapisardi Villarà","lat":37.50962511,"lon":15.06228874,"times":["06:45","07:24","07:54","08:24","08:54","09:24","09:54","10:24","10:54","11:24","11:54","12:24","12:52","13:22","14:24","15:44","16:24","17:04","17:44","18:24","19:04","19:44","20:24","21:00","21:40","22:22","00:20"]},{"id":"949","name":"Rapisardi Sauro","lat":37.5093555,"lon":15.06074969,"times":["06:45","07:25","07:55","08:25","08:55","09:25","09:55","10:25","10:55","11:25","11:55","12:25","12:53","13:23","14:25","15:45","16:25","17:05","17:45","18:25","19:05","19:45","20:25","21:01","21:41","22:23","00:21"]},{"id":"950","name":"Rapisardi Diaz","lat":37.50890628,"lon":15.05784142,"times":["06:47","07:26","07:56","08:26","08:56","09:26","09:56","10:26","10:56","11:26","11:56","12:26","12:54","13:24","14:26","15:46","16:26","17:06","17:46","18:26","19:06","19:46","20:26","21:02","21:42","22:24","00:22"]},{"id":"319","name":"Rapisardi Stoppani","lat":37.50854672,"lon":15.05579316,"times":["06:48","07:27","07:57","08:27","08:57","09:27","09:57","10:27","10:57","11:27","11:57","12:27","12:55","13:25","14:27","15:47","16:27","17:07","17:47","18:27","19:07","19:47","20:27","21:03","21:43","22:25","00:23"]},{"id":"320","name":"Rapisardi Savi","lat":37.50828606,"lon":15.05422022,"times":["06:49","07:27","07:57","08:27","08:57","09:27","09:57","10:27","10:57","11:27","11:57","12:27","12:55","13:25","14:27","15:47","16:27","17:07","17:47","18:27","19:07","19:47","20:27","21:03","21:43","22:25","00:23"]},{"id":"321","name":"Rapisardi Fermi Nord","lat":37.50786357,"lon":15.05164017,"times":["06:50","07:28","07:58","08:28","08:58","09:28","09:58","10:28","10:58","11:28","11:58","12:28","12:56","13:26","14:28","15:48","16:28","17:08","17:48","18:28","19:08","19:48","20:28","21:04","21:44","22:26","00:24"]},{"id":"491","name":"Eroi D'Ungheria","lat":37.50751291,"lon":15.04961461,"times":["06:51","07:29","07:59","08:29","08:59","09:29","09:59","10:29","10:59","11:29","11:59","12:29","12:57","13:27","14:29","15:49","16:29","17:09","17:49","18:29","19:09","19:49","20:29","21:05","21:45","22:27","00:25"]},{"id":"951","name":"Rapisardi Marconi Nord","lat":37.50705419,"lon":15.04721562,"times":["06:52","07:30","08:00","08:30","09:00","09:30","10:00","10:30","11:00","11:30","12:00","12:30","12:58","13:28","14:30","15:50","16:30","17:10","17:50","18:30","19:10","19:50","20:30","21:06","21:46","22:28","00:26"]},{"id":"906","name":"Palermo Nord (2)","lat":37.50949068,"lon":15.04487798,"times":["06:55","07:32","08:02","08:32","09:02","09:32","10:02","10:32","11:02","11:32","12:02","12:32","13:00","13:30","14:32","15:52","16:32","17:12","17:52","18:32","19:12","19:52","20:32","21:07","21:47","22:30","00:27"]},{"id":"1696","name":"Palermo Garibaldi (3)","lat":37.51133775,"lon":15.04169651,"times":["06:57","07:34","08:04","08:34","09:04","09:34","10:04","10:34","11:04","11:34","12:04","12:34","13:01","13:31","14:34","15:54","16:34","17:14","17:54","18:34","19:14","19:54","20:34","21:08","21:48","22:31","00:28"]},{"id":"1784","name":"Mezzocampo Fontana","lat":37.51250958,"lon":15.03807089,"times":["06:59","07:36","08:06","08:36","09:06","09:36","10:06","10:36","11:06","11:36","12:06","12:36","13:03","13:33","14:36","15:56","16:36","17:16","17:56","18:36","19:16","19:56","20:36","21:10","21:50","22:33","00:30"]},{"id":"549","name":"Vigo Mercato Ovest","lat":37.51041132,"lon":15.03567638,"times":["07:02","07:38","08:08","08:38","09:08","09:38","10:08","10:38","11:08","11:38","12:08","12:38","13:05","13:35","14:38","15:58","16:38","17:18","17:58","18:38","19:18","19:58","20:38","21:12","21:52","22:35","00:32"]},{"id":"550","name":"Vigo Municipio","lat":37.50851851,"lon":15.03549444,"times":["07:03","07:39","08:09","08:39","09:09","09:39","10:09","10:39","11:09","11:39","12:09","12:39","13:06","13:36","14:39","15:59","16:39","17:19","17:59","18:39","19:19","19:59","20:39","21:13","21:53","22:36","00:33"]},{"id":"551","name":"Raccuglia (1)","lat":37.5073201,"lon":15.03411349,"times":["07:04","07:40","08:10","08:40","09:10","09:40","10:10","10:40","11:10","11:40","12:10","12:40","13:07","13:37","14:40","16:00","16:40","17:20","18:00","18:40","19:20","20:00","20:40","21:14","21:54","22:37","00:34"]},{"id":"552","name":"Raccuglia (2)","lat":37.50680675,"lon":15.03260843,"times":["07:05","07:40","08:10","08:40","09:10","09:40","10:10","10:40","11:10","11:40","12:10","12:40","13:07","13:37","14:40","16:00","16:40","17:20","18:00","18:40","19:20","20:00","20:40","21:14","21:54","22:37","00:34"]},{"id":"553","name":"Pitrè Raccuglia","lat":37.50767121,"lon":15.03555061,"times":["07:07","07:42","08:12","08:42","09:12","09:42","10:12","10:42","11:12","11:42","12:12","12:42","13:09","13:39","14:42","16:02","16:42","17:22","18:02","18:42","19:22","20:02","20:42","21:16","21:56","22:39","00:36"]},{"id":"554","name":"Salomone Marino Sorrento Nord","lat":37.50678802,"lon":15.03506367,"times":["07:09","07:44","08:14","08:44","09:14","09:44","10:14","10:44","11:14","11:44","12:14","12:44","13:10","13:40","14:44","16:04","16:44","17:24","18:04","18:44","19:24","20:04","20:44","21:17","21:57","22:40","00:37"]},{"id":"555","name":"Salomone Marino","lat":37.50609468,"lon":15.03257418,"times":["07:10","07:45","08:15","08:45","09:15","09:45","10:15","10:45","11:15","11:45","12:15","12:45","13:11","13:41","14:45","16:05","16:45","17:25","18:05","18:45","19:25","20:05","20:45","21:18","21:58","22:41","00:38"]},{"id":"1220","name":"Salomone Marino Monte Po ","lat":37.50589644,"lon":15.03235912,"times":["07:11","07:45","08:15","08:45","09:15","09:45","10:15","10:45","11:15","11:45","12:15","12:45","13:12","13:42","14:45","16:05","16:45","17:25","18:05","18:45","19:25","20:05","20:45","21:18","21:58","22:42","00:38"]},{"id":"525","name":"Salomone Marino Sorrento Sud","lat":37.50684204,"lon":15.03526736,"times":["07:12","07:46","08:16","08:46","09:16","09:46","10:16","10:46","11:16","11:46","12:16","12:46","13:13","13:43","14:46","16:06","16:46","17:26","18:06","18:46","19:26","20:06","20:46","21:19","21:59","22:43","00:39"]},{"id":"526","name":"Pitrè","lat":37.50783336,"lon":15.0358675,"times":["07:14","07:48","08:18","08:48","09:18","09:48","10:18","10:48","11:18","11:48","12:18","12:48","13:14","13:44","14:48","16:08","16:48","17:28","18:08","18:48","19:28","20:08","20:48","21:20","22:00","22:44","00:40"]},{"id":"529","name":"Vigo","lat":37.50852749,"lon":15.03560759,"times":["07:15","07:48","08:18","08:48","09:18","09:48","10:18","10:48","11:18","11:48","12:18","12:48","13:15","13:45","14:48","16:08","16:48","17:28","18:08","18:48","19:28","20:08","20:48","21:21","22:01","22:45","00:41"]},{"id":"530","name":"Vigo Mercato Est","lat":37.51015874,"lon":15.03633253,"times":["07:16","07:49","08:19","08:49","09:19","09:49","10:19","10:49","11:19","11:49","12:19","12:49","13:16","13:46","14:49","16:09","16:49","17:29","18:09","18:49","19:29","20:09","20:49","21:22","22:02","22:46","00:42"]},{"id":"531","name":"Palermo Favara","lat":37.51178069,"lon":15.0379514,"times":["07:18","07:51","08:21","08:51","09:21","09:51","10:21","10:51","11:21","11:51","12:21","12:51","13:17","13:47","14:51","16:11","16:51","17:31","18:11","18:51","19:31","20:11","20:51","21:23","22:03","22:47","00:43"]},{"id":"1165","name":"Lineri","lat":37.5154491,"lon":15.03837194,"times":["07:22","07:54","08:24","08:54","09:24","09:54","10:24","10:54","11:24","11:54","12:24","12:54","13:20","13:50","14:54","16:14","16:54","17:34","18:14","18:54","19:34","20:14","20:54","21:26","22:06","22:50","00:46"]},{"id":"1166","name":"Gaudioso Milano","lat":37.5181984,"lon":15.03795465,"times":["07:24","07:56","08:26","08:56","09:26","09:56","10:26","10:56","11:26","11:56","12:26","12:56","13:21","13:51","14:56","16:16","16:56","17:36","18:16","18:56","19:36","20:16","20:56","21:27","22:07","22:51","00:47"]},{"id":"1648","name":"Taormina Eredia","lat":37.51926088,"lon":15.04132747,"times":["07:26","07:57","08:27","08:57","09:27","09:57","10:27","10:57","11:27","11:57","12:27","12:57","13:23","13:53","14:57","16:17","16:57","17:37","18:17","18:57","19:37","20:17","20:57","21:29","22:09","22:53","00:49"]},{"id":"267","name":"Eredia Taormina","lat":37.51917765,"lon":15.04404116,"times":["07:28","07:59","08:29","08:59","09:29","09:59","10:29","10:59","11:29","11:59","12:29","12:59","13:24","13:54","14:59","16:19","16:59","17:39","18:19","18:59","19:39","20:19","20:59","21:30","22:10","22:54","00:50"]},{"id":"1778","name":"Arezzo Borgese","lat":37.52037076,"lon":15.04537125,"times":["07:29","08:00","08:30","09:00","09:30","10:00","10:30","11:00","11:30","12:00","12:30","13:00","13:25","13:55","15:00","16:20","17:00","17:40","18:20","19:00","19:40","20:20","21:00","21:30","22:10","22:55","00:50"]},{"id":"1235","name":"Borgese","lat":37.52093503,"lon":15.0476544,"times":["07:30","08:01","08:31","09:01","09:31","10:01","10:31","11:01","11:31","12:01","12:31","13:01","13:26","13:56","15:01","16:21","17:01","17:41","18:21","19:01","19:41","20:21","21:01","21:31","22:11","22:56","00:51"]},{"id":"1254","name":"Arezzo San Giacomo Ovest","lat":37.51913218,"lon":15.04794748,"times":["07:32","08:02","08:32","09:02","09:32","10:02","10:32","11:02","11:32","12:02","12:32","13:02","13:27","13:57","15:02","16:22","17:02","17:42","18:22","19:02","19:42","20:22","21:02","21:33","22:13","22:57","00:53"]},{"id":"1257","name":"San Giacomo Amari","lat":37.51839221,"lon":15.05001788,"times":["07:33","08:03","08:33","09:03","09:33","10:03","10:33","11:03","11:33","12:03","12:33","13:03","13:28","13:58","15:03","16:23","17:03","17:43","18:23","19:03","19:43","20:23","21:03","21:33","22:13","22:58","00:53"]},{"id":"1845","name":"Parcheggio Nesima","lat":37.51702842,"lon":15.04994588,"times":["07:35","08:05","08:35","09:05","09:35","10:05","10:35","11:05","11:35","12:05","12:35","13:05","13:30","14:00","15:05","16:25","17:05","17:45","18:25","19:05","19:45","20:25","21:05","21:35","22:15","23:00","00:55"]}]},"1":{"feriale":[{"id":"1845","name":"Parcheggio Nesima","lat":37.51702842,"lon":15.04994588,"times":["05:00","06:00","06:20","06:40","07:00","07:20","07:40","08:00","08:20","08:35","08:40","09:00","09:05","09:20","09:35","09:40","10:00","10:05","10:20","10:35","10:40","11:00","11:05","11:20","11:35","11:40","12:00","12:05","12:20","12:35","12:40","13:00","13:05","13:20","13:40","14:00","14:20","14:48","15:15","15:42","16:09","16:36","16:45","17:03","17:25","17:30","17:57","18:05","18:24","18:45","18:51","19:18","19:25","19:45","20:05","20:12","20:39","20:45","20:49","21:06","21:16","22:00","23:00","00:00"]},{"id":"1748","name":"Miceli San Pio X","lat":37.51507387,"lon":15.05302566,"times":["05:02","06:02","06:23","06:43","07:03","07:23","07:43","08:03","08:23","08:38","08:43","09:03","09:08","09:23","09:38","09:43","10:03","10:08","10:23","10:38","10:43","11:03","11:08","11:23","11:38","11:43","12:03","12:08","12:23","12:37","12:43","13:03","13:07","13:23","13:43","14:03","14:23","14:51","15:18","15:45","16:12","16:39","16:48","17:06","17:28","17:33","18:00","18:08","18:27","18:48","18:54","19:21","19:28","19:48","20:08","20:15","20:42","20:48","20:51","21:09","21:18","22:03","23:03","00:03"]},{"id":"494","name":"San Pio X La Malfa","lat":37.514056,"lon":15.05150865,"times":["05:03","06:03","06:25","06:45","07:05","07:25","07:45","08:05","08:25","08:39","08:45","09:05","09:09","09:25","09:39","09:45","10:05","10:09","10:25","10:39","10:45","11:05","11:09","11:25","11:39","11:45","12:05","12:09","12:25","12:39","12:45","13:05","13:08","13:25","13:44","14:04","14:25","14:53","15:20","15:47","16:14","16:41","16:49","17:08","17:29","17:35","18:02","18:09","18:29","18:49","18:56","19:23","19:29","19:50","20:09","20:17","20:43","20:49","20:52","21:10","21:19","22:05","23:05","00:04"]},{"id":"503","name":"San Pio X Mirone","lat":37.51360657,"lon":15.04855499,"times":["05:05","06:04","06:27","06:47","07:07","07:27","07:47","08:07","08:27","08:41","08:47","09:07","09:11","09:27","09:41","09:47","10:07","10:11","10:27","10:41","10:47","11:07","11:11","11:27","11:41","11:47","12:07","12:11","12:27","12:40","12:47","13:07","13:10","13:27","13:46","14:06","14:27","14:55","15:22","15:49","16:16","16:43","16:51","17:10","17:31","17:37","18:04","18:11","18:31","18:51","18:58","19:25","19:31","19:52","20:11","20:19","20:45","20:51","20:54","21:12","21:21","22:07","23:07","00:06"]},{"id":"327","name":"Pacinotti Cantone Ovest","lat":37.51147988,"lon":15.04726367,"times":["05:07","06:06","06:29","06:49","07:09","07:29","07:49","08:09","08:29","08:43","08:49","09:09","09:13","09:29","09:43","09:49","10:09","10:13","10:29","10:43","10:49","11:09","11:13","11:29","11:43","11:49","12:09","12:13","12:29","12:42","12:49","13:09","13:12","13:30","13:48","14:08","14:29","14:57","15:24","15:51","16:18","16:45","16:53","17:12","17:33","17:39","18:06","18:13","18:33","18:53","19:00","19:27","19:33","19:54","20:13","20:22","20:47","20:53","20:56","21:14","21:22","22:09","23:09","00:08"]},{"id":"1612","name":"Pacinotti Timmonieri Ovest","lat":37.50987535,"lon":15.04751159,"times":["05:08","06:07","06:30","06:50","07:10","07:30","07:50","08:10","08:30","08:44","08:50","09:10","09:14","09:30","09:44","09:50","10:10","10:14","10:30","10:44","10:50","11:10","11:14","11:30","11:44","11:50","12:10","12:14","12:30","12:43","12:50","13:10","13:13","13:32","13:49","14:09","14:30","14:58","15:25","15:52","16:19","16:46","16:54","17:13","17:34","17:40","18:07","18:14","18:34","18:54","19:01","19:28","19:34","19:55","20:14","20:23","20:49","20:54","20:57","21:15","21:23","22:10","23:10","00:09"]},{"id":"328","name":"Pacinotti Galvani","lat":37.50867646,"lon":15.04768055,"times":["05:08","06:07","06:31","06:51","07:11","07:31","07:51","08:11","08:31","08:45","08:51","09:11","09:15","09:31","09:45","09:51","10:11","10:15","10:31","10:45","10:51","11:11","11:15","11:31","11:45","11:51","12:11","12:15","12:31","12:44","12:51","13:11","13:13","13:33","13:50","14:10","14:31","14:59","15:26","15:53","16:20","16:47","16:55","17:14","17:35","17:41","18:08","18:15","18:35","18:55","19:02","19:29","19:35","19:56","20:15","20:24","20:49","20:55","20:57","21:16","21:24","22:11","23:11","00:10"]},{"id":"329","name":"Rapisardi Pacinotti","lat":37.50726098,"lon":15.04851693,"times":["05:09","06:08","06:33","06:53","07:13","07:33","07:53","08:13","08:33","08:47","08:53","09:13","09:17","09:33","09:47","09:53","10:13","10:17","10:33","10:47","10:53","11:13","11:17","11:33","11:47","11:53","12:13","12:17","12:33","12:45","12:53","13:13","13:14","13:34","13:52","14:11","14:33","15:01","15:28","15:55","16:22","16:49","16:57","17:16","17:37","17:43","18:10","18:17","18:37","18:57","19:04","19:31","19:37","19:58","20:17","20:25","20:51","20:57","20:59","21:17","21:25","22:13","23:13","00:12"]},{"id":"330","name":"Rapisardi Fermi Sud","lat":37.50784538,"lon":15.05201354,"times":["05:11","06:10","06:35","06:55","07:15","07:35","07:55","08:15","08:35","08:49","08:55","09:15","09:19","09:35","09:49","09:55","10:15","10:19","10:35","10:49","10:55","11:15","11:19","11:35","11:49","11:55","12:15","12:19","12:35","12:47","12:55","13:15","13:16","13:37","13:54","14:13","14:35","15:03","15:30","15:57","16:24","16:51","16:59","17:18","17:39","17:45","18:12","18:19","18:39","18:59","19:06","19:33","19:39","20:00","20:19","20:28","20:53","20:59","21:00","21:19","21:27","22:15","23:15","00:14"]},{"id":"331","name":"Rapisardi Lessona","lat":37.50824988,"lon":15.05449175,"times":["05:12","06:11","06:36","06:56","07:16","07:36","07:56","08:16","08:36","08:50","08:56","09:16","09:20","09:36","09:50","09:56","10:16","10:20","10:36","10:50","10:56","11:16","11:20","11:36","11:50","11:56","12:16","12:20","12:36","12:49","12:56","13:16","13:17","13:38","13:55","14:15","14:37","15:04","15:31","15:58","16:25","16:52","17:00","17:19","17:40","17:46","18:13","18:20","18:40","19:00","19:07","19:34","19:40","20:01","20:20","20:29","20:54","21:00","21:02","21:21","21:28","22:16","23:16","00:15"]},{"id":"332","name":"Rapisardi Cannizzaro","lat":37.50861843,"lon":15.05663051,"times":["05:13","06:12","06:38","06:58","07:18","07:38","07:58","08:18","08:38","08:51","08:58","09:18","09:21","09:38","09:51","09:58","10:18","10:21","10:38","10:51","10:58","11:18","11:21","11:38","11:51","11:58","12:18","12:21","12:38","12:50","12:58","13:18","13:40","13:56","14:16","14:38","15:06","15:33","16:00","16:27","16:54","17:01","17:21","17:41","17:48","18:15","18:21","18:42","19:01","19:09","19:36","19:41","20:03","20:21","20:31","20:56","21:01","21:03","21:22","21:29","22:18","23:18","00:16"]},{"id":"931","name":"Rapisardi Ferraris","lat":37.50886121,"lon":15.0578527,"times":["05:14","06:12","06:39","06:59","07:19","07:39","07:59","08:19","08:39","08:52","08:59","09:19","09:22","09:39","09:52","09:59","10:19","10:22","10:39","10:52","10:59","11:19","11:22","11:39","11:52","11:59","12:19","12:22","12:39","12:50","12:59","13:19","13:41","13:57","14:17","14:39","15:07","15:34","16:01","16:28","16:55","17:02","17:22","17:42","17:49","18:16","18:22","18:43","19:02","19:10","19:37","19:42","20:04","20:22","20:32","20:56","21:02","21:03","21:23","21:30","22:19","23:19","00:17"]},{"id":"1609","name":"Rapisardi Gambetta","lat":37.50898682,"lon":15.05902954,"times":["05:14","06:13","06:39","06:59","07:19","07:39","07:59","08:19","08:39","08:53","08:59","09:19","09:23","09:39","09:53","09:59","10:19","10:23","10:39","10:53","10:59","11:19","11:23","11:39","11:53","11:59","12:19","12:23","12:39","12:51","12:59","13:19","13:42","13:58","14:17","14:40","15:07","15:34","16:01","16:28","16:55","17:03","17:22","17:43","17:49","18:16","18:23","18:43","19:03","19:10","19:37","19:43","20:04","20:23","20:32","20:57","21:03","21:04","21:23","21:30","22:19","23:19","00:18"]},{"id":"932","name":"Rapisardi Cosenz","lat":37.50928341,"lon":15.060727,"times":["05:15","06:13","06:40","07:00","07:20","07:40","08:00","08:20","08:40","08:54","09:00","09:20","09:24","09:40","09:54","10:00","10:20","10:24","10:40","10:54","11:00","11:20","11:24","11:40","11:54","12:00","12:20","12:24","12:40","12:52","13:00","13:20","13:43","13:59","14:18","14:41","15:08","15:35","16:02","16:29","16:56","17:04","17:23","17:44","17:50","18:17","18:24","18:44","19:04","19:11","19:38","19:44","20:05","20:24","20:33","20:58","21:04","21:05","21:24","21:31","22:20","23:20","00:19"]},{"id":"933","name":"Rapisardi XXXI Maggio","lat":37.50966974,"lon":15.06311477,"times":["05:16","06:14","06:42","07:02","07:22","07:42","08:02","08:22","08:42","08:55","09:02","09:22","09:25","09:42","09:55","10:02","10:22","10:25","10:42","10:55","11:02","11:22","11:25","11:42","11:55","12:02","12:22","12:25","12:42","12:53","13:02","13:21","13:22","13:45","14:00","14:20","14:42","15:10","15:37","16:04","16:31","16:58","17:05","17:25","17:45","17:52","18:19","18:25","18:46","19:05","19:13","19:40","19:45","20:07","20:25","20:35","20:59","21:05","21:06","21:26","21:32","22:22","23:22","00:20"]},{"id":"934","name":"Rapisardi Curia","lat":37.51002902,"lon":15.06543465,"times":["05:17","06:15","06:43","07:03","07:23","07:43","08:03","08:23","08:43","08:56","09:03","09:23","09:26","09:43","09:56","10:03","10:23","10:26","10:43","10:56","11:03","11:23","11:26","11:43","11:56","12:03","12:23","12:26","12:43","12:54","13:03","13:22","13:23","13:46","14:01","14:21","14:44","15:11","15:38","16:05","16:32","16:59","17:06","17:26","17:46","17:53","18:20","18:26","18:47","19:06","19:14","19:41","19:46","20:08","20:26","20:37","21:01","21:06","21:07","21:27","21:33","22:23","23:23","00:21"]},{"id":"935","name":"Rapisardi Caracciolo","lat":37.51048713,"lon":15.06824118,"times":["05:19","06:17","06:45","07:05","07:25","07:45","08:05","08:25","08:45","08:58","09:05","09:25","09:28","09:45","09:58","10:05","10:25","10:28","10:45","10:58","11:05","11:25","11:28","11:45","11:58","12:05","12:25","12:28","12:45","12:56","13:05","13:24","13:25","13:48","14:03","14:23","14:46","15:13","15:40","16:07","16:34","17:01","17:08","17:28","17:48","17:55","18:22","18:28","18:49","19:08","19:16","19:43","19:48","20:10","20:28","20:38","21:02","21:08","21:29","21:34","22:25","23:25","00:23"]},{"id":"936","name":"Rapisardi D'Acquisto","lat":37.51085528,"lon":15.07064033,"times":["05:20","06:18","06:47","07:07","07:27","07:47","08:07","08:27","08:47","09:00","09:07","09:27","09:30","09:47","10:00","10:07","10:27","10:30","10:47","11:00","11:07","11:27","11:30","11:47","12:00","12:07","12:27","12:30","12:47","12:57","13:07","13:25","13:27","13:50","14:05","14:24","14:48","15:15","15:42","16:09","16:36","17:03","17:10","17:30","17:50","17:57","18:24","18:30","18:51","19:10","19:18","19:45","19:50","20:12","20:30","20:40","21:04","21:10","21:30","21:36","22:27","23:27","00:25"]},{"id":"1223","name":"Rapisardi Forlanini","lat":37.51130426,"lon":15.0734356,"times":["05:21","06:19","06:48","07:08","07:28","07:48","08:08","08:28","08:48","09:01","09:08","09:28","09:31","09:48","10:01","10:08","10:28","10:31","10:48","11:01","11:08","11:28","11:31","11:48","12:01","12:08","12:28","12:31","12:48","12:59","13:08","13:26","13:28","13:52","14:06","14:26","14:49","15:16","15:43","16:10","16:37","17:04","17:11","17:31","17:51","17:58","18:25","18:31","18:52","19:11","19:19","19:46","19:51","20:13","20:31","20:42","21:06","21:11","21:32","21:37","22:28","23:28","00:26"]},{"id":"1224","name":"Rapisardi Filzi","lat":37.51170834,"lon":15.07585746,"times":["05:22","06:20","06:50","07:10","07:30","07:50","08:10","08:30","08:50","09:02","09:10","09:30","09:32","09:50","10:02","10:10","10:30","10:32","10:50","11:02","11:10","11:30","11:32","11:50","12:02","12:10","12:30","12:32","12:50","13:00","13:10","13:27","13:30","13:54","14:07","14:27","14:51","15:18","15:45","16:12","16:39","17:06","17:12","17:33","17:52","18:00","18:27","18:32","18:54","19:12","19:21","19:48","19:52","20:15","20:32","20:44","21:07","21:12","21:33","21:38","22:30","23:30","00:27"]},{"id":"974","name":"S.M. Gesù Garibaldi","lat":37.51185984,"lon":15.0785167,"times":["05:24","06:21","06:52","07:12","07:32","07:52","08:12","08:32","08:52","09:04","09:12","09:32","09:34","09:52","10:04","10:12","10:32","10:34","10:52","11:04","11:12","11:32","11:34","11:52","12:04","12:12","12:32","12:34","12:52","13:01","13:12","13:29","13:32","13:56","14:09","14:29","14:52","15:20","15:47","16:14","16:41","17:08","17:14","17:35","17:54","18:02","18:29","18:34","18:56","19:14","19:23","19:50","19:54","20:17","20:34","20:45","21:09","21:13","21:14","21:35","21:39","22:32","23:32","00:29"]},{"id":"266","name":"Regina Margherita S.M. Gesù","lat":37.51235486,"lon":15.0796035,"times":["05:25","06:22","06:54","07:14","07:34","07:54","08:14","08:34","08:54","09:06","09:14","09:34","09:36","09:54","10:06","10:14","10:34","10:36","10:54","11:06","11:14","11:34","11:36","11:54","12:06","12:14","12:34","12:36","12:54","13:03","13:14","13:30","13:34","13:58","14:11","14:30","14:54","15:22","15:49","16:16","16:43","17:10","17:16","17:37","17:56","18:04","18:31","18:36","18:58","19:16","19:25","19:52","19:56","20:19","20:36","20:47","21:10","21:15","21:16","21:36","21:41","22:34","23:34","00:31"]},{"id":"1221","name":"Roma Villa Bellini","lat":37.51290252,"lon":15.08276108,"times":["05:27","06:24","06:56","07:16","07:36","07:56","08:16","08:36","08:56","09:08","09:16","09:36","09:38","09:56","10:08","10:16","10:36","10:38","10:56","11:08","11:16","11:36","11:38","11:56","12:08","12:16","12:36","12:38","12:56","13:05","13:16","13:32","13:36","14:00","14:13","14:32","14:56","15:24","15:51","16:18","16:45","17:12","17:18","17:39","17:58","18:06","18:33","18:38","19:00","19:18","19:27","19:54","19:58","20:21","20:38","20:49","21:12","21:16","21:18","21:38","21:42","22:36","23:36","00:33"]},{"id":"938","name":"XX Settembre Vespri","lat":37.51344089,"lon":15.08619028,"times":["05:28","06:25","06:58","07:18","07:38","07:58","08:18","08:38","08:58","09:10","09:18","09:38","09:40","09:58","10:10","10:18","10:38","10:40","10:58","11:10","11:18","11:38","11:40","11:58","12:10","12:18","12:38","12:40","12:58","13:06","13:18","13:33","13:38","14:02","14:15","14:34","14:58","15:26","15:53","16:20","16:47","17:14","17:20","17:41","18:00","18:08","18:35","18:40","19:02","19:20","19:29","19:56","20:00","20:23","20:40","20:52","21:14","21:18","21:20","21:40","21:44","22:38","23:38","00:35"]},{"id":"939","name":"Trento Sud","lat":37.5140241,"lon":15.08977799,"times":["05:30","06:27","07:00","07:20","07:40","08:00","08:20","08:40","09:00","09:12","09:20","09:40","09:42","10:00","10:12","10:20","10:40","10:42","11:00","11:12","11:20","11:40","11:42","12:00","12:12","12:20","12:40","12:42","13:00","13:08","13:20","13:35","13:40","14:05","14:17","14:36","15:01","15:28","15:55","16:22","16:49","17:16","17:22","17:43","18:02","18:10","18:37","18:42","19:04","19:22","19:31","19:58","20:02","20:25","20:42","20:54","21:16","21:20","21:22","21:42","21:45","22:40","23:40","00:37"]},{"id":"940","name":"Verga Sud","lat":37.51457136,"lon":15.09310546,"times":["05:32","06:28","07:02","07:22","07:42","08:02","08:22","08:42","09:02","09:14","09:22","09:42","09:44","10:02","10:14","10:22","10:42","10:44","11:02","11:14","11:22","11:42","11:44","12:02","12:14","12:22","12:42","12:44","13:02","13:10","13:22","13:37","13:42","14:07","14:19","14:38","15:03","15:30","15:57","16:24","16:51","17:18","17:24","17:45","18:04","18:12","18:39","18:44","19:06","19:24","19:33","20:00","20:04","20:27","20:44","20:56","21:18","21:21","21:24","21:44","21:47","22:42","23:42","00:39"]},{"id":"941","name":"Italia Libertà","lat":37.5151913,"lon":15.09682125,"times":["05:33","06:30","07:05","07:25","07:45","08:05","08:25","08:45","09:05","09:16","09:25","09:45","09:46","10:05","10:16","10:25","10:45","10:46","11:05","11:16","11:25","11:45","11:46","12:05","12:16","12:25","12:45","12:46","13:05","13:12","13:25","13:38","13:45","14:10","14:21","14:40","15:05","15:33","16:00","16:27","16:54","17:21","17:26","17:48","18:06","18:15","18:42","18:46","19:09","19:26","19:36","20:03","20:06","20:30","20:46","20:59","21:21","21:23","21:26","21:46","21:49","22:45","23:45","00:41"]},{"id":"208","name":"Italia Pasubio Sud","lat":37.51585393,"lon":15.10086974,"times":["05:35","06:31","07:07","07:27","07:47","08:07","08:27","08:47","09:07","09:18","09:27","09:47","09:48","10:07","10:18","10:27","10:47","10:48","11:07","11:18","11:27","11:47","11:48","12:07","12:18","12:27","12:47","12:48","13:07","13:14","13:27","13:40","13:47","14:13","14:23","14:42","15:08","15:35","16:02","16:29","16:56","17:23","17:28","17:50","18:08","18:17","18:44","18:48","19:11","19:28","19:38","20:05","20:08","20:32","20:48","21:01","21:23","21:25","21:28","21:48","21:50","22:47","23:47","00:43"]},{"id":"209","name":"Italia Vecchia Ognina","lat":37.51623944,"lon":15.10328056,"times":["05:36","06:32","07:09","07:29","07:49","08:09","08:29","08:49","09:09","09:20","09:29","09:49","09:50","10:09","10:20","10:29","10:49","10:50","11:09","11:20","11:29","11:49","11:50","12:09","12:20","12:29","12:49","12:50","13:09","13:15","13:29","13:41","13:49","14:14","14:25","14:44","15:09","15:37","16:04","16:31","16:58","17:25","17:30","17:52","18:10","18:19","18:46","18:50","19:13","19:30","19:40","20:07","20:10","20:34","20:50","21:03","21:24","21:26","21:30","21:50","21:52","22:49","23:49","00:45"]},{"id":"210","name":"Italia Africa","lat":37.51653537,"lon":15.10500099,"times":["05:37","06:33","07:10","07:30","07:50","08:10","08:30","08:50","09:10","09:21","09:30","09:50","09:51","10:10","10:21","10:30","10:50","10:51","11:10","11:21","11:30","11:50","11:51","12:10","12:21","12:30","12:50","12:51","13:10","13:16","13:30","13:42","13:50","14:16","14:26","14:45","15:11","15:38","16:05","16:32","16:59","17:26","17:31","17:53","18:11","18:20","18:47","18:51","19:14","19:31","19:41","20:08","20:11","20:35","20:51","21:04","21:25","21:27","21:31","21:51","21:52","22:50","23:50","00:46"]},{"id":"942","name":"Africa Milazzo ","lat":37.51443587,"lon":15.1042399,"times":["05:39","06:34","07:12","07:32","07:52","08:12","08:32","08:52","09:12","09:22","09:32","09:52","10:12","10:22","10:32","10:52","11:12","11:22","11:32","11:52","12:12","12:22","12:32","12:52","13:12","13:18","13:32","13:44","13:52","14:18","14:27","14:46","15:13","15:40","16:07","16:34","17:01","17:28","17:32","17:55","18:12","18:22","18:49","18:52","19:16","19:32","19:43","20:10","20:12","20:37","20:52","21:06","21:27","21:29","21:32","21:52","21:54","22:52","23:52","00:47"]},{"id":"659","name":"Africa Galatea Ovest","lat":37.51231867,"lon":15.10309411,"times":["05:40","06:36","07:13","07:33","07:53","08:13","08:33","08:53","09:13","09:24","09:33","09:53","09:54","10:13","10:24","10:33","10:53","10:54","11:13","11:24","11:33","11:53","11:54","12:13","12:24","12:33","12:53","12:54","13:13","13:19","13:33","13:45","13:53","14:20","14:29","14:48","15:14","15:41","16:08","16:35","17:02","17:29","17:34","17:56","18:14","18:23","18:50","18:54","19:17","19:34","19:44","20:11","20:14","20:38","20:54","21:08","21:29","21:30","21:34","21:54","21:55","22:53","23:53","00:49"]},{"id":"660","name":"Africa Raffineria ","lat":37.51039065,"lon":15.10205047,"times":["05:41","06:37","07:15","07:35","07:55","08:15","08:35","08:55","09:15","09:25","09:35","09:55","10:15","10:25","10:35","10:55","11:15","11:25","11:35","11:55","12:15","12:25","12:35","12:55","13:15","13:21","13:35","13:46","13:55","14:22","14:30","14:50","15:16","15:43","16:10","16:37","17:04","17:31","17:35","17:58","18:15","18:25","18:52","18:55","19:19","19:35","19:46","20:13","20:15","20:40","20:55","21:10","21:30","21:31","21:35","21:56","22:55","23:55","00:50"]},{"id":"1753","name":"Giovanni XXIII Metro Ovest","lat":37.50843625,"lon":15.10022614,"times":["05:43","06:38","07:17","07:37","07:57","08:17","08:37","08:57","09:17","09:27","09:37","09:57","10:17","10:27","10:37","10:57","11:17","11:27","11:37","11:57","12:17","12:27","12:37","12:57","13:17","13:22","13:37","13:48","13:57","14:24","14:32","14:51","15:18","15:45","16:12","16:39","17:06","17:33","17:37","18:00","18:17","18:27","18:54","18:57","19:21","19:37","19:48","20:15","20:17","20:42","20:57","21:12","21:32","21:33","21:37","21:57","21:58","22:57","23:57","00:52"]},{"id":"881","name":"Terminal Stazione Centrale","lat":37.50684685,"lon":15.09959863,"times":["05:45","06:40","07:20","07:40","08:00","08:20","08:40","09:00","09:20","09:30","09:40","10:00","10:20","10:30","10:40","11:00","11:20","11:30","11:40","12:00","12:20","12:30","12:40","13:00","13:20","13:25","13:40","13:50","14:00","14:27","14:35","14:54","15:21","15:48","16:15","16:42","17:09","17:36","17:40","18:03","18:20","18:30","18:57","19:00","19:24","19:40","19:51","20:18","20:20","20:45","21:00","21:15","21:35","21:40","22:00","23:00","00:00","00:55"]}],"sabato":[{"id":"1845","name":"Parcheggio Nesima","lat":37.51702842,"lon":15.04994588,"times":["05:00","06:00","06:20","06:40","07:00","07:20","07:40","08:00","08:20","08:40","09:00","09:20","09:40","10:00","10:20","10:40","11:00","11:20","11:40","12:00","12:20","12:40","13:00","13:20","13:40","14:00","14:20","14:48","15:15","15:42","16:09","16:36","17:03","17:30","17:57","18:24","18:51","19:18","19:45","20:12","20:39","20:49","21:06","21:16","22:00","23:00","00:00"]},{"id":"1748","name":"Miceli San Pio X","lat":37.51507387,"lon":15.05302566,"times":["05:02","06:02","06:23","06:43","07:03","07:23","07:43","08:03","08:23","08:43","09:03","09:23","09:43","10:03","10:23","10:43","11:03","11:23","11:43","12:03","12:23","12:43","13:03","13:23","13:43","14:03","14:23","14:51","15:18","15:45","16:12","16:39","17:06","17:33","18:00","18:27","18:54","19:21","19:48","20:15","20:42","20:51","21:09","21:18","22:03","23:03","00:03"]},{"id":"494","name":"San Pio X La Malfa","lat":37.514056,"lon":15.05150865,"times":["05:03","06:03","06:25","06:45","07:05","07:25","07:45","08:05","08:25","08:45","09:05","09:25","09:45","10:05","10:25","10:45","11:05","11:25","11:45","12:05","12:25","12:45","13:05","13:25","13:44","14:04","14:25","14:53","15:20","15:47","16:14","16:41","17:08","17:35","18:02","18:29","18:56","19:23","19:50","20:17","20:43","20:52","21:10","21:19","22:05","23:05","00:04"]},{"id":"503","name":"San Pio X Mirone","lat":37.51360657,"lon":15.04855499,"times":["05:05","06:04","06:27","06:47","07:07","07:27","07:47","08:07","08:27","08:47","09:07","09:27","09:47","10:07","10:27","10:47","11:07","11:27","11:47","12:07","12:27","12:47","13:07","13:27","13:46","14:06","14:27","14:55","15:22","15:49","16:16","16:43","17:10","17:37","18:04","18:31","18:58","19:25","19:52","20:19","20:45","20:54","21:12","21:21","22:07","23:07","00:06"]},{"id":"327","name":"Pacinotti Cantone Ovest","lat":37.51147988,"lon":15.04726367,"times":["05:07","06:06","06:29","06:49","07:09","07:29","07:49","08:09","08:29","08:49","09:09","09:29","09:49","10:09","10:29","10:49","11:09","11:29","11:49","12:09","12:29","12:49","13:09","13:30","13:48","14:08","14:29","14:57","15:24","15:51","16:18","16:45","17:12","17:39","18:06","18:33","19:00","19:27","19:54","20:22","20:47","20:56","21:14","21:22","22:09","23:09","00:08"]},{"id":"1612","name":"Pacinotti Timmonieri Ovest","lat":37.50987535,"lon":15.04751159,"times":["05:08","06:07","06:30","06:50","07:10","07:30","07:50","08:10","08:30","08:50","09:10","09:30","09:50","10:10","10:30","10:50","11:10","11:30","11:50","12:10","12:30","12:50","13:10","13:32","13:49","14:09","14:30","14:58","15:25","15:52","16:19","16:46","17:13","17:40","18:07","18:34","19:01","19:28","19:55","20:23","20:49","20:57","21:15","21:23","22:10","23:10","00:09"]},{"id":"328","name":"Pacinotti Galvani","lat":37.50867646,"lon":15.04768055,"times":["05:08","06:07","06:31","06:51","07:11","07:31","07:51","08:11","08:31","08:51","09:11","09:31","09:51","10:11","10:31","10:51","11:11","11:31","11:51","12:11","12:31","12:51","13:11","13:33","13:50","14:10","14:31","14:59","15:26","15:53","16:20","16:47","17:14","17:41","18:08","18:35","19:02","19:29","19:56","20:24","20:49","20:57","21:16","21:24","22:11","23:11","00:10"]},{"id":"329","name":"Rapisardi Pacinotti","lat":37.50726098,"lon":15.04851693,"times":["05:09","06:08","06:33","06:53","07:13","07:33","07:53","08:13","08:33","08:53","09:13","09:33","09:53","10:13","10:33","10:53","11:13","11:33","11:53","12:13","12:33","12:53","13:13","13:34","13:52","14:11","14:33","15:01","15:28","15:55","16:22","16:49","17:16","17:43","18:10","18:37","19:04","19:31","19:58","20:25","20:51","20:59","21:17","21:25","22:13","23:13","00:12"]},{"id":"330","name":"Rapisardi Fermi Sud","lat":37.50784538,"lon":15.05201354,"times":["05:11","06:10","06:35","06:55","07:15","07:35","07:55","08:15","08:35","08:55","09:15","09:35","09:55","10:15","10:35","10:55","11:15","11:35","11:55","12:15","12:35","12:55","13:15","13:37","13:54","14:13","14:35","15:03","15:30","15:57","16:24","16:51","17:18","17:45","18:12","18:39","19:06","19:33","20:00","20:28","20:53","21:00","21:19","21:27","22:15","23:15","00:14"]},{"id":"331","name":"Rapisardi Lessona","lat":37.50824988,"lon":15.05449175,"times":["05:12","06:11","06:36","06:56","07:16","07:36","07:56","08:16","08:36","08:56","09:16","09:36","09:56","10:16","10:36","10:56","11:16","11:36","11:56","12:16","12:36","12:56","13:16","13:38","13:55","14:15","14:37","15:04","15:31","15:58","16:25","16:52","17:19","17:46","18:13","18:40","19:07","19:34","20:01","20:29","20:54","21:02","21:21","21:28","22:16","23:16","00:15"]},{"id":"332","name":"Rapisardi Cannizzaro","lat":37.50861843,"lon":15.05663051,"times":["05:13","06:12","06:38","06:58","07:18","07:38","07:58","08:18","08:38","08:58","09:18","09:38","09:58","10:18","10:38","10:58","11:18","11:38","11:58","12:18","12:38","12:58","13:18","13:40","13:56","14:16","14:38","15:06","15:33","16:00","16:27","16:54","17:21","17:48","18:15","18:42","19:09","19:36","20:03","20:31","20:56","21:03","21:22","21:29","22:18","23:18","00:16"]},{"id":"931","name":"Rapisardi Ferraris","lat":37.50886121,"lon":15.0578527,"times":["05:14","06:12","06:39","06:59","07:19","07:39","07:59","08:19","08:39","08:59","09:19","09:39","09:59","10:19","10:39","10:59","11:19","11:39","11:59","12:19","12:39","12:59","13:19","13:41","13:57","14:17","14:39","15:07","15:34","16:01","16:28","16:55","17:22","17:49","18:16","18:43","19:10","19:37","20:04","20:32","20:56","21:03","21:23","21:30","22:19","23:19","00:17"]},{"id":"1609","name":"Rapisardi Gambetta","lat":37.50898682,"lon":15.05902954,"times":["05:14","06:13","06:39","06:59","07:19","07:39","07:59","08:19","08:39","08:59","09:19","09:39","09:59","10:19","10:39","10:59","11:19","11:39","11:59","12:19","12:39","12:59","13:19","13:42","13:58","14:17","14:40","15:07","15:34","16:01","16:28","16:55","17:22","17:49","18:16","18:43","19:10","19:37","20:04","20:32","20:57","21:04","21:23","21:30","22:19","23:19","00:18"]},{"id":"932","name":"Rapisardi Cosenz","lat":37.50928341,"lon":15.060727,"times":["05:15","06:13","06:40","07:00","07:20","07:40","08:00","08:20","08:40","09:00","09:20","09:40","10:00","10:20","10:40","11:00","11:20","11:40","12:00","12:20","12:40","13:00","13:20","13:43","13:59","14:18","14:41","15:08","15:35","16:02","16:29","16:56","17:23","17:50","18:17","18:44","19:11","19:38","20:05","20:33","20:58","21:05","21:24","21:31","22:20","23:20","00:19"]},{"id":"933","name":"Rapisardi XXXI Maggio","lat":37.50966974,"lon":15.06311477,"times":["05:16","06:14","06:42","07:02","07:22","07:42","08:02","08:22","08:42","09:02","09:22","09:42","10:02","10:22","10:42","11:02","11:22","11:42","12:02","12:22","12:42","13:02","13:22","13:45","14:00","14:20","14:42","15:10","15:37","16:04","16:31","16:58","17:25","17:52","18:19","18:46","19:13","19:40","20:07","20:35","20:59","21:06","21:26","21:32","22:22","23:22","00:20"]},{"id":"934","name":"Rapisardi Curia","lat":37.51002902,"lon":15.06543465,"times":["05:17","06:15","06:43","07:03","07:23","07:43","08:03","08:23","08:43","09:03","09:23","09:43","10:03","10:23","10:43","11:03","11:23","11:43","12:03","12:23","12:43","13:03","13:23","13:46","14:01","14:21","14:44","15:11","15:38","16:05","16:32","16:59","17:26","17:53","18:20","18:47","19:14","19:41","20:08","20:37","21:01","21:07","21:27","21:33","22:23","23:23","00:21"]},{"id":"935","name":"Rapisardi Caracciolo","lat":37.51048713,"lon":15.06824118,"times":["05:19","06:17","06:45","07:05","07:25","07:45","08:05","08:25","08:45","09:05","09:25","09:45","10:05","10:25","10:45","11:05","11:25","11:45","12:05","12:25","12:45","13:05","13:25","13:48","14:03","14:23","14:46","15:13","15:40","16:07","16:34","17:01","17:28","17:55","18:22","18:49","19:16","19:43","20:10","20:38","21:02","21:08","21:29","21:34","22:25","23:25","00:23"]},{"id":"936","name":"Rapisardi D'Acquisto","lat":37.51085528,"lon":15.07064033,"times":["05:20","06:18","06:47","07:07","07:27","07:47","08:07","08:27","08:47","09:07","09:27","09:47","10:07","10:27","10:47","11:07","11:27","11:47","12:07","12:27","12:47","13:07","13:27","13:50","14:05","14:24","14:48","15:15","15:42","16:09","16:36","17:03","17:30","17:57","18:24","18:51","19:18","19:45","20:12","20:40","21:04","21:10","21:30","21:36","22:27","23:27","00:25"]},{"id":"1223","name":"Rapisardi Forlanini","lat":37.51130426,"lon":15.0734356,"times":["05:21","06:19","06:48","07:08","07:28","07:48","08:08","08:28","08:48","09:08","09:28","09:48","10:08","10:28","10:48","11:08","11:28","11:48","12:08","12:28","12:48","13:08","13:28","13:52","14:06","14:26","14:49","15:16","15:43","16:10","16:37","17:04","17:31","17:58","18:25","18:52","19:19","19:46","20:13","20:42","21:06","21:11","21:32","21:37","22:28","23:28","00:26"]},