{"id":"423","directions":{"0":{"feriale":[{"id":"6","name":"Terminal Stazione Centrale","lat":37.50740718,"lon":15.09911409,"times":["06:00","06:30","07:05","07:45","08:20","09:00","09:35","10:15","10:50","11:30","12:05","12:45","13:20","13:55","14:30","15:05","15:35","16:10","16:40","17:15","17:45","18:20","18:50","19:25","19:55","20:30","21:00","21:30","22:00","22:30","23:30"]},{"id":"145","name":"VI Aprile Sangiuliano","lat":37.50495073,"lon":15.09691772,"times":["06:00","06:31","07:06","07:46","08:21","09:01","09:36","10:16","10:51","11:31","12:06","12:46","13:21","13:56","14:31","15:06","15:36","16:11","16:41","17:16","17:46","18:21","18:51","19:26","19:56","20:31","21:00","21:31","22:00","22:31","23:31"]},{"id":"146","name":"Vittorio Emanuele II Cutelli","lat":37.50349308,"lon":15.09374791,"times":["06:01","06:32","07:07","07:47","08:22","09:02","09:37","10:17","10:52","11:32","12:07","12:47","13:22","13:57","14:32","15:07","15:37","16:12","16:42","17:17","17:47","18:22","18:52","19:27","19:57","20:32","21:01","21:32","22:01","22:32","23:32"]},{"id":"147","name":"Vittorio Emanuele II Platamone","lat":37.50320663,"lon":15.09120191,"times":["06:02","06:33","07:08","07:48","08:23","09:03","09:38","10:18","10:53","11:33","12:08","12:48","13:23","13:58","14:33","15:07","15:37","16:12","16:42","17:17","17:47","18:22","18:52","19:27","19:57","20:32","21:02","21:32","22:02","22:32","23:32"]},{"id":"1783","name":"Vittorio Emanuele II San Placido","lat":37.50301843,"lon":15.08978744,"times":["06:02","06:33","07:08","07:48","08:23","09:03","09:38","10:18","10:53","11:33","12:08","12:48","13:23","13:58","14:33","15:08","15:38","16:13","16:43","17:18","17:48","18:23","18:53","19:28","19:58","20:33","21:02","21:33","22:02","22:33","23:33"]},{"id":"1860","name":"Borsellino","lat":37.50198616,"lon":15.08902438,"times":["06:03","06:34","07:09","07:49","08:24","09:04","09:39","10:19","10:54","11:34","12:09","12:49","13:24","13:59","14:34","15:08","15:38","16:13","16:43","17:18","17:48","18:23","18:53","19:28","19:58","20:33","21:03","21:33","22:03","22:33","23:33"]},{"id":"10","name":"Colombo Aretusa","lat":37.49802484,"lon":15.0898154,"times":["06:04","06:35","07:10","07:50","08:25","09:05","09:40","10:20","10:55","11:35","12:10","12:50","13:25","14:00","14:35","15:10","15:40","16:15","16:45","17:20","17:50","18:25","18:55","19:30","20:00","20:35","21:04","21:35","22:04","22:35","23:35"]},{"id":"11","name":"Tempio Stella Polare Ovest","lat":37.49534744,"lon":15.09025339,"times":["06:05","06:37","07:12","07:52","08:27","09:07","09:42","10:22","10:57","11:37","12:12","12:52","13:27","14:02","14:37","15:11","15:41","16:16","16:46","17:21","17:51","18:26","18:56","19:31","20:01","20:36","21:05","21:36","22:05","22:36","23:36"]},{"id":"12","name":"Tempio Principe Ovest","lat":37.49386943,"lon":15.08995749,"times":["06:05","06:37","07:12","07:52","08:27","09:07","09:42","10:22","10:57","11:37","12:12","12:52","13:27","14:02","14:37","15:11","15:41","16:16","16:46","17:21","17:51","18:26","18:56","19:31","20:01","20:36","21:05","21:36","22:05","22:36","23:36"]},{"id":"13","name":"Tempio Assunta Ovest","lat":37.49290509,"lon":15.08979796,"times":["06:05","06:37","07:12","07:52","08:27","09:07","09:42","10:22","10:57","11:37","12:12","12:52","13:27","14:02","14:37","15:11","15:41","16:16","16:46","17:21","17:51","18:26","18:56","19:31","20:01","20:36","21:05","21:36","22:05","22:36","23:36"]},{"id":"849","name":"Assunta","lat":37.49286236,"lon":15.08666437,"times":["06:06","06:39","07:14","07:54","08:29","09:09","09:44","10:24","10:59","11:39","12:14","12:54","13:29","14:04","14:39","15:12","15:42","16:17","16:47","17:22","17:52","18:27","18:57","19:32","20:02","20:37","21:06","21:37","22:06","22:37","23:37"]},{"id":"742","name":"Concordia Fiducia","lat":37.49315247,"lon":15.08434565,"times":["06:07","06:39","07:14","07:54","08:29","09:09","09:44","10:24","10:59","11:39","12:14","12:54","13:29","14:04","14:39","15:13","15:43","16:18","16:48","17:23","17:53","18:28","18:58","19:33","20:03","20:38","21:07","21:38","22:07","22:38","23:38"]},{"id":"743","name":"Concordia Vento Nord","lat":37.49343362,"lon":15.08189116,"times":["06:07","06:40","07:15","07:55","08:30","09:10","09:45","10:25","11:00","11:40","12:15","12:55","13:30","14:05","14:40","15:14","15:44","16:19","16:49","17:24","17:54","18:29","18:59","19:34","20:04","20:39","21:07","21:39","22:07","22:39","23:39"]},{"id":"744","name":"Concordia De Lorenzo Nord","lat":37.49372382,"lon":15.07931222,"times":["06:08","06:41","07:16","07:56","08:31","09:11","09:46","10:26","11:01","11:41","12:16","12:56","13:31","14:06","14:41","15:14","15:44","16:19","16:49","17:24","17:54","18:29","18:59","19:34","20:04","20:39","21:08","21:39","22:08","22:39","23:39"]},{"id":"745","name":"Concordia Adamo","lat":37.49402295,"lon":15.07677851,"times":["06:09","06:42","07:17","07:57","08:32","09:12","09:47","10:27","11:02","11:42","12:17","12:57","13:32","14:07","14:42","15:15","15:45","16:20","16:50","17:25","17:55","18:30","19:00","19:35","20:05","20:40","21:09","21:40","22:09","22:40","23:40"]},{"id":"746","name":"Concordia Poulet","lat":37.49437621,"lon":15.07406384,"times":["06:09","06:42","07:17","07:57","08:32","09:12","09:47","10:27","11:02","11:42","12:17","12:57","13:32","14:07","14:42","15:16","15:46","16:21","16:51","17:26","17:56","18:31","19:01","19:36","20:06","20:41","21:09","21:41","22:09","22:41","23:41"]},{"id":"128","name":"Acquicella Regione","lat":37.49304268,"lon":15.07328197,"times":["06:10","06:43","07:18","07:58","08:33","09:13","09:48","10:28","11:03","11:43","12:18","12:58","13:33","14:08","14:43","15:16","15:46","16:21","16:51","17:26","17:56","18:31","19:01","19:36","20:06","20:41","21:10","21:41","22:10","22:41","23:41"]},{"id":"129","name":"Acquicella Ovest","lat":37.49084355,"lon":15.07294046,"times":["06:10","06:44","07:19","07:59","08:34","09:14","09:49","10:29","11:04","11:44","12:19","12:59","13:34","14:09","14:44","15:17","15:47","16:22","16:52","17:27","17:57","18:32","19:02","19:37","20:07","20:42","21:10","21:42","22:10","22:42","23:42"]},{"id":"130","name":"Acquicella Zia Lisa Ovest","lat":37.48946476,"lon":15.07244139,"times":["06:11","06:44","07:19","07:59","08:34","09:14","09:49","10:29","11:04","11:44","12:19","12:59","13:34","14:09","14:44","15:18","15:48","16:23","16:53","17:28","17:58","18:33","19:03","19:38","20:08","20:43","21:11","21:43","22:11","22:43","23:43"]},{"id":"850","name":"Zia Lisa Ovest (1)","lat":37.48753618,"lon":15.07188526,"times":["06:11","06:45","07:20","08:00","08:35","09:15","09:50","10:30","11:05","11:45","12:20","13:00","13:35","14:10","14:45","15:18","15:48","16:23","16:53","17:28","17:58","18:33","19:03","19:38","20:08","20:43","21:11","21:43","22:11","22:43","23:43"]},{"id":"851","name":"Zia Lisa Ovest (2)","lat":37.48513929,"lon":15.07062742,"times":["06:12","06:46","07:21","08:01","08:36","09:16","09:51","10:31","11:06","11:46","12:21","13:01","13:36","14:11","14:46","15:19","15:49","16:24","16:54","17:29","17:59","18:34","19:04","19:39","20:09","20:44","21:12","21:44","22:12","22:44","23:44"]},{"id":"852","name":"Zia Lisa Ovest (3)","lat":37.48361738,"lon":15.06823936,"times":["06:13","06:47","07:22","08:02","08:37","09:17","09:52","10:32","11:07","11:47","12:22","13:02","13:37","14:12","14:47","15:20","15:50","16:25","16:55","17:30","18:00","18:35","19:05","19:40","20:10","20:45","21:13","21:45","22:13","22:45","23:45"]},{"id":"1171","name":"Nitta Bonaventura","lat":37.48324203,"lon":15.06241388,"times":["06:14","06:49","07:24","08:04","08:39","09:19","09:54","10:34","11:09","11:49","12:24","13:04","13:39","14:14","14:49","15:22","15:52","16:27","16:57","17:32","18:02","18:37","19:07","19:42","20:12","20:47","21:14","21:47","22:14","22:47","23:47"]},{"id":"1710","name":"Librino Bonaventura","lat":37.48268274,"lon":15.06010655,"times":["06:15","06:50","07:25","08:05","08:40","09:20","09:55","10:35","11:10","11:50","12:25","13:05","13:40","14:15","14:50","15:23","15:53","16:28","16:58","17:33","18:03","18:38","19:08","19:43","20:13","20:48","21:15","21:48","22:15","22:48","23:48"]},{"id":"809","name":"Librino Castagnola","lat":37.482155,"lon":15.05511751,"times":["06:16","06:52","07:27","08:07","08:42","09:22","09:57","10:37","11:12","11:52","12:27","13:07","13:42","14:17","14:52","15:24","15:54","16:29","16:59","17:34","18:04","18:39","19:09","19:44","20:14","20:49","21:16","21:49","22:16","22:49","23:49"]},{"id":"810","name":"Castagnola Librino Nord","lat":37.48248926,"lon":15.05347768,"times":["06:17","06:52","07:27","08:07","08:42","09:22","09:57","10:37","11:12","11:52","12:27","13:07","13:42","14:17","14:52","15:25","15:55","16:30","17:00","17:35","18:05","18:40","19:10","19:45","20:15","20:50","21:17","21:50","22:17","22:50","23:50"]},{"id":"1754","name":"Librino Asse attrezzato Librino","lat":37.48367877,"lon":15.05414588,"times":["06:17","06:53","07:28","08:08","08:43","09:23","09:58","10:38","11:13","11:53","12:28","13:08","13:43","14:18","14:53","15:25","15:55","16:30","17:00","17:35","18:05","18:40","19:10","19:45","20:15","20:50","21:17","21:50","22:17","22:50","23:50"]},{"id":"1673","name":"Librino Asse attrezzato Nitta","lat":37.48549882,"lon":15.05568553,"times":["06:18","06:54","07:29","08:09","08:44","09:24","09:59","10:39","11:14","11:54","12:29","13:09","13:44","14:19","14:54","15:26","15:56","16:31","17:01","17:36","18:06","18:41","19:11","19:46","20:16","20:51","21:18","21:51","22:18","22:51","23:51"]},{"id":"1711","name":"Librino Nitta (1)","lat":37.48507441,"lon":15.0572801,"times":["06:18","06:54","07:29","08:09","08:44","09:24","09:59","10:39","11:14","11:54","12:29","13:09","13:44","14:19","14:54","15:26","15:56","16:31","17:01","17:36","18:06","18:41","19:11","19:46","20:16","20:51","21:18","21:51","22:18","22:51","23:51"]},{"id":"1712","name":"Librino Nitta (2)","lat":37.48339461,"lon":15.06058063,"times":["06:19","06:56","07:31","08:11","08:46","09:26","10:01","10:41","11:16","11:56","12:31","13:11","13:46","14:21","14:56","15:27","15:57","16:32","17:02","17:37","18:07","18:42","19:12","19:47","20:17","20:52","21:19","21:52","22:19","22:52","23:52"]},{"id":"1172","name":"Bonaventura Nitta","lat":37.48307971,"lon":15.06254947,"times":["06:20","06:56","07:31","08:11","08:46","09:26","10:01","10:41","11:16","11:56","12:31","13:11","13:46","14:21","14:56","15:28","15:58","16:33","17:03","17:38","18:08","18:43","19:13","19:48","20:18","20:53","21:20","21:53","22:20","22:53","23:53"]},{"id":"854","name":"Gelso Bianco Bonaventura Nord","lat":37.48159119,"lon":15.06488955,"times":["06:21","06:58","07:33","08:13","08:48","09:28","10:03","10:43","11:18","11:58","12:33","13:13","13:48","14:23","14:58","15:29","15:59","16:34","17:04","17:39","18:09","18:44","19:14","19:49","20:19","20:54","21:21","21:54","22:21","22:54","23:54"]},{"id":"855","name":"Gelso Bianco Segusio Nord","lat":37.48027631,"lon":15.06281859,"times":["06:21","06:58","07:33","08:13","08:48","09:28","10:03","10:43","11:18","11:58","12:33","13:13","13:48","14:23","14:58","15:30","16:00","16:35","17:05","17:40","18:10","18:45","19:15","19:50","20:20","20:55","21:21","21:55","22:21","22:55","23:55"]},{"id":"856","name":"Gelso Bianco Nord","lat":37.47788064,"lon":15.05898244,"times":["06:22","07:00","07:35","08:15","08:50","09:30","10:05","10:45","11:20","12:00","12:35","13:15","13:50","14:25","15:00","15:31","16:01","16:36","17:06","17:41","18:11","18:46","19:16","19:51","20:21","20:56","21:22","21:56","22:22","22:56","23:56"]},{"id":"857","name":"Gelso Bianco Sisinna","lat":37.47703427,"lon":15.05711562,"times":["06:23","07:00","07:35","08:15","08:50","09:30","10:05","10:45","11:20","12:00","12:35","13:15","13:50","14:25","15:00","15:32","16:02","16:37","17:07","17:42","18:12","18:47","19:17","19:52","20:22","20:57","21:23","21:57","22:23","22:57","23:57"]},{"id":"858","name":"Gelso Bianco Vigo Nord","lat":37.47630493,"lon":15.05550906,"times":["06:23","07:01","07:36","08:16","08:51","09:31","10:06","10:46","11:21","12:01","12:36","13:16","13:51","14:26","15:01","15:32","16:02","16:37","17:07","17:42","18:12","18:47","19:17","19:52","20:22","20:57","21:23","21:57","22:23","22:57","23:57"]},{"id":"Mob523","name":"Gelso Bianco Tarocco","lat":37.47437461,"lon":15.05096347,"times":["06:24","07:02","07:37","08:17","08:52","09:32","10:07","10:47","11:22","12:02","12:37","13:17","13:52","14:27","15:02","15:33","16:03","16:38","17:08","17:43","18:13","18:48","19:18","19:53","20:23","20:58","21:24","21:58","22:24","22:58","23:58"]},{"id":"1776","name":"Centro commerciale (1)","lat":37.46966155,"lon":15.04886625,"times":["06:28","07:07","07:42","08:22","08:57","09:37","10:12","10:52","11:27","12:07","12:42","13:22","13:57","14:32","15:07","15:38","16:08","16:43","17:13","17:48","18:18","18:53","19:23","19:58","20:28","21:03","21:28","22:03","22:28","23:03","00:03"]},{"id":"1777","name":"Centro commerciale (2)","lat":37.47346972,"lon":15.0513575,"times":["06:30","07:10","07:45","08:25","09:00","09:40","10:15","10:55","11:30","12:10","12:45","13:25","14:00","14:35","15:10","15:40","16:10","16:45","17:15","17:50","18:20","18:55","19:25","20:00","20:30","21:05","21:30","22:05","22:30","23:05","00:05"]}],"sabato":[{"id":"6","name":"Terminal Stazione Centrale","lat":37.50740718,"lon":15.09911409,"times":["06:00","06:30","07:05","07:45","08:20","09:00","09:35","10:15","10:50","11:30","12:05","12:45","13:20","13:55","14:30","15:05","15:35","16:10","16:40","17:15","17:45","18:20","18:50","19:25","19:55","20:30","21:00","21:30","22:00","22:30","23:30"]},{"id":"145","name":"VI Aprile Sangiuliano","lat":37.50495073,"lon":15.09691772,"times":["06:00","06:31","07:06","07:46","08:21","09:01","09:36","10:16","10:51","11:31","12:06","12:46","13:21","13:56","14:31","15:06","15:36","16:11","16:41","17:16","17:46","18:21","18:51","19:26","19:56","20:31","21:00","21:31","22:00","22:31","23:31"]},{"id":"146","name":"Vittorio Emanuele II Cutelli","lat":37.50349308,"lon":15.09374791,"times":["06:01","06:32","07:07","07:47","08:22","09:02","09:37","10:17","10:52","11:32","12:07","12:47","13:22","13:57","14:32","15:07","15:37","16:12","16:42","17:17","17:47","18:22","18:52","19:27","19:57","20:32","21:01","21:32","22:01","22:32","23:32"]},{"id":"147","name":"Vittorio Emanuele II Platamone","lat":37.50320663,"lon":15.09120191,"times":["06:02","06:33","07:08","07:48","08:23","09:03","09:38","10:18","10:53","11:33","12:08","12:48","13:23","13:58","14:33","15:07","15:37","16:12","16:42","17:17","17:47","18:22","18:52","19:27","19:57","20:32","21:02","21:32","22:02","22:32","23:32"]},{"id":"1783","name":"Vittorio Emanuele II San Placido","lat":37.50301843,"lon":15.08978744,"times":["06:02","06:33","07:08","07:48","08:23","09:03","09:38","10:18","10:53","11:33","12:08","12:48","13:23","13:58","14:33","15:08","15:38","16:13","16:43","17:18","17:48","18:23","18:53","19:28","19:58","20:33","21:02","21:33","22:02","22:33","23:33"]},{"id":"1860","name":"Borsellino","lat":37.50198616,"lon":15.08902438,"times":["06:03","06:34","07:09","07:49","08:24","09:04","09:39","10:19","10:54","11:34","12:09","12:49","13:24","13:59","14:34","15:08","15:38","16:13","16:43","17:18","17:48","18:23","18:53","19:28","19:58","20:33","21:03","21:33","22:03","22:33","23:33"]},{"id":"10","name":"Colombo Aretusa","lat":37.49802484,"lon":15.0898154,"times":["06:04","06:35","07:10","07:50","08:25","09:05","09:40","10:20","10:55","11:35","12:10","12:50","13:25","14:00","14:35","15:10","15:40","16:15","16:45","17:20","17:50","18:25","18:55","19:30","20:00","20:35","21:04","21:35","22:04","22:35","23:35"]},{"id":"11","name":"Tempio Stella Polare Ovest","lat":37.49534744,"lon":15.09025339,"times":["06:05","06:37","07:12","07:52","08:27","09:07","09:42","10:22","10:57","11:37","12:12","12:52","13:27","14:02","14:37","15:11","15:41","16:16","16:46","17:21","17:51","18:26","18:56","19:31","20:01","20:36","21:05","21:36","22:05","22:36","23:36"]},{"id":"12","name":"Tempio Principe Ovest","lat":37.49386943,"lon":15.08995749,"times":["06:05","06:37","07:12","07:52","08:27","09:07","09:42","10:22","10:57","11:37","12:12","12:52","13:27","14:02","14:37","15:11","15:41","16:16","16:46","17:21","17:51","18:26","18:56","19:31","20:01","20:36","21:05","21:36","22:05","22:36","23:36"]},{"id":"13","name":"Tempio Assunta Ovest","lat":37.49290509,"lon":15.08979796,"times":["06:05","06:37","07:12","07:52","08:27","09:07","09:42","10:22","10:57","11:37","12:12","12:52","13:27","14:02","14:37","15:11","15:41","16:16","16:46","17:21","17:51","18:26","18:56","19:31","20:01","20:36","21:05","21:36","22:05","22:36","23:36"]},{"id":"849","name":"Assunta","lat":37.49286236,"lon":15.08666437,"times":["06:06","06:39","07:14","07:54","08:29","09:09","09:44","10:24","10:59","11:39","12:14","12:54","13:29","14:04","14:39","15:12","15:42","16:17","16:47","17:22","17:52","18:27","18:57","19:32","20:02","20:37","21:06","21:37","22:06","22:37","23:37"]},{"id":"742","name":"Concordia Fiducia","lat":37.49315247,"lon":15.08434565,"times":["06:07","06:39","07:14","07:54","08:29","09:09","09:44","10:24","10:59","11:39","12:14","12:54","13:29","14:04","14:39","15:13","15:43","16:18","16:48","17:23","17:53","18:28","18:58","19:33","20:03","20:38","21:07","21:38","22:07","22:38","23:38"]},{"id":"743","name":"Concordia Vento Nord","lat":37.49343362,"lon":15.08189116,"times":["06:07","06:40","07:15","07:55","08:30","09:10","09:45","10:25","11:00","11:40","12:15","12:55","13:30","14:05","14:40","15:14","15:44","16:19","16:49","17:24","17:54","18:29","18:59","19:34","20:04","20:39","21:07","21:39","22:07","22:39","23:39"]},{"id":"744","name":"Concordia De Lorenzo Nord","lat":37.49372382,"lon":15.07931222,"times":["06:08","06:41","07:16","07:56","08:31","09:11","09:46","10:26","11:01","11:41","12:16","12:56","13:31","14:06","14:41","15:14","15:44","16:19","16:49","17:24","17:54","18:29","18:59","19:34","20:04","20:39","21:08","21:39","22:08","22:39","23:39"]},{"id":"745","name":"Concordia Adamo","lat":37.49402295,"lon":15.07677851,"times":["06:09","06:42","07:17","07:57","08:32","09:12","09:47","10:27","11:02","11:42","12:17","12:57","13:32","14:07","14:42","15:15","15:45","16:20","16:50","17:25","17:55","18:30","19:00","19:35","20:05","20:40","21:09","21:40","22:09","22:40","23:40"]},{"id":"746","name":"Concordia Poulet","lat":37.49437621,"lon":15.07406384,"times":["06:09","06:42","07:17","07:57","08:32","09:12","09:47","10:27","11:02","11:42","12:17","12:57","13:32","14:07","14:42","15:16","15:46","16:21","16:51","17:26","17:56","18:31","19:01","19:36","20:06","20:41","21:09","21:41","22:09","22:41","23:41"]},{"id":"128","name":"Acquicella Regione","lat":37.49304268,"lon":15.07328197,"times":["06:10","06:43","07:18","07:58","08:33","09:13","09:48","10:28","11:03","11:43","12:18","12:58","13:33","14:08","14:43","15:16","15:46","16:21","16:51","17:26","17:56","18:31","19:01","19:36","20:06","20:41","21:10","21:41","22:10","22:41","23:41"]},{"id":"129","name":"Acquicella Ovest","lat":37.49084355,"lon":15.07294046,"times":["06:10","06:44","07:19","07:59","08:34","09:14","09:49","10:29","11:04","11:44","12:19","12:59","13:34","14:09","14:44","15:17","15:47","16:22","16:52","17:27","17:57","18:32","19:02","19:37","20:07","20:42","21:10","21:42","22:10","22:42","23:42"]},{"id":"130","name":"Acquicella Zia Lisa Ovest","lat":37.48946476,"lon":15.07244139,"times":["06:11","06:44","07:19","07:59","08:34","09:14","09:49","10:29","11:04","11:44","12:19","12:59","13:34","14:09","14:44","15:18","15:48","16:23","16:53","17:28","17:58","18:33","19:03","19:38","20:08","20:43","21:11","21:43","22:11","22:43","23:43"]},{"id":"850","name":"Zia Lisa Ovest (1)","lat":37.48753618,"lon":15.07188526,"times":["06:11","06:45","07:20","08:00","08:35","09:15","09:50","10:30","11:05","11:45","12:20","13:00","13:35","14:10","14:45","15:18","15:48","16:23","16:53","17:28","17:58","18:33","19:03","19:38","20:08","20:43","21:11","21:43","22:11","22:43","23:43"]},{"id":"851","name":"Zia Lisa Ovest (2)","lat":37.48513929,"lon":15.07062742,"times":["06:12","06:46","07:21","08:01","08:36","09:16","09:51","10:31","11:06","11:46","12:21","13:01","13:36","14:11","14:46","15:19","15:49","16:24","16:54","17:29","17:59","18:34","19:04","19:39","20:09","20:44","21:12","21:44","22:12","22:44","23:44"]},{"id":"852","name":"Zia Lisa Ovest (3)","lat":37.48361738,"lon":15.06823936,"times":["06:13","06:47","07:22","08:02","08:37","09:17","09:52","10:32","11:07","11:47","12:22","13:02","13:37","14:12","14:47","15:20","15:50","16:25","16:55","17:30","18:00","18:35","19:05","19:40","20:10","20:45","21:13","21:45","22:13","22:45","23:45"]},{"id":"1171","name":"Nitta Bonaventura","lat":37.48324203,"lon":15.06241388,"times":["06:14","06:49","07:24","08:04","08:39","09:19","09:54","10:34","11:09","11:49","12:24","13:04","13:39","14:14","14:49","15:22","15:52","16:27","16:57","17:32","18:02","18:37","19:07","19:42","20:12","20:47","21:14","21:47","22:14","22:47","23:47"]},{"id":"1710","name":"Librino Bonaventura","lat":37.48268274,"lon":15.06010655,"times":["06:15","06:50","07:25","08:05","08:40","09:20","09:55","10:35","11:10","11:50","12:25","13:05","13:40","14:15","14:50","15:23","15:53","16:28","16:58","17:33","18:03","18:38","19:08","19:43","20:13","20:48","21:15","21:48","22:15","22:48","23:48"]},{"id":"809","name":"Librino Castagnola","lat":37.482155,"lon":15.05511751,"times":["06:16","06:52","07:27","08:07","08:42","09:22","09:57","10:37","11:12","11:52","12:27","13:07","13:42","14:17","14:52","15:24","15:54","16:29","16:59","17:34","18:04","18:39","19:09","19:44","20:14","20:49","21:16","21:49","22:16","22:49","23:49"]},{"id":"810","name":"Castagnola Librino Nord","lat":37.48248926,"lon":15.05347768,"times":["06:17","06:52","07:27","08:07","08:42","09:22","09:57","10:37","11:12","11:52","12:27","13:07","13:42","14:17","14:52","15:25","15:55","16:30","17:00","17:35","18:05","18:40","19:10","19:45","20:15","20:50","21:17","21:50","22:17","22:50","23:50"]},{"id":"1754","name":"Librino Asse attrezzato Librino","lat":37.48367877,"lon":15.05414588,"times":["06:17","06:53","07:28","08:08","08:43","09:23","09:58","10:38","11:13","11:53","12:28","13:08","13:43","14:18","14:53","15:25","15:55","16:30","17:00","17:35","18:05","18:40","19:10","19:45","20:15","20:50","21:17","21:50","22:17","22:50","23:50"]},{"id":"1673","name":"Librino Asse attrezzato Nitta","lat":37.48549882,"lon":15.05568553,"times":["06:18","06:54","07:29","08:09","08:44","09:24","09:59","10:39","11:14","11:54","12:29","13:09","13:44","14:19","14:54","15:26","15:56","16:31","17:01","17:36","18:06","18:41","19:11","19:46","20:16","20:51","21:18","21:51","22:18","22:51","23:51"]},{"id":"1711","name":"Librino Nitta (1)","lat":37.48507441,"lon":15.0572801,"times":["06:18","06:54","07:29","08:09","08:44","09:24","09:59","10:39","11:14","11:54","12:29","13:09","13:44","14:19","14:54","15:26","15:56","16:31","17:01","17:36","18:06","18:41","19:11","19:46","20:16","20:51","21:18","21:51","22:18","22:51","23:51"]},{"id":"1712","name":"Librino Nitta (2)","lat":37.48339461,"lon":15.06058063,"times":["06:19","06:56","07:31","08:11","08:46","09:26","10:01","10:41","11:16","11:56","12:31","13:11","13:46","14:21","14:56","15:27","15:57","16:32","17:02","17:37","18:07","18:42","19:12","19:47","20:17","20:52","21:19","21:52","22:19","22:52","23:52"]},{"id":"1172","name":"Bonaventura Nitta","lat":37.48307971,"lon":15.06254947,"times":["06:20","06:56","07:31","08:11","08:46","09:26","10:01","10:41","11:16","11:56","12:31","13:11","13:46","14:21","14:56","15:28","15:58","16:33","17:03","17:38","18:08","18:43","19:13","19:48","20:18","20:53","21:20","21:53","22:20","22:53","23:53"]},{"id":"854","name":"Gelso Bianco Bonaventura Nord","lat":37.48159119,"lon":15.06488955,"times":["06:21","06:58","07:33","08:13","08:48","09:28","10:03","10:43","11:18","11:58","12:33","13:13","13:48","14:23","14:58","15:29","15:59","16:34","17:04","17:39","18:09","18:44","19:14","19:49","20:19","20:54","21:21","21:54","22:21","22:54","23:54"]},{"id":"855","name":"Gelso Bianco Segusio Nord","lat":37.48027631,"lon":15.06281859,"times":["06:21","06:58","07:33","08:13","08:48","09:28","10:03","10:43","11:18","11:58","12:33","13:13","13:48","14:23","14:58","15:30","16:00","16:35","17:05","17:40","18:10","18:45","19:15","19:50","20:20","20:55","21:21","21:55","22:21","22:55","23:55"]},{"id":"856","name":"Gelso Bianco Nord","lat":37.47788064,"lon":15.05898244,"times":["06:22","07:00","07:35","08:15","08:50","09:30","10:05","10:45","11:20","12:00","12:35","13:15","13:50","14:25","15:00","15:31","16:01","16:36","17:06","17:41","18:11","18:46","19:16","19:51","20:21","20:56","21:22","21:56","22:22","22:56","23:56"]},{"id":"857","name":"Gelso Bianco Sisinna","lat":37.47703427,"lon":15.05711562,"times":["06:23","07:00","07:35","08:15","08:50","09:30","10:05","10:45","11:20","12:00","12:35","13:15","13:50","14:25","15:00","15:32","16:02","16:37","17:07","17:42","18:12","18:47","19:17","19:52","20:22","20:57","21:23","21:57","22:23","22:57","23:57"]},{"id":"858","name":"Gelso Bianco Vigo Nord","lat":37.47630493,"lon":15.05550906,"times":["06:23","07:01","07:36","08:16","08:51","09:31","10:06","10:46","11:21","12:01","12:36","13:16","13:51","14:26","15:01","15:32","16:02","16:37","17:07","17:42","18:12","18:47","19:17","19:52","20:22","20:57","21:23","21:57","22:23","22:57","23:57"]},{"id":"Mob523","name":"Gelso Bianco Tarocco","lat":37.47437461,"lon":15.05096347,"times":["06:24","07:02","07:37","08:17","08:52","09:32","10:07","10:47","11:22","12:02","12:37","13:17","13:52","14:27","15:02","15:33","16:03","16:38","17:08","17:43","18:13","18:48","19:18","19:53","20:23","20:58","21:24","21:58","22:24","22:58","23:58"]},{"id":"1776","name":"Centro commerciale (1)","lat":37.46966155,"lon":15.04886625,"times":["06:28","07:07","07:42","08:22","08:57","09:37","10:12","10:52","11:27","12:07","12:42","13:22","13:57","14:32","15:07","15:38","16:08","16:43","17:13","17:48","18:18","18:53","19:23","19:58","20:28","21:03","21:28","22:03","22:28","23:03","00:03"]},{"id":"1777","name":"Centro commerciale (2)","lat":37.47346972,"lon":15.0513575,"times":["06:30","07:10","07:45","08:25","09:00","09:40","10:15","10:55","11:30","12:10","12:45","13:25","14:00","14:35","15:10","15:40","16:10","16:45","17:15","17:50","18:20","18:55","19:25","20:00","20:30","21:05","21:30","22:05","22:30","23:05","00:05"]}],"domenica":[{"id":"6","name":"Terminal Stazione Centrale","lat":37.50740718,"lon":15.09911409,"times":["06:50","07:35","08:40","09:45","10:50","11:55","13:00","15:30","16:30","17:30","18:30","19:30","20:30"]},{"id":"145","name":"VI Aprile Sangiuliano","lat":37.50495073,"lon":15.09691772,"times":["06:50","07:36","08:41","09:46","10:51","11:56","13:01","15:30","16:30","17:30","18:30","19:30","20:30"]},{"id":"146","name":"Vittorio Emanuele II Cutelli","lat":37.50349308,"lon":15.09374791,"times":["06:51","07:37","08:42","09:47","10:52","11:57","13:02","15:31","16:31","17:31","18:31","19:31","20:31"]},{"id":"147","name":"Vittorio Emanuele II Platamone","lat":37.50320663,"lon":15.09120191,"times":["06:51","07:37","08:42","09:47","10:52","11:57","13:02","15:32","16:32","17:32","18:32","19:32","20:32"]},{"id":"1783","name":"Vittorio Emanuele II San Placido","lat":37.50301843,"lon":15.08978744,"times":["06:51","07:38","08:43","09:48","10:53","11:58","13:03","15:32","16:32","17:32","18:32","19:32","20:32"]},{"id":"1860","name":"Borsellino","lat":37.50198616,"lon":15.08902438,"times":["06:52","07:38","08:43","09:48","10:53","11:58","13:03","15:33","16:33","17:33","18:33","19:33","20:33"]},{"id":"10","name":"Colombo Aretusa","lat":37.49802484,"lon":15.0898154,"times":["06:52","07:40","08:45","09:50","10:55","12:00","13:05","15:34","16:34","17:34","18:34","19:34","20:34"]},{"id":"11","name":"Tempio Stella Polare Ovest","lat":37.49534744,"lon":15.09025339,"times":["06:53","07:41","08:46","09:51","10:56","12:01","13:06","15:35","16:35","17:35","18:35","19:35","20:35"]},{"id":"12","name":"Tempio Principe Ovest","lat":37.49386943,"lon":15.08995749,"times":["06:53","07:41","08:46","09:51","10:56","12:01","13:06","15:35","16:35","17:35","18:35","19:35","20:35"]},{"id":"13","name":"Tempio Assunta Ovest","lat":37.49290509,"lon":15.08979796,"times":["06:53","07:41","08:46","09:51","10:56","12:01","13:06","15:35","16:35","17:35","18:35","19:35","20:35"]},{"id":"849","name":"Assunta","lat":37.49286236,"lon":15.08666437,"times":["06:54","07:42","08:47","09:52","10:57","12:02","13:07","15:36","16:36","17:36","18:36","19:36","20:36"]},{"id":"742","name":"Concordia Fiducia","lat":37.49315247,"lon":15.08434565,"times":["06:54","07:43","08:48","09:53","10:58","12:03","13:08","15:37","16:37","17:37","18:37","19:37","20:37"]},{"id":"743","name":"Concordia Vento Nord","lat":37.49343362,"lon":15.08189116,"times":["06:55","07:44","08:49","09:54","10:59","12:04","13:09","15:37","16:37","17:37","18:37","19:37","20:37"]},{"id":"744","name":"Concordia De Lorenzo Nord","lat":37.49372382,"lon":15.07931222,"times":["06:55","07:44","08:49","09:54","10:59","12:04","13:09","15:38","16:38","17:38","18:38","19:38","20:38"]},{"id":"745","name":"Concordia Adamo","lat":37.49402295,"lon":15.07677851,"times":["06:56","07:45","08:50","09:55","11:00","12:05","13:10","15:39","16:39","17:39","18:39","19:39","20:39"]},{"id":"746","name":"Concordia Poulet","lat":37.49437621,"lon":15.07406384,"times":["06:56","07:46","08:51","09:56","11:01","12:06","13:11","15:39","16:39","17:39","18:39","19:39","20:39"]},{"id":"128","name":"Acquicella Regione","lat":37.49304268,"lon":15.07328197,"times":["06:56","07:46","08:51","09:56","11:01","12:06","13:11","15:40","16:40","17:40","18:40","19:40","20:40"]},{"id":"129","name":"Acquicella Ovest","lat":37.49084355,"lon":15.07294046,"times":["06:57","07:47","08:52","09:57","11:02","12:07","13:12","15:40","16:40","17:40","18:40","19:40","20:40"]},{"id":"130","name":"Acquicella Zia Lisa Ovest","lat":37.48946476,"lon":15.07244139,"times":["06:57","07:48","08:53","09:58","11:03","12:08","13:13","15:41","16:41","17:41","18:41","19:41","20:41"]},{"id":"850","name":"Zia Lisa Ovest (1)","lat":37.48753618,"lon":15.07188526,"times":["06:57","07:48","08:53","09:58","11:03","12:08","13:13","15:41","16:41","17:41","18:41","19:41","20:41"]},{"id":"851","name":"Zia Lisa Ovest (2)","lat":37.48513929,"lon":15.07062742,"times":["06:58","07:49","08:54","09:59","11:04","12:09","13:14","15:42","16:42","17:42","18:42","19:42","20:42"]},{"id":"852","name":"Zia Lisa Ovest (3)","lat":37.48361738,"lon":15.06823936,"times":["06:58","07:50","08:55","10:00","11:05","12:10","13:15","15:43","16:43","17:43","18:43","19:43","20:43"]},{"id":"1171","name":"Nitta Bonaventura","lat":37.48324203,"lon":15.06241388,"times":["06:59","07:52","08:57","10:02","11:07","12:12","13:17","15:44","16:44","17:44","18:44","19:44","20:44"]},{"id":"1710","name":"Librino Bonaventura","lat":37.48268274,"lon":15.06010655,"times":["07:00","07:53","08:58","10:03","11:08","12:13","13:18","15:45","16:45","17:45","18:45","19:45","20:45"]},{"id":"809","name":"Librino Castagnola","lat":37.482155,"lon":15.05511751,"times":["07:01","07:54","08:59","10:04","11:09","12:14","13:19","15:46","16:46","17:46","18:46","19:46","20:46"]},{"id":"810","name":"Castagnola Librino Nord","lat":37.48248926,"lon":15.05347768,"times":["07:01","07:55","09:00","10:05","11:10","12:15","13:20","15:47","16:47","17:47","18:47","19:47","20:47"]},{"id":"1754","name":"Librino Asse attrezzato Librino","lat":37.48367877,"lon":15.05414588,"times":["07:01","07:55","09:00","10:05","11:10","12:15","13:20","15:47","16:47","17:47","18:47","19:47","20:47"]},{"id":"1673","name":"Librino Asse attrezzato Nitta","lat":37.48549882,"lon":15.05568553,"times":["07:02","07:56","09:01","10:06","11:11","12:16","13:21","15:48","16:48","17:48","18:48","19:48","20:48"]},{"id":"1711","name":"Librino Nitta (1)","lat":37.48507441,"lon":15.0572801,"times":["07:02","07:56","09:01","10:06","11:11","12:16","13:21","15:48","16:48","17:48","18:48","19:48","20:48"]},{"id":"1712","name":"Librino Nitta (2)","lat":37.48339461,"lon":15.06058063,"times":["07:03","07:57","09:02","10:07","11:12","12:17","13:22","15:49","16:49","17:49","18:49","19:49","20:49"]},{"id":"1172","name":"Bonaventura Nitta","lat":37.48307971,"lon":15.06254947,"times":["07:03","07:58","09:03","10:08","11:13","12:18","13:23","15:50","16:50","17:50","18:50","19:50","20:50"]},{"id":"854","name":"Gelso Bianco Bonaventura Nord","lat":37.48159119,"lon":15.06488955,"times":["07:04","07:59","09:04","10:09","11:14","12:19","13:24","15:51","16:51","17:51","18:51","19:51","20:51"]},{"id":"855","name":"Gelso Bianco Segusio Nord","lat":37.48027631,"lon":15.06281859,"times":["07:04","08:00","09:05","10:10","11:15","12:20","13:25","15:51","16:51","17:51","18:51","19:51","20:51"]},{"id":"856","name":"Gelso Bianco Nord","lat":37.47788064,"lon":15.05898244,"times":["07:05","08:01","09:06","10:11","11:16","12:21","13:26","15:52","16:52","17:52","18:52","19:52","20:52"]},{"id":"857","name":"Gelso Bianco Sisinna","lat":37.47703427,"lon":15.05711562,"times":["07:05","08:02","09:07","10:12","11:17","12:22","13:27","15:53","16:53","17:53","18:53","19:53","20:53"]},{"id":"858","name":"Gelso Bianco Vigo Nord","lat":37.47630493,"lon":15.05550906,"times":["07:05","08:02","09:07","10:12","11:17","12:22","13:27","15:53","16:53","17:53","18:53","19:53","20:53"]},{"id":"Mob523","name":"Gelso Bianco Tarocco","lat":37.47437461,"lon":15.05096347,"times":["07:06","08:03","09:08","10:13","11:18","12:23","13:28","15:54","16:54","17:54","18:54","19:54","20:54"]},{"id":"1776","name":"Centro commerciale (1)","lat":37.46966155,"lon":15.04886625,"times":["07:08","08:08","09:13","10:18","11:23","12:28","13:33","15:58","16:58","17:58","18:58","19:58","20:58"]},{"id":"1777","name":"Centro commerciale (2)","lat":37.47346972,"lon":15.0513575,"times":["07:10","08:10","09:15","10:20","11:25","12:30","13:35","16:00","17:00","18:00","19:00","20:00","21:00"]}]},"1":{"feriale":[{"id":"1777","name":"Centro commerciale (2)","lat":37.47346972,"lon":15.0513575,"times":["05:30","06:00","06:30","07:10","07:45","08:25","09:00","09:40","10:15","10:55","11:30","12:10","12:45","13:25","14:00","14:35","15:10","15:40","16:10","16:45","17:15","17:50","18:20","18:55","19:25","20:00","20:30","21:05","21:30","22:05","22:30","23:05","00:05"]},{"id":"1781","name":"Gelso Bianco Agrumi","lat":37.47414822,"lon":15.05098368,"times":["05:32","06:02","06:32","07:12","07:47","08:27","09:02","09:42","10:17","10:57","11:32","12:12","12:47","13:27","14:02","14:37","15:11","15:42","16:12","16:47","17:17","17:52","18:22","18:57","19:27","20:02","20:32","21:06","21:31","21:32","22:06","22:31","23:06","00:06"]},{"id":"816","name":"Gelso Bianco Vigo Sud","lat":37.4761968,"lon":15.05544112,"times":["05:33","06:03","06:34","07:14","07:49","08:29","09:04","09:44","10:19","10:59","11:34","12:14","12:49","13:28","14:03","14:38","15:13","15:43","16:13","16:48","17:18","17:53","18:23","18:58","19:28","20:03","20:33","21:08","21:33","22:08","22:33","23:08","00:07"]},{"id":"817","name":"Gelso Bianco Sud","lat":37.47809667,"lon":15.05959336,"times":["05:34","06:04","06:35","07:15","07:50","08:30","09:05","09:45","10:20","11:00","11:35","12:15","12:50","13:29","14:04","14:39","15:14","15:44","16:14","16:49","17:19","17:54","18:24","18:59","19:29","20:04","20:34","21:09","21:34","22:09","22:34","23:09","00:08"]},{"id":"818","name":"Gelso Bianco Segusio Sud","lat":37.48027623,"lon":15.06297693,"times":["05:36","06:06","06:37","07:17","07:52","08:32","09:07","09:47","10:22","11:02","11:37","12:17","12:52","13:31","14:06","14:41","15:15","15:46","16:16","16:51","17:21","17:56","18:26","19:01","19:31","20:06","20:36","21:10","21:35","21:36","22:10","22:35","23:10","00:09"]},{"id":"819","name":"Gelso Bianco Bonaventura Sud ","lat":37.48164513,"lon":15.06514974,"times":["05:37","06:07","06:38","07:18","07:53","08:33","09:08","09:48","10:23","11:03","11:38","12:18","12:53","13:32","14:07","14:42","15:15","15:47","16:17","16:52","17:22","17:57","18:27","19:02","19:32","20:07","20:37","21:10","21:35","21:37","22:10","22:35","23:10","00:09"]},{"id":"821","name":"Zia Lisa Est (1)","lat":37.48368024,"lon":15.06865793,"times":["05:38","06:08","06:39","07:19","07:54","08:34","09:09","09:49","10:24","11:04","11:39","12:19","12:54","13:33","14:08","14:43","15:16","15:48","16:18","16:53","17:23","17:58","18:28","19:03","19:33","20:08","20:38","21:11","21:36","21:38","22:11","22:36","23:11","00:10"]},{"id":"822","name":"Zia Lisa Dogali","lat":37.48531036,"lon":15.0709556,"times":["05:39","06:09","06:40","07:20","07:55","08:35","09:10","09:50","10:25","11:05","11:40","12:20","12:55","13:34","14:09","14:44","15:17","15:49","16:19","16:54","17:24","17:59","18:29","19:04","19:34","20:09","20:39","21:12","21:37","21:39","22:12","22:37","23:12","00:11"]},{"id":"823","name":"Zia Lisa Est (2)","lat":37.48778848,"lon":15.07200993,"times":["05:40","06:10","06:41","07:21","07:56","08:36","09:11","09:51","10:26","11:06","11:41","12:21","12:56","13:35","14:10","14:45","15:18","15:50","16:20","16:55","17:25","18:00","18:30","19:05","19:35","20:10","20:40","21:13","21:38","21:40","22:13","22:38","23:13","00:11"]},{"id":"66","name":"Acquicella Zia Lisa Est","lat":37.48923018,"lon":15.07281446,"times":["05:40","06:10","06:42","07:22","07:57","08:37","09:12","09:52","10:27","11:07","11:42","12:22","12:57","13:35","14:10","14:45","15:18","15:50","16:20","16:55","17:25","18:00","18:30","19:05","19:35","20:10","20:40","21:13","21:38","21:40","22:13","22:38","23:13","00:12"]},{"id":"67","name":"Acquicella Est","lat":37.49090646,"lon":15.07323463,"times":["05:41","06:11","06:43","07:23","07:58","08:38","09:13","09:53","10:28","11:08","11:43","12:23","12:58","13:36","14:11","14:46","15:19","15:51","16:21","16:56","17:26","18:01","18:31","19:06","19:36","20:11","20:41","21:14","21:39","21:41","22:14","22:39","23:14","00:12"]},{"id":"68","name":"Acquicella Antonini","lat":37.4932858,"lon":15.07367814,"times":["05:42","06:12","06:44","07:24","07:59","08:39","09:14","09:54","10:29","11:09","11:44","12:24","12:59","13:37","14:12","14:47","15:20","15:52","16:22","16:57","17:27","18:02","18:32","19:07","19:37","20:12","20:42","21:15","21:40","21:42","22:15","22:40","23:15","00:13"]},{"id":"824","name":"Concordia Acquicella","lat":37.494295,"lon":15.07421083,"times":["05:43","06:13","06:45","07:25","08:00","08:40","09:15","09:55","10:30","11:10","11:45","12:25","13:00","13:38","14:13","14:48","15:20","15:53","16:23","16:58","17:28","18:03","18:33","19:08","19:38","20:13","20:43","21:15","21:40","21:43","22:15","22:40","23:15","00:13"]},{"id":"825","name":"Concordia Ferrera","lat":37.49394165,"lon":15.07703862,"times":["05:43","06:13","06:46","07:26","08:01","08:41","09:16","09:56","10:31","11:11","11:46","12:26","13:01","13:38","14:13","14:48","15:21","15:53","16:23","16:58","17:28","18:03","18:33","19:08","19:38","20:13","20:43","21:16","21:41","21:43","22:16","22:41","23:16","00:14"]},{"id":"826","name":"Concordia De Lorenzo Sud","lat":37.49366952,"lon":15.07964022,"times":["05:44","06:14","06:47","07:27","08:02","08:42","09:17","09:57","10:32","11:12","11:47","12:27","13:02","13:39","14:14","14:49","15:22","15:54","16:24","16:59","17:29","18:04","18:34","19:09","19:39","20:14","20:44","21:17","21:42","21:44","22:17","22:42","23:17","00:14"]},{"id":"827","name":"Concordia Vento Sud","lat":37.49333408,"lon":15.08245667,"times":["05:45","06:15","06:48","07:28","08:03","08:43","09:18","09:58","10:33","11:13","11:48","12:28","13:03","13:40","14:15","14:50","15:22","15:55","16:25","17:00","17:30","18:05","18:35","19:10","19:40","20:15","20:45","21:17","21:42","21:45","22:17","22:42","23:17","00:15"]},{"id":"828","name":"Concordia Levante","lat":37.4930985,"lon":15.08418722,"times":["05:45","06:15","06:48","07:28","08:03","08:43","09:18","09:58","10:33","11:13","11:48","12:28","13:03","13:40","14:15","14:50","15:23","15:55","16:25","17:00","17:30","18:05","18:35","19:10","19:40","20:15","20:45","21:18","21:43","21:45","22:18","22:43","23:18","00:15"]},{"id":"829","name":"Plaia Barcellona","lat":37.49211559,"lon":15.08477435,"times":["05:46","06:16","06:49","07:29","08:04","08:44","09:19","09:59","10:34","11:14","11:49","12:29","13:04","13:41","14:16","14:51","15:23","15:56","16:26","17:01","17:31","18:06","18:36","19:11","19:41","20:16","20:46","21:18","21:43","21:46","22:18","22:43","23:18","00:16"]},{"id":"830","name":"Plaia Acquicella Porto","lat":37.48906389,"lon":15.08426056,"times":["05:47","06:17","06:50","07:30","08:05","08:45","09:20","10:00","10:35","11:15","11:50","12:30","13:05","13:42","14:17","14:52","15:24","15:57","16:27","17:02","17:32","18:07","18:37","19:12","19:42","20:17","20:47","21:19","21:44","21:47","22:19","22:44","23:19","00:16"]},{"id":"40","name":"Tempio Faro Biscari Est","lat":37.48982446,"lon":15.08705678,"times":["05:50","06:20","06:53","07:33","08:08","08:48","09:23","10:03","10:38","11:18","11:53","12:33","13:08","13:45","14:20","14:55","15:26","16:00","16:30","17:05","17:35","18:10","18:40","19:15","19:45","20:20","20:50","21:21","21:46","21:50","22:21","22:46","23:21","00:18"]},{"id":"41","name":"Tempio Assunta Est","lat":37.4929555,"lon":15.08991651,"times":["05:51","06:21","06:55","07:35","08:10","08:50","09:25","10:05","10:40","11:20","11:55","12:35","13:10","13:46","14:21","14:56","15:28","16:01","16:31","17:06","17:36","18:11","18:41","19:16","19:46","20:21","20:51","21:23","21:48","21:51","22:23","22:48","23:23","00:19"]},{"id":"42","name":"Tempio Principe Est","lat":37.49431848,"lon":15.09016208,"times":["05:52","06:22","06:55","07:35","08:10","08:50","09:25","10:05","10:40","11:20","11:55","12:35","13:10","13:47","14:22","14:57","15:28","16:02","16:32","17:07","17:37","18:12","18:42","19:17","19:47","20:22","20:52","21:23","21:48","21:52","22:23","22:48","23:23","00:19"]},{"id":"43","name":"Tempio Stella Polare Est","lat":37.49558162,"lon":15.09049125,"times":["05:52","06:22","06:56","07:36","08:11","08:51","09:26","10:06","10:41","11:21","11:56","12:36","13:11","13:47","14:22","14:57","15:28","16:02","16:32","17:07","17:37","18:12","18:42","19:17","19:47","20:22","20:52","21:23","21:48","21:52","22:23","22:48","23:23","00:20"]},{"id":"44","name":"Colombo Santa Lucia","lat":37.49790753,"lon":15.08998496,"times":["05:53","06:23","06:57","07:37","08:12","08:52","09:27","10:07","10:42","11:22","11:57","12:37","13:12","13:48","14:23","14:58","15:29","16:03","16:33","17:08","17:38","18:13","18:43","19:18","19:48","20:23","20:53","21:24","21:49","21:53","22:24","22:49","23:24","00:20"]},{"id":"1780","name":"Borsellino","lat":37.50189836,"lon":15.08935613,"times":["05:55","06:25","06:59","07:39","08:14","08:54","09:29","10:09","10:44","11:24","11:59","12:39","13:14","13:50","14:25","15:00","15:30","16:05","16:35","17:10","17:40","18:15","18:45","19:20","19:50","20:25","20:55","21:25","21:50","21:55","22:25","22:50","23:25","00:21"]},{"id":"1842","name":"Dusmet Borsellino ","lat":37.50127882,"lon":15.09103845,"times":["05:56","06:26","07:00","07:40","08:15","08:55","09:30","10:10","10:45","11:25","12:00","12:40","13:15","13:51","14:26","15:01","15:31","16:06","16:36","17:11","17:41","18:16","18:46","19:21","19:51","20:26","20:56","21:26","21:51","21:56","22:26","22:51","23:26","00:22"]},{"id":"448","name":"Dusmet Porto","lat":37.50124,"lon":15.09331518,"times":["05:56","06:26","07:01","07:41","08:16","08:56","09:31","10:11","10:46","11:26","12:01","12:41","13:16","13:51","14:26","15:01","15:32","16:06","16:36","17:11","17:41","18:16","18:46","19:21","19:51","20:26","20:56","21:27","21:52","21:56","22:27","22:52","23:27","00:22"]},{"id":"1847","name":"Martiri Dusmet","lat":37.5027907,"lon":15.09583172,"times":["05:57","06:27","07:02","07:42","08:17","08:57","09:32","10:12","10:47","11:27","12:02","12:42","13:17","13:52","14:27","15:02","15:33","16:07","16:37","17:12","17:42","18:17","18:47","19:22","19:52","20:27","20:57","21:28","21:53","21:57","22:28","22:53","23:28","00:23"]},{"id":"1848","name":"VI Aprile Passiatore","lat":37.50479433,"lon":15.09701661,"times":["05:58","06:28","07:03","07:43","08:18","08:58","09:33","10:13","10:48","11:28","12:03","12:43","13:18","13:53","14:28","15:03","15:33","16:08","16:38","17:13","17:43","18:18","18:48","19:23","19:53","20:28","20:58","21:28","21:53","21:58","22:28","22:53","23:28","00:24"]},{"id":"6","name":"Terminal Stazione Centrale","lat":37.50740718,"lon":15.09911409,"times":["06:00","06:30","07:05","07:45","08:20","09:00","09:35","10:15","10:50","11:30","12:05","12:45","13:20","13:55","14:30","15:05","15:35","16:10","16:40","17:15","17:45","18:20","18:50","19:25","19:55","20:30","21:00","21:30","21:55","22:00","22:30","22:55","23:30","00:25"]}],"sabato":[{"id":"1777","name":"Centro commerciale (2)","lat":37.47346972,"lon":15.0513575,"times":["05:30","06:00","06:30","07:10","07:45","08:25","09:00","09:40","10:15","10:55","11:30","12:10","12:45","13:25","14:00","14:35","15:10","15:40","16:10","16:45","17:15","17:50","18:20","18:55","19:25","20:00","20:30","21:05","21:30","22:05","22:30","23:05","00:05"]},{"id":"1781","name":"Gelso Bianco Agrumi","lat":37.47414822,"lon":15.05098368,"times":["05:32","06:02","06:32","07:12","07:47","08:27","09:02","09:42","10:17","10:57","11:32","12:12","12:47","13:27","14:02","14:37","15:11","15:42","16:12","16:47","17:17","17:52","18:22","18:57","19:27","20:02","20:32","21:06","21:31","21:32","22:06","22:31","23:06","00:06"]},{"id":"816","name":"Gelso Bianco Vigo Sud","lat":37.4761968,"lon":15.05544112,"times":["05:33","06:03","06:34","07:14","07:49","08:29","09:04","09:44","10:19","10:59","11:34","12:14","12:49","13:28","14:03","14:38","15:13","15:43","16:13","16:48","17:18","17:53","18:23","18:58","19:28","20:03","20:33","21:08","21:33","22:08","22:33","23:08","00:07"]},{"id":"817","name":"Gelso Bianco Sud","lat":37.47809667,"lon":15.05959336,"times":["05:34","06:04","06:35","07:15","07:50","08:30","09:05","09:45","10:20","11:00","11:35","12:15","12:50","13:29","14:04","14:39","15:14","15:44","16:14","16:49","17:19","17:54","18:24","18:59","19:29","20:04","20:34","21:09","21:34","22:09","22:34","23:09","00:08"]},{"id":"818","name":"Gelso Bianco Segusio Sud","lat":37.48027623,"lon":15.06297693,"times":["05:36","06:06","06:37","07:17","07:52","08:32","09:07","09:47","10:22","11:02","11:37","12:17","12:52","13:31","14:06","14:41","15:15","15:46","16:16","16:51","17:21","17:56","18:26","19:01","19:31","20:06","20:36","21:10","21:35","21:36","22:10","22:35","23:10","00:09"]},{"id":"819","name":"Gelso Bianco Bonaventura Sud ","lat":37.48164513,"lon":15.06514974,"times":["05:37","06:07","06:38","07:18","07:53","08:33","09:08","09:48","10:23","11:03","11:38","12:18","12:53","13:32","14:07","14:42","15:15","15:47","16:17","16:52","17:22","17:57","18:27","19:02","19:32","20:07","20:37","21:10","21:35","21:37","22:10","22:35","23:10","00:09"]},{"id":"821","name":"Zia Lisa Est (1)","lat":37.48368024,"lon":15.06865793,"times":["05:38","06:08","06:39","07:19","07:54","08:34","09:09","09:49","10:24","11:04","11:39","12:19","12:54","13:33","14:08","14:43","15:16","15:48","16:18","16:53","17:23","17:58","18:28","19:03","19:33","20:08","20:38","21:11","21:36","21:38","22:11","22:36","23:11","00:10"]},{"id":"822","name":"Zia Lisa Dogali","lat":37.48531036,"lon":15.0709556,"times":["05:39","06:09","06:40","07:20","07:55","08:35","09:10","09:50","10:25","11:05","11:40","12:20","12:55","13:34","14:09","14:44","15:17","15:49","16:19","16:54","17:24","17:59","18:29","19:04","19:34","20:09","20:39","21:12","21:37","21:39","22:12","22:37","23:12","00:11"]},{"id":"823","name":"Zia Lisa Est (2)","lat":37.48778848,"lon":15.07200993,"times":["05:40","06:10","06:41","07:21","07:56","08:36","09:11","09:51","10:26","11:06","11:41","12:21","12:56","13:35","14:10","14:45","15:18","15:50","16:20","16:55","17:25","18:00","18:30","19:05","19:35","20:10","20:40","21:13","21:38","21:40","22:13","22:38","23:13","00:11"]},{"id":"66","name":"Acquicella Zia Lisa Est","lat":37.48923018,"lon":15.07281446,"times":["05:40","06:10","06:42","07:22","07:57","08:37","09:12","09:52","10:27","11:07","11:42","12:22","12:57","13:35","14:10","14:45","15:18","15:50","16:20","16:55","17:25","18:00","18:30","19:05","19:35","20:10","20:40","21:13","21:38","21:40","22:13","22:38","23:13","00:12"]},{"id":"67","name":"Acquicella Est","lat":37.49090646,"lon":15.07323463,"times":["05:41","06:11","06:43","07:23","07:58","08:38","09:13","09:53","10:28","11:08","11:43","12:23","12:58","13:36","14:11","14:46","15:19","15:51","16:21","16:56","17:26","18:01","18:31","19:06","19:36","20:11","20:41","21:14","21:39","21:41","22:14","22:39","23:14","00:12"]},{"id":"68","name":"Acquicella Antonini","lat":37.4932858,"lon":15.07367814,"times":["05:42","06:12","06:44","07:24","07:59","08:39","09:14","09:54","10:29","11:09","11:44","12:24","12:59","13:37","14:12","14:47","15:20","15:52","16:22","16:57","17:27","18:02","18:32","19:07","19:37","20:12","20:42","21:15","21:40","21:42","22:15","22:40","23:15","00:13"]},{"id":"824","name":"Concordia Acquicella","lat":37.494295,"lon":15.07421083,"times":["05:43","06:13","06:45","07:25","08:00","08:40","09:15","09:55","10:30","11:10","11:45","12:25","13:00","13:38","14:13","14:48","15:20","15:53","16:23","16:58","17:28","18:03","18:33","19:08","19:38","20:13","20:43","21:15","21:40","21:43","22:15","22:40","23:15","00:13"]},{"id":"825","name":"Concordia Ferrera","lat":37.49394165,"lon":15.07703862,"times":["05:43","06:13","06:46","07:26","08:01","08:41","09:16","09:56","10:31","11:11","11:46","12:26","13:01","13:38","14:13","14:48","15:21","15:53","16:23","16:58","17:28","18:03","18:33","19:08","19:38","20:13","20:43","21:16","21:41","21:43","22:16","22:41","23:16","00:14"]},{"id":"826","name":"Concordia De Lorenzo Sud","lat":37.49366952,"lon":15.07964022,"times":["05:44","06:14","06:47","07:27","08:02","08:42","09:17","09:57","10:32","11:12","11:47","12:27","13:02","13:39","14:14","14:49","15:22","15:54","16:24","16:59","17:29","18:04","18:34","19:09","19:39","20:14","20:44","21:17","21:42","21:44","22:17","22:42","23:17","00:14"]},{"id":"827","name":"Concordia Vento Sud","lat":37.49333408,"lon":15.08245667,"times":["05:45","06:15","06:48","07:28","08:03","08:43","09:18","09:58","10:33","11:13","11:48","12:28","13:03","13:40","14:15","14:50","15:22","15:55","16:25","17:00","17:30","18:05","18:35","19:10","19:40","20:15","20:45","21:17","21:42","21:45","22:17","22:42","23:17","00:15"]},{"id":"828","name":"Concordia Levante","lat":37.4930985,"lon":15.08418722,"times":["05:45","06:15","06:48","07:28","08:03","08:43","09:18","09:58","10:33","11:13","11:48","12:28","13:03","13:40","14:15","14:50","15:23","15:55","16:25","17:00","17:30","18:05","18:35","19:10","19:40","20:15","20:45","21:18","21:43","21:45","22:18","22:43","23:18","00:15"]},{"id":"829","name":"Plaia Barcellona","lat":37.49211559,"lon":15.08477435,"times":["05:46","06:16","06:49","07:29","08:04","08:44","09:19","09:59","10:34","11:14","11:49","12:29","13:04","13:41","14:16","14:51","15:23","15:56","16:26","17:01","17:31","18:06","18:36","19:11","19:41","20:16","20:46","21:18","21:43","21:46","22:18","22:43","23:18","00:16"]},{"id":"830","name":"Plaia Acquicella Porto","lat":37.48906389,"lon":15.08426056,"times":["05:47","06:17","06:50","07:30","08:05","08:45","09:20","10:00","10:35","11:15","11:50","12:30","13:05","13:42","14:17","14:52","15:24","15:57","16:27","17:02","17:32","18:07","18:37","19:12","19:42","20:17","20:47","21:19","21:44","21:47","22:19","22:44","23:19","00:16"]},{"id":"40","name":"Tempio Faro Biscari Est","lat":37.48982446,"lon":15.08705678,"times":["05:50","06:20","06:53","07:33","08:08","08:48","09:23","10:03","10:38","11:18","11:53","12:33","13:08","13:45","14:20","14:55","15:26","16:00","16:30","17:05","17:35","18:10","18:40","19:15","19:45","20:20","20:50","21:21","21:46","21:50","22:21","22:46","23:21","00:18"]},{"id":"41","name":"Tempio Assunta Est","lat":37.4929555,"lon":15.08991651,"times":["05:51","06:21","06:55","07:35","08:10","08:50","09:25","10:05","10:40","11:20","11:55","12:35","13:10","13:46","14:21","14:56","15:28","16:01","16:31","17:06","17:36","18:11","18:41","19:16","19:46","20:21","20:51","21:23","21:48","21:51","22:23","22:48","23:23","00:19"]},{"id":"42","name":"Tempio Principe Est","lat":37.49431848,"lon":15.09016208,"times":["05:52","06:22","06:55","07:35","08:10","08:50","09:25","10:05","10:40","11:20","11:55","12:35","13:10","13:47","14:22","14:57","15:28","16:02","16:32","17:07","17:37","18:12","18:42","19:17","19:47","20:22","20:52","21:23","21:48","21:52","22:23","22:48","23:23","00:19"]},{"id":"43","name":"Tempio Stella Polare Est","lat":37.49558162,"lon":15.09049125,"times":["05:52","06:22","06:56","07:36","08:11","08:51","09:26","10:06","10:41","11:21","11:56","12:36","13:11","13:47","14:22","14:57","15:28","16:02","16:32","17:07","17:37","18:12","18:42","19:17","19:47","20:22","20:52","21:23","21:48","21:52","22:23","22:48","23:23","00:20"]},{"id":"44","name":"Colombo Santa Lucia","lat":37.49790753,"lon":15.08998496,"times":["05:53","06:23","06:57","07:37","08:12","08:52","09:27","10:07","10:42","11:22","11:57","12:37","13:12","13:48","14:23","14:58","15:29","16:03","16:33","17:08","17:38","18:13","18:43","19:18","19:48","20:23","20:53","21:24","21:49","21:53","22:24","22:49","23:24","00:20"]},{"id":"1780","name":"Borsellino","lat":37.50189836,"lon":15.08935613,"times":["05:55","06:25","06:59","07:39","08:14","08:54","09:29","10:09","10:44","11:24","11:59","12:39","13:14","13:50","14:25","15:00","15:30","16:05","16:35","17:10","17:40","18:15","18:45","19:20","19:50","20:25","20:55","21:25","21:50","21:55","22:25","22:50","23:25","00:21"]},{"id":"1842","name":"Dusmet Borsellino ","lat":37.50127882,"lon":15.09103845,"times":["05:56","06:26","07:00","07:40","08:15","08:55","09:30","10:10","10:45","11:25","12:00","12:40","13:15","13:51","14:26","15:01","15:31","16:06","16:36","17:11","17:41","18:16","18:46","19:21","19:51","20:26","20:56","21:26","21:51","21:56","22:26","22:51","23:26","00:22"]},{"id":"448","name":"Dusmet Porto","lat":37.50124,"lon":15.09331518,"times":["05:56","06:26","07:01","07:41","08:16","08:56","09:31","10:11","10:46","11:26","12:01","12:41","13:16","13:51","14:26","15:01","15:32","16:06","16:36","17:11","17:41","18:16","18:46","19:21","19:51","20:26","20:56","21:27","21:52","21:56","22:27","22:52","23:27","00:22"]},{"id":"1847","name":"Martiri Dusmet","lat":37.5027907,"lon":15.09583172,"times":["05:57","06:27","07:02","07:42","08:17","08:57","09:32","10:12","10:47","11:27","12:02","12:42","13:17","13:52","14:27","15:02","15:33","16:07","16:37","17:12","17:42","18:17","18:47","19:22","19:52","20:27","20:57","21:28","21:53","21:57","22:28","22:53","23:28","00:23"]},{"id":"1848","name":"VI Aprile Passiatore","lat":37.50479433,"lon":15.09701661,"times":["05:58","06:28","07:03","07:43","08:18","08:58","09:33","10:13","10:48","11:28","12:03","12:43","13:18","13:53","14:28","15:03","15:33","16:08","16:38","17:13","17:43","18:18","18:48","19:23","19:53","20:28","20:58","21:28","21:53","21:58","22:28","22:53","23:28","00:24"]},{"id":"6","name":"Terminal Stazione Centrale","lat":37.50740718,"lon":15.09911409,"times":["06:00","06:30","07:05","07:45","08:20","09:00","09:35","10:15","10:50","11:30","12:05","12:45","13:20","13:55","14:30","15:05","15:35","16:10","16:40","17:15","17:45","18:20","18:50","19:25","19:55","20:30","21:00","21:30","21:55","22:00","22:30","22:55","23:30","00:25"]}],"domenica":[{"id":"1777","name":"Centro commerciale (2)","lat":37.47346972,"lon":15.0513575,"times":["07:10","08:10","09:15","10:20","11:25","12:30","13:35","16:00","17:00","18:00","19:00","20:00","21:00"]},{"id":"1781","name":"Gelso Bianco Agrumi","lat":37.47414822,"lon":15.05098368,"times":["07:11","08:12","09:17","10:22","11:27","12:32","13:36","16:02","17:02","18:02","19:02","20:02","21:01"]},{"id":"816","name":"Gelso Bianco Vigo Sud","lat":37.4761968,"lon":15.05544112,"times":["07:13","08:13","09:18","10:23","11:28","12:33","13:37","16:03","17:03","18:03","19:03","20:03","21:02"]},{"id":"817","name":"Gelso Bianco Sud","lat":37.47809667,"lon":15.05959336,"times":["07:14","08:14","09:19","10:24","11:29","12:34","13:38","16:04","17:04","18:04","19:04","20:04","21:03"]},{"id":"818","name":"Gelso Bianco Segusio Sud","lat":37.48027623,"lon":15.06297693,"times":["07:15","08:16","09:21","10:26","11:31","12:36","13:39","16:06","17:06","18:06","19:06","20:06","21:04"]},{"id":"819","name":"Gelso Bianco Bonaventura Sud ","lat":37.48164513,"lon":15.06514974,"times":["07:15","08:17","09:22","10:27","11:32","12:37","13:39","16:07","17:07","18:07","19:07","20:07","21:04"]},{"id":"821","name":"Zia Lisa Est (1)","lat":37.48368024,"lon":15.06865793,"times":["07:16","08:18","09:23","10:28","11:33","12:38","13:40","16:08","17:08","18:08","19:08","20:08","21:05"]},{"id":"822","name":"Zia Lisa Dogali","lat":37.48531036,"lon":15.0709556,"times":["07:17","08:19","09:24","10:29","11:34","12:39","13:41","16:09","17:09","18:09","19:09","20:09","21:06"]},{"id":"823","name":"Zia Lisa Est (2)","lat":37.48778848,"lon":15.07200993,"times":["07:18","08:20","09:25","10:30","11:35","12:40","13:41","16:10","17:10","18:10","19:10","20:10","21:06"]},{"id":"66","name":"Acquicella Zia Lisa Est","lat":37.48923018,"lon":15.07281446,"times":["07:18","08:20","09:25","10:30","11:35","12:40","13:42","16:10","17:10","18:10","19:10","20:10","21:07"]},{"id":"67","name":"Acquicella Est","lat":37.49090646,"lon":15.07323463,"times":["07:19","08:21","09:26","10:31","11:36","12:41","13:42","16:11","17:11","18:11","19:11","20:11","21:07"]},{"id":"68","name":"Acquicella Antonini","lat":37.4932858,"lon":15.07367814,"times":["07:20","08:22","09:27","10:32","11:37","12:42","13:43","16:12","17:12","18:12","19:12","20:12","21:08"]},{"id":"824","name":"Concordia Acquicella","lat":37.494295,"lon":15.07421083,"times":["07:20","08:23","09:28","10:33","11:38","12:43","13:43","16:13","17:13","18:13","19:13","20:13","21:08"]},{"id":"825","name":"Concordia Ferrera","lat":37.49394165,"lon":15.07703862,"times":["07:21","08:23","09:28","10:33","11:38","12:43","13:44","16:13","17:13","18:13","19:13","20:13","21:09"]},{"id":"826","name":"Concordia De Lorenzo Sud","lat":37.49366952,"lon":15.07964022,"times":["07:22","08:24","09:29","10:34","11:39","12:44","13:44","16:14","17:14","18:14","19:14","20:14","21:09"]},{"id":"827","name":"Concordia Vento Sud","lat":37.49333408,"lon":15.08245667,"times":["07:22","08:25","09:30","10:35","11:40","12:45","13:45","16:15","17:15","18:15","19:15","20:15","21:10"]},{"id":"828","name":"Concordia Levante","lat":37.4930985,"lon":15.08418722,"times":["07:23","08:25","09:30","10:35","11:40","12:45","13:45","16:15","17:15","18:15","19:15","20:15","21:10"]},{"id":"829","name":"Plaia Barcellona","lat":37.49211559,"lon":15.08477435,"times":["07:23","08:26","09:31","10:36","11:41","12:46","13:46","16:16","17:16","18:16","19:16","20:16","21:11"]},{"id":"830","name":"Plaia Acquicella Porto","lat":37.48906389,"lon":15.08426056,"times":["07:24","08:27","09:32","10:37","11:42","12:47","13:46","16:17","17:17","18:17","19:17","20:17","21:11"]},{"id":"40","name":"Tempio Faro Biscari Est","lat":37.48982446,"lon":15.08705678,"times":["07:26","08:30","09:35","10:40","11:45","12:50","13:48","16:20","17:20","18:20","19:20","20:20","21:13"]},{"id":"41","name":"Tempio Assunta Est","lat":37.4929555,"lon":15.08991651,"times":["07:28","08:31","09:36","10:41","11:46","12:51","13:49","16:21","17:21","18:21","19:21","20:21","21:14"]},{"id":"42","name":"Tempio Principe Est","lat":37.49431848,"lon":15.09016208,"times":["07:28","08:32","09:37","10:42","11:47","12:52","13:49","16:22","17:22","18:22","19:22","20:22","21:14"]},{"id":"43","name":"Tempio Stella Polare Est","lat":37.49558162,"lon":15.09049125,"times":["07:28","08:32","09:37","10:42","11:47","12:52","13:50","16:22","17:22","18:22","19:22","20:22","21:15"]},{"id":"44","name":"Colombo Santa Lucia","lat":37.49790753,"lon":15.08998496,"times":["07:29","08:33","09:38","10:43","11:48","12:53","13:50","16:23","17:23","18:23","19:23","20:23","21:15"]},{"id":"1780","name":"Borsellino","lat":37.50189836,"lon":15.08935613,"times":["07:30","08:35","09:40","10:45","11:50","12:55","13:51","16:25","17:25","18:25","19:25","20:25","21:16"]},{"id":"1842","name":"Dusmet Borsellino ","lat":37.50127882,"lon":15.09103845,"times":["07:31","08:36","09:41","10:46","11:51","12:56","13:52","16:26","17:26","18:26","19:26","20:26","21:17"]},{"id":"448","name":"Dusmet Porto","lat":37.50124,"lon":15.09331518,"times":["07:32","08:36","09:41","10:46","11:51","12:56","13:52","16:26","17:26","18:26","19:26","20:26","21:17"]},{"id":"1847","name":"Martiri Dusmet","lat":37.5027907,"lon":15.09583172,"times":["07:33","08:37","09:42","10:47","11:52","12:57","13:53","16:27","17:27","18:27","19:27","20:27","21:18"]},{"id":"1848","name":"VI Aprile Passiatore","lat":37.50479433,"lon":15.09701661,"times":["07:33","08:38","09:43","10:48","11:53","12:58","13:54","16:28","17:28","18:28","19:28","20:28","21:19"]},{"id":"6","name":"Terminal Stazione Centrale","lat":37.50740718,"lon":15.09911409,"times":["07:35","08:40","09:45","10:50","11:55","13:00","13:55","16:30","17:30","18:30","19:30","20:30","21:20"]}]}}}