{"id":"434","directions":{"0":{"feriale":[{"id":"7","name":"Terminal Stazione Centrale","lat":37.50703343,"lon":15.09987697,"times":["06:00","06:30","07:25","08:30","09:20","09:35","10:40","10:50","13:00","14:05","15:10","16:15","17:00","17:20","18:25","19:10","19:30","20:35","21:20","21:40","22:40"]},{"id":"1","name":"Martiri Libertà Saitta","lat":37.50755595,"lon":15.09658165,"times":["06:01","06:31","07:26","08:31","09:21","09:36","10:42","10:51","13:01","14:06","15:11","16:16","17:01","17:21","18:26","19:11","19:31","20:36","21:21","21:41","22:41"]},{"id":"2","name":"Martiri Libertà Nord","lat":37.50747645,"lon":15.09457886,"times":["06:01","06:32","07:27","08:32","09:21","09:37","10:43","10:52","13:01","13:02","14:07","15:12","16:17","17:02","17:22","18:27","19:12","19:32","20:37","21:22","21:42","22:42"]},{"id":"3","name":"Repubblica","lat":37.50779428,"lon":15.09159219,"times":["06:02","06:33","07:29","08:34","09:22","09:39","10:44","10:53","13:02","13:04","14:09","15:14","16:19","17:04","17:24","18:29","19:14","19:34","20:39","21:24","21:43","22:43"]},{"id":"5","name":"Stesicoro Metro Nord","lat":37.50753611,"lon":15.08733758,"times":["06:03","06:35","07:30","08:35","09:24","09:40","10:46","10:55","13:03","13:05","14:10","15:15","16:20","17:05","17:25","18:30","19:15","19:35","20:40","21:25","21:45","22:45"]},{"id":"80","name":"Etnea Pacini","lat":37.50924981,"lon":15.08582338,"times":["06:04","06:36","07:32","08:37","09:25","09:42","10:48","10:56","13:04","13:07","14:12","15:17","16:22","17:07","17:27","18:32","19:17","19:37","20:42","21:27","21:46","22:46"]},{"id":"81","name":"Umberto Etnea","lat":37.51106111,"lon":15.08643647,"times":["06:05","06:38","07:33","08:38","09:26","09:43","10:50","10:58","13:05","13:08","14:13","15:18","16:23","17:08","17:28","18:33","19:18","19:38","20:43","21:28","21:48","22:48"]},{"id":"83","name":"Majorana","lat":37.51159942,"lon":15.08979772,"times":["06:06","06:39","07:35","08:40","09:27","09:45","10:51","10:59","13:06","13:10","14:15","15:20","16:25","17:10","17:30","18:35","19:20","19:40","20:45","21:30","21:49","22:49"]},{"id":"85","name":"Umberto Crispi","lat":37.51234384,"lon":15.09455106,"times":["06:07","06:41","07:37","08:42","09:28","09:47","10:54","11:01","13:07","13:12","14:17","15:22","16:27","17:12","17:32","18:37","19:22","19:42","20:47","21:32","21:51","22:51"]},{"id":"86","name":"Iolanda","lat":37.51277443,"lon":15.09709757,"times":["06:08","06:42","07:38","08:43","09:29","09:48","10:55","11:02","13:08","13:13","14:18","15:23","16:28","17:13","17:33","18:38","19:23","19:43","20:48","21:33","21:52","22:52"]},{"id":"87","name":"Libertà Sella","lat":37.51427931,"lon":15.09758609,"times":["06:08","06:43","07:39","08:44","09:29","09:49","10:56","11:03","13:08","13:14","14:19","15:24","16:29","17:14","17:34","18:39","19:24","19:44","20:49","21:34","21:53","22:53"]},{"id":"208","name":"Italia Pasubio Sud","lat":37.51585393,"lon":15.10086974,"times":["06:10","06:45","07:41","08:46","09:31","09:51","10:59","11:05","13:10","13:16","14:21","15:26","16:31","17:16","17:36","18:41","19:26","19:46","20:51","21:36","21:55","22:55"]},{"id":"209","name":"Italia Vecchia Ognina","lat":37.51623944,"lon":15.10328056,"times":["06:10","06:46","07:42","08:47","09:32","09:52","11:00","11:06","13:10","13:17","14:22","15:27","16:32","17:17","17:37","18:42","19:27","19:47","20:52","21:37","21:56","22:56"]},{"id":"210","name":"Italia Africa","lat":37.51653537,"lon":15.10500099,"times":["06:11","06:46","07:43","08:48","09:32","09:53","11:01","11:06","13:11","13:18","14:23","15:28","16:33","17:18","17:38","18:43","19:28","19:48","20:53","21:38","21:56","22:56"]},{"id":"211","name":"Sciascia Europa","lat":37.51781345,"lon":15.10707364,"times":["06:12","06:48","07:45","08:50","09:33","09:55","11:03","11:08","13:12","13:20","14:25","15:30","16:35","17:20","17:40","18:45","19:30","19:50","20:55","21:40","21:58","22:58"]},{"id":"214","name":"Tricolore","lat":37.52107988,"lon":15.11299693,"times":["06:14","06:51","07:48","08:53","09:36","09:58","11:07","11:11","13:14","13:23","14:28","15:33","16:38","17:23","17:43","18:48","19:33","19:53","20:58","21:43","22:01","23:01"]},{"id":"216","name":"Alagona Nettuno Est","lat":37.52415907,"lon":15.11656647,"times":["06:15","06:53","07:50","08:55","09:37","10:00","11:09","11:13","13:15","13:25","14:30","15:35","16:40","17:25","17:45","18:50","19:35","19:55","21:00","21:45","22:03","23:03"]},{"id":"217","name":"Alagona Anfuso Est","lat":37.52724222,"lon":15.11606197,"times":["06:17","06:55","07:52","08:57","09:39","10:02","11:11","11:15","13:17","13:27","14:32","15:37","16:42","17:27","17:47","18:52","19:37","19:57","21:02","21:47","22:05","23:05"]},{"id":"218","name":"Alagona Parrocchia Est","lat":37.529282,"lon":15.11328093,"times":["06:18","06:57","07:54","08:59","09:40","10:04","11:13","11:17","13:18","13:29","14:34","15:39","16:44","17:29","17:49","18:54","19:39","19:59","21:04","21:49","22:07","23:07"]},{"id":"219","name":"Mancini Battaglia  ","lat":37.53076137,"lon":15.11209476,"times":["06:18","06:58","07:55","09:00","09:41","10:05","11:15","11:18","13:18","13:30","14:35","15:40","16:45","17:30","17:50","18:55","19:40","20:00","21:05","21:50","22:08","23:08"]},{"id":"220","name":"Acicastello Nenni","lat":37.53313791,"lon":15.1152675,"times":["06:20","07:00","07:57","09:02","09:42","10:07","11:17","11:20","13:20","13:32","14:37","15:42","16:47","17:32","17:52","18:57","19:42","20:02","21:07","21:52","22:10","23:10"]},{"id":"221","name":"Acicastello Medea","lat":37.53360471,"lon":15.11720369,"times":["06:20","07:00","07:58","09:03","09:43","10:08","11:18","11:20","13:20","13:33","14:38","15:43","16:48","17:33","17:53","18:58","19:43","20:03","21:08","21:53","22:10","23:10"]},{"id":"222","name":"Acicastello Villini (1) ","lat":37.53444772,"lon":15.12142687,"times":["06:21","07:02","08:00","09:05","09:44","10:10","11:20","11:22","13:21","13:35","14:40","15:45","16:50","17:35","17:55","19:00","19:45","20:05","21:10","21:55","22:12","23:12"]},{"id":"223","name":"Acicastello Villini (2)","lat":37.53465336,"lon":15.12304578,"times":["06:22","07:03","08:01","09:06","09:45","10:11","11:21","11:23","13:22","13:36","14:41","15:46","16:51","17:36","17:56","19:01","19:46","20:06","21:11","21:56","22:13","23:13"]},{"id":"224","name":"Musco","lat":37.53499296,"lon":15.12580812,"times":["06:22","07:04","08:02","09:07","09:45","10:12","11:23","11:24","13:22","13:37","14:42","15:47","16:52","17:37","17:57","19:02","19:47","20:07","21:12","21:57","22:14","23:14"]},{"id":"225","name":"Musco Lentini Est","lat":37.53545995,"lon":15.12741618,"times":["06:23","07:05","08:03","09:08","09:46","10:13","11:23","11:25","13:23","13:38","14:43","15:48","16:53","17:38","17:58","19:03","19:48","20:08","21:13","21:58","22:15","23:15"]},{"id":"226","name":"Musco Sturzo Est","lat":37.53614279,"lon":15.12943211,"times":["06:23","07:05","08:03","09:08","09:46","10:13","11:24","11:25","13:23","13:38","14:43","15:48","16:53","17:38","17:58","19:03","19:48","20:08","21:13","21:58","22:15","23:15"]},{"id":"227","name":"Musco Lampedusa Est","lat":37.53710612,"lon":15.1304525,"times":["06:24","07:06","08:04","09:09","09:47","10:14","11:25","11:26","13:24","13:39","14:44","15:49","16:54","17:39","17:59","19:04","19:49","20:09","21:14","21:59","22:16","23:16"]},{"id":"228","name":"Musco Vittorini Est","lat":37.538034,"lon":15.13092952,"times":["06:24","07:07","08:05","09:10","09:47","10:15","11:26","11:27","13:24","13:40","14:45","15:50","16:55","17:40","18:00","19:05","19:50","20:10","21:15","22:00","22:17","23:17"]},{"id":"229","name":"Musco Est","lat":37.53977262,"lon":15.1318268,"times":["06:25","07:08","08:06","09:11","09:48","10:16","11:27","11:28","13:25","13:41","14:46","15:51","16:56","17:41","18:01","19:06","19:51","20:11","21:16","22:01","22:18","23:18"]},{"id":"1910","name":"Mollica Pitagora","lat":37.54403624,"lon":15.13142091,"times":["06:27","07:10","08:09","09:14","09:50","10:19","11:30","11:31","13:27","13:44","14:49","15:54","16:59","17:44","18:04","19:09","19:54","20:14","21:19","22:04","22:20","23:20"]},{"id":"230","name":"Antonello da Messina Mollica Est","lat":37.54095103,"lon":15.13393433,"times":["06:28","07:13","08:11","09:16","09:52","10:21","11:33","13:28","13:46","14:51","15:56","17:01","17:46","18:06","19:11","19:56","20:16","21:21","22:06","22:23","23:23"]},{"id":"231","name":"Antonello da Messina Est (1)","lat":37.541876,"lon":15.13692441,"times":["06:29","07:14","08:13","09:18","09:53","10:23","11:34","11:35","13:29","13:48","14:53","15:58","17:03","17:48","18:08","19:13","19:58","20:18","21:23","22:08","22:24","23:24"]},{"id":"232","name":"Antonello da Messina Est (2)","lat":37.54235189,"lon":15.13849875,"times":["06:30","07:15","08:13","09:18","09:53","10:23","11:35","11:36","13:30","13:48","14:53","15:58","17:03","17:48","18:08","19:13","19:58","20:18","21:23","22:08","22:25","23:25"]},{"id":"233","name":"Antonello da Messina Est (3)","lat":37.54293551,"lon":15.1404129,"times":["06:30","07:15","08:14","09:19","09:54","10:24","11:35","11:37","13:30","13:49","14:54","15:59","17:04","17:49","18:09","19:14","19:59","20:19","21:24","22:09","22:25","23:25"]},{"id":"234","name":"Pezzana Est (1)","lat":37.54408673,"lon":15.1425206,"times":["06:31","07:16","08:15","09:20","09:55","10:25","11:36","11:38","13:31","13:50","14:55","16:00","17:05","17:50","18:10","19:15","20:00","20:20","21:25","22:10","22:26","23:26"]},{"id":"235","name":"Pezzana Est (2)","lat":37.54586081,"lon":15.14383715,"times":["06:31","07:17","08:16","09:21","09:55","10:26","11:37","11:39","13:31","13:51","14:56","16:01","17:06","17:51","18:11","19:16","20:01","20:21","21:26","22:11","22:27","23:27"]},{"id":"236","name":"Pezzana Est (3)","lat":37.54725777,"lon":15.14395304,"times":["06:32","07:18","08:17","09:22","09:56","10:27","11:38","11:40","13:32","13:52","14:57","16:02","17:07","17:52","18:12","19:17","20:02","20:22","21:27","22:12","22:28","23:28"]},{"id":"237","name":"Pezzana Battisti","lat":37.55130073,"lon":15.1473119,"times":["06:34","07:21","08:20","09:25","09:58","10:30","11:41","11:43","13:34","13:55","15:00","16:05","17:10","17:55","18:15","19:20","20:05","20:25","21:30","22:15","22:31","23:31"]},{"id":"496","name":"Colombo Manganelli","lat":37.55281454,"lon":15.14768849,"times":["06:34","07:21","08:21","09:26","09:58","10:31","11:41","11:44","13:34","13:56","15:01","16:06","17:11","17:56","18:16","19:21","20:06","20:26","21:31","22:16","22:31","23:31"]},{"id":"1655","name":"Re Martino Brancati","lat":37.55386236,"lon":15.1458791,"times":["06:35","07:22","08:22","09:27","09:59","10:32","11:42","11:46","13:35","13:57","15:02","16:07","17:12","17:57","18:17","19:22","20:07","20:27","21:32","22:17","22:32","23:32"]},{"id":"1656","name":"Re Martino Vittorio Veneto","lat":37.55547463,"lon":15.14682195,"times":["06:35","07:23","08:23","09:28","10:00","10:33","11:43","11:47","13:35","13:58","15:03","16:08","17:13","17:58","18:18","19:23","20:08","20:28","21:33","22:18","22:33","23:33"]},{"id":"1657","name":"Re Martino Torrente Est","lat":37.5575457,"lon":15.14845641,"times":["06:36","07:25","08:24","09:29","10:01","10:34","11:45","11:48","13:36","13:59","15:04","16:09","17:14","17:59","18:19","19:24","20:09","20:29","21:34","22:19","22:35","23:35"]},{"id":"1658","name":"Re Martino XXI Aprile","lat":37.55856084,"lon":15.15113049,"times":["06:37","07:26","08:26","09:31","10:02","10:36","11:46","11:50","13:37","14:01","15:06","16:11","17:16","18:01","18:21","19:26","20:11","20:31","21:36","22:21","22:36","23:36"]},{"id":"1659","name":"Livorno Provinciale","lat":37.55983604,"lon":15.15477892,"times":["06:38","07:27","08:27","09:32","10:03","10:37","11:47","11:52","13:38","14:02","15:07","16:12","17:17","18:02","18:22","19:27","20:12","20:32","21:37","22:22","22:37","23:37"]},{"id":"1660","name":"Provinciale Sud","lat":37.56065252,"lon":15.15762259,"times":["06:39","07:29","08:29","09:34","10:04","10:39","11:49","11:53","13:39","14:04","15:09","16:14","17:19","18:04","18:24","19:29","20:14","20:34","21:39","22:24","22:39","23:39"]},{"id":"1661","name":"Terminal Aci Trezza","lat":37.56106422,"lon":15.15979742,"times":["06:40","07:30","08:30","09:35","10:05","10:40","11:50","11:55","13:40","14:05","15:10","16:15","17:20","18:05","18:25","19:30","20:15","20:35","21:40","22:25","22:40","23:40"]}],"sabato":[{"id":"7","name":"Terminal Stazione Centrale","lat":37.50703343,"lon":15.09987697,"times":["06:00","06:30","07:25","08:30","09:35","10:40","13:00","14:05","15:10","16:15","17:20","18:25","19:30","20:35","21:40","22:40"]},{"id":"1","name":"Martiri Libertà Saitta","lat":37.50755595,"lon":15.09658165,"times":["06:01","06:31","07:26","08:31","09:36","10:42","13:01","14:06","15:11","16:16","17:21","18:26","19:31","20:36","21:41","22:41"]},{"id":"2","name":"Martiri Libertà Nord","lat":37.50747645,"lon":15.09457886,"times":["06:01","06:32","07:27","08:32","09:37","10:43","13:02","14:07","15:12","16:17","17:22","18:27","19:32","20:37","21:42","22:42"]},{"id":"3","name":"Repubblica","lat":37.50779428,"lon":15.09159219,"times":["06:02","06:33","07:29","08:34","09:39","10:44","13:04","14:09","15:14","16:19","17:24","18:29","19:34","20:39","21:43","22:43"]},{"id":"5","name":"Stesicoro Metro Nord","lat":37.50753611,"lon":15.08733758,"times":["06:03","06:35","07:30","08:35","09:40","10:46","13:05","14:10","15:15","16:20","17:25","18:30","19:35","20:40","21:45","22:45"]},{"id":"80","name":"Etnea Pacini","lat":37.50924981,"lon":15.08582338,"times":["06:04","06:36","07:32","08:37","09:42","10:48","13:07","14:12","15:17","16:22","17:27","18:32","19:37","20:42","21:46","22:46"]},{"id":"81","name":"Umberto Etnea","lat":37.51106111,"lon":15.08643647,"times":["06:05","06:38","07:33","08:38","09:43","10:50","13:08","14:13","15:18","16:23","17:28","18:33","19:38","20:43","21:48","22:48"]},{"id":"83","name":"Majorana","lat":37.51159942,"lon":15.08979772,"times":["06:06","06:39","07:35","08:40","09:45","10:51","13:10","14:15","15:20","16:25","17:30","18:35","19:40","20:45","21:49","22:49"]},{"id":"85","name":"Umberto Crispi","lat":37.51234384,"lon":15.09455106,"times":["06:07","06:41","07:37","08:42","09:47","10:54","13:12","14:17","15:22","16:27","17:32","18:37","19:42","20:47","21:51","22:51"]},{"id":"86","name":"Iolanda","lat":37.51277443,"lon":15.09709757,"times":["06:08","06:42","07:38","08:43","09:48","10:55","13:13","14:18","15:23","16:28","17:33","18:38","19:43","20:48","21:52","22:52"]},{"id":"87","name":"Libertà Sella","lat":37.51427931,"lon":15.09758609,"times":["06:08","06:43","07:39","08:44","09:49","10:56","13:14","14:19","15:24","16:29","17:34","18:39","19:44","20:49","21:53","22:53"]},{"id":"208","name":"Italia Pasubio Sud","lat":37.51585393,"lon":15.10086974,"times":["06:10","06:45","07:41","08:46","09:51","10:59","13:16","14:21","15:26","16:31","17:36","18:41","19:46","20:51","21:55","22:55"]},{"id":"209","name":"Italia Vecchia Ognina","lat":37.51623944,"lon":15.10328056,"times":["06:10","06:46","07:42","08:47","09:52","11:00","13:17","14:22","15:27","16:32","17:37","18:42","19:47","20:52","21:56","22:56"]},{"id":"210","name":"Italia Africa","lat":37.51653537,"lon":15.10500099,"times":["06:11","06:46","07:43","08:48","09:53","11:01","13:18","14:23","15:28","16:33","17:38","18:43","19:48","20:53","21:56","22:56"]},{"id":"211","name":"Sciascia Europa","lat":37.51781345,"lon":15.10707364,"times":["06:12","06:48","07:45","08:50","09:55","11:03","13:20","14:25","15:30","16:35","17:40","18:45","19:50","20:55","21:58","22:58"]},{"id":"214","name":"Tricolore","lat":37.52107988,"lon":15.11299693,"times":["06:14","06:51","07:48","08:53","09:58","11:07","13:23","14:28","15:33","16:38","17:43","18:48","19:53","20:58","22:01","23:01"]},{"id":"216","name":"Alagona Nettuno Est","lat":37.52415907,"lon":15.11656647,"times":["06:15","06:53","07:50","08:55","10:00","11:09","13:25","14:30","15:35","16:40","17:45","18:50","19:55","21:00","22:03","23:03"]},{"id":"217","name":"Alagona Anfuso Est","lat":37.52724222,"lon":15.11606197,"times":["06:17","06:55","07:52","08:57","10:02","11:11","13:27","14:32","15:37","16:42","17:47","18:52","19:57","21:02","22:05","23:05"]},{"id":"218","name":"Alagona Parrocchia Est","lat":37.529282,"lon":15.11328093,"times":["06:18","06:57","07:54","08:59","10:04","11:13","13:29","14:34","15:39","16:44","17:49","18:54","19:59","21:04","22:07","23:07"]},{"id":"219","name":"Mancini Battaglia  ","lat":37.53076137,"lon":15.11209476,"times":["06:18","06:58","07:55","09:00","10:05","11:15","13:30","14:35","15:40","16:45","17:50","18:55","20:00","21:05","22:08","23:08"]},{"id":"220","name":"Acicastello Nenni","lat":37.53313791,"lon":15.1152675,"times":["06:20","07:00","07:57","09:02","10:07","11:17","13:32","14:37","15:42","16:47","17:52","18:57","20:02","21:07","22:10","23:10"]},{"id":"221","name":"Acicastello Medea","lat":37.53360471,"lon":15.11720369,"times":["06:20","07:00","07:58","09:03","10:08","11:18","13:33","14:38","15:43","16:48","17:53","18:58","20:03","21:08","22:10","23:10"]},{"id":"222","name":"Acicastello Villini (1) ","lat":37.53444772,"lon":15.12142687,"times":["06:21","07:02","08:00","09:05","10:10","11:20","13:35","14:40","15:45","16:50","17:55","19:00","20:05","21:10","22:12","23:12"]},{"id":"223","name":"Acicastello Villini (2)","lat":37.53465336,"lon":15.12304578,"times":["06:22","07:03","08:01","09:06","10:11","11:21","13:36","14:41","15:46","16:51","17:56","19:01","20:06","21:11","22:13","23:13"]},{"id":"224","name":"Musco","lat":37.53499296,"lon":15.12580812,"times":["06:22","07:04","08:02","09:07","10:12","11:23","13:37","14:42","15:47","16:52","17:57","19:02","20:07","21:12","22:14","23:14"]},{"id":"225","name":"Musco Lentini Est","lat":37.53545995,"lon":15.12741618,"times":["06:23","07:05","08:03","09:08","10:13","11:23","13:38","14:43","15:48","16:53","17:58","19:03","20:08","21:13","22:15","23:15"]},{"id":"226","name":"Musco Sturzo Est","lat":37.53614279,"lon":15.12943211,"times":["06:23","07:05","08:03","09:08","10:13","11:24","13:38","14:43","15:48","16:53","17:58","19:03","20:08","21:13","22:15","23:15"]},{"id":"227","name":"Musco Lampedusa Est","lat":37.53710612,"lon":15.1304525,"times":["06:24","07:06","08:04","09:09","10:14","11:25","13:39","14:44","15:49","16:54","17:59","19:04","20:09","21:14","22:16","23:16"]},{"id":"228","name":"Musco Vittorini Est","lat":37.538034,"lon":15.13092952,"times":["06:24","07:07","08:05","09:10","10:15","11:26","13:40","14:45","15:50","16:55","18:00","19:05","20:10","21:15","22:17","23:17"]},{"id":"229","name":"Musco Est","lat":37.53977262,"lon":15.1318268,"times":["06:25","07:08","08:06","09:11","10:16","11:27","13:41","14:46","15:51","16:56","18:01","19:06","20:11","21:16","22:18","23:18"]},{"id":"1910","name":"Mollica Pitagora","lat":37.54403624,"lon":15.13142091,"times":["06:27","07:10","08:09","09:14","10:19","11:31","13:44","14:49","15:54","16:59","18:04","19:09","20:14","21:19","22:20","23:20"]},{"id":"230","name":"Antonello da Messina Mollica Est","lat":37.54095103,"lon":15.13393433,"times":["06:28","07:13","08:11","09:16","10:21","11:33","13:46","14:51","15:56","17:01","18:06","19:11","20:16","21:21","22:23","23:23"]},{"id":"231","name":"Antonello da Messina Est (1)","lat":37.541876,"lon":15.13692441,"times":["06:29","07:14","08:13","09:18","10:23","11:35","13:48","14:53","15:58","17:03","18:08","19:13","20:18","21:23","22:24","23:24"]},{"id":"232","name":"Antonello da Messina Est (2)","lat":37.54235189,"lon":15.13849875,"times":["06:30","07:15","08:13","09:18","10:23","11:36","13:48","14:53","15:58","17:03","18:08","19:13","20:18","21:23","22:25","23:25"]},{"id":"233","name":"Antonello da Messina Est (3)","lat":37.54293551,"lon":15.1404129,"times":["06:30","07:15","08:14","09:19","10:24","11:37","13:49","14:54","15:59","17:04","18:09","19:14","20:19","21:24","22:25","23:25"]},{"id":"234","name":"Pezzana Est (1)","lat":37.54408673,"lon":15.1425206,"times":["06:31","07:16","08:15","09:20","10:25","11:38","13:50","14:55","16:00","17:05","18:10","19:15","20:20","21:25","22:26","23:26"]},{"id":"235","name":"Pezzana Est (2)","lat":37.54586081,"lon":15.14383715,"times":["06:31","07:17","08:16","09:21","10:26","11:39","13:51","14:56","16:01","17:06","18:11","19:16","20:21","21:26","22:27","23:27"]},{"id":"236","name":"Pezzana Est (3)","lat":37.54725777,"lon":15.14395304,"times":["06:32","07:18","08:17","09:22","10:27","11:40","13:52","14:57","16:02","17:07","18:12","19:17","20:22","21:27","22:28","23:28"]},{"id":"237","name":"Pezzana Battisti","lat":37.55130073,"lon":15.1473119,"times":["06:34","07:21","08:20","09:25","10:30","11:43","13:55","15:00","16:05","17:10","18:15","19:20","20:25","21:30","22:31","23:31"]},{"id":"496","name":"Colombo Manganelli","lat":37.55281454,"lon":15.14768849,"times":["06:34","07:21","08:21","09:26","10:31","11:44","13:56","15:01","16:06","17:11","18:16","19:21","20:26","21:31","22:31","23:31"]},{"id":"1655","name":"Re Martino Brancati","lat":37.55386236,"lon":15.1458791,"times":["06:35","07:22","08:22","09:27","10:32","11:46","13:57","15:02","16:07","17:12","18:17","19:22","20:27","21:32","22:32","23:32"]},{"id":"1656","name":"Re Martino Vittorio Veneto","lat":37.55547463,"lon":15.14682195,"times":["06:35","07:23","08:23","09:28","10:33","11:47","13:58","15:03","16:08","17:13","18:18","19:23","20:28","21:33","22:33","23:33"]},{"id":"1657","name":"Re Martino Torrente Est","lat":37.5575457,"lon":15.14845641,"times":["06:36","07:25","08:24","09:29","10:34","11:48","13:59","15:04","16:09","17:14","18:19","19:24","20:29","21:34","22:35","23:35"]},{"id":"1658","name":"Re Martino XXI Aprile","lat":37.55856084,"lon":15.15113049,"times":["06:37","07:26","08:26","09:31","10:36","11:50","14:01","15:06","16:11","17:16","18:21","19:26","20:31","21:36","22:36","23:36"]},{"id":"1659","name":"Livorno Provinciale","lat":37.55983604,"lon":15.15477892,"times":["06:38","07:27","08:27","09:32","10:37","11:52","14:02","15:07","16:12","17:17","18:22","19:27","20:32","21:37","22:37","23:37"]},{"id":"1660","name":"Provinciale Sud","lat":37.56065252,"lon":15.15762259,"times":["06:39","07:29","08:29","09:34","10:39","11:53","14:04","15:09","16:14","17:19","18:24","19:29","20:34","21:39","22:39","23:39"]},{"id":"1661","name":"Terminal Aci Trezza","lat":37.56106422,"lon":15.15979742,"times":["06:40","07:30","08:30","09:35","10:40","11:55","14:05","15:10","16:15","17:20","18:25","19:30","20:35","21:40","22:40","23:40"]}],"domenica":[{"id":"7","name":"Terminal Stazione Centrale","lat":37.50703343,"lon":15.09987697,"times":["05:50","07:35","09:20","11:05","13:15","15:25","17:35","19:45","21:55","23:50"]},{"id":"1","name":"Martiri Libertà Saitta","lat":37.50755595,"lon":15.09658165,"times":["05:51","07:36","09:21","11:06","13:16","15:26","17:36","19:46","21:56","23:51"]},{"id":"2","name":"Martiri Libertà Nord","lat":37.50747645,"lon":15.09457886,"times":["05:52","07:37","09:22","11:07","13:17","15:27","17:37","19:47","21:57","23:51"]},{"id":"3","name":"Repubblica","lat":37.50779428,"lon":15.09159219,"times":["05:53","07:38","09:23","11:09","13:19","15:29","17:39","19:49","21:59","23:52"]},{"id":"5","name":"Stesicoro Metro Nord","lat":37.50753611,"lon":15.08733758,"times":["05:54","07:39","09:24","11:10","13:20","15:30","17:40","19:50","22:00","23:53"]},{"id":"80","name":"Etnea Pacini","lat":37.50924981,"lon":15.08582338,"times":["05:56","07:41","09:26","11:12","13:22","15:32","17:42","19:52","22:02","23:54"]},{"id":"81","name":"Umberto Etnea","lat":37.51106111,"lon":15.08643647,"times":["05:57","07:42","09:27","11:13","13:23","15:33","17:43","19:53","22:03","23:55"]},{"id":"83","name":"Majorana","lat":37.51159942,"lon":15.08979772,"times":["05:58","07:43","09:28","11:15","13:25","15:35","17:45","19:55","22:05","23:56"]},{"id":"85","name":"Umberto Crispi","lat":37.51234384,"lon":15.09455106,"times":["06:00","07:45","09:30","11:17","13:27","15:37","17:47","19:57","22:07","23:57"]},{"id":"86","name":"Iolanda","lat":37.51277443,"lon":15.09709757,"times":["06:01","07:46","09:31","11:18","13:28","15:38","17:48","19:58","22:08","23:58"]},{"id":"87","name":"Libertà Sella","lat":37.51427931,"lon":15.09758609,"times":["06:02","07:47","09:32","11:19","13:29","15:39","17:49","19:59","22:09","23:58"]},{"id":"208","name":"Italia Pasubio Sud","lat":37.51585393,"lon":15.10086974,"times":["06:03","07:48","09:33","11:21","13:31","15:41","17:51","20:01","22:11","00:00"]},{"id":"209","name":"Italia Vecchia Ognina","lat":37.51623944,"lon":15.10328056,"times":["06:04","07:49","09:34","11:22","13:32","15:42","17:52","20:02","22:12","00:00"]},{"id":"210","name":"Italia Africa","lat":37.51653537,"lon":15.10500099,"times":["06:05","07:50","09:35","11:23","13:33","15:43","17:53","20:03","22:13","00:01"]},{"id":"211","name":"Sciascia Europa","lat":37.51781345,"lon":15.10707364,"times":["06:06","07:51","09:36","11:25","13:35","15:45","17:55","20:05","22:15","00:02"]},{"id":"214","name":"Tricolore","lat":37.52107988,"lon":15.11299693,"times":["06:09","07:54","09:39","11:28","13:38","15:48","17:58","20:08","22:18","00:04"]},{"id":"216","name":"Alagona Nettuno Est","lat":37.52415907,"lon":15.11656647,"times":["06:11","07:56","09:41","11:30","13:40","15:50","18:00","20:10","22:20","00:05"]},{"id":"217","name":"Alagona Anfuso Est","lat":37.52724222,"lon":15.11606197,"times":["06:13","07:58","09:43","11:32","13:42","15:52","18:02","20:12","22:22","00:07"]},{"id":"218","name":"Alagona Parrocchia Est","lat":37.529282,"lon":15.11328093,"times":["06:14","07:59","09:44","11:34","13:44","15:54","18:04","20:14","22:24","00:08"]},{"id":"219","name":"Mancini Battaglia  ","lat":37.53076137,"lon":15.11209476,"times":["06:15","08:00","09:45","11:35","13:45","15:55","18:05","20:15","22:25","00:08"]},{"id":"220","name":"Acicastello Nenni","lat":37.53313791,"lon":15.1152675,"times":["06:17","08:02","09:47","11:37","13:47","15:57","18:07","20:17","22:27","00:10"]},{"id":"221","name":"Acicastello Medea","lat":37.53360471,"lon":15.11720369,"times":["06:18","08:03","09:48","11:38","13:48","15:58","18:08","20:18","22:28","00:10"]},{"id":"222","name":"Acicastello Villini (1) ","lat":37.53444772,"lon":15.12142687,"times":["06:19","08:04","09:49","11:40","13:50","16:00","18:10","20:20","22:30","00:11"]},{"id":"223","name":"Acicastello Villini (2)","lat":37.53465336,"lon":15.12304578,"times":["06:20","08:05","09:50","11:41","13:51","16:01","18:11","20:21","22:31","00:12"]},{"id":"224","name":"Musco","lat":37.53499296,"lon":15.12580812,"times":["06:21","08:06","09:51","11:42","13:52","16:02","18:12","20:22","22:32","00:12"]},{"id":"225","name":"Musco Lentini Est","lat":37.53545995,"lon":15.12741618,"times":["06:22","08:07","09:52","11:43","13:53","16:03","18:13","20:23","22:33","00:13"]},{"id":"226","name":"Musco Sturzo Est","lat":37.53614279,"lon":15.12943211,"times":["06:22","08:07","09:52","11:43","13:53","16:03","18:13","20:23","22:33","00:13"]},{"id":"227","name":"Musco Lampedusa Est","lat":37.53710612,"lon":15.1304525,"times":["06:23","08:08","09:53","11:44","13:54","16:04","18:14","20:24","22:34","00:14"]},{"id":"228","name":"Musco Vittorini Est","lat":37.538034,"lon":15.13092952,"times":["06:24","08:09","09:54","11:45","13:55","16:05","18:15","20:25","22:35","00:14"]},{"id":"229","name":"Musco Est","lat":37.53977262,"lon":15.1318268,"times":["06:24","08:09","09:54","11:46","13:56","16:06","18:16","20:26","22:36","00:15"]},{"id":"1910","name":"Mollica Pitagora","lat":37.54403624,"lon":15.13142091,"times":["06:27","08:12","09:57","11:49","13:59","16:09","18:19","20:29","22:39","00:17"]},{"id":"230","name":"Antonello da Messina Mollica Est","lat":37.54095103,"lon":15.13393433,"times":["06:29","08:14","09:59","11:51","14:01","16:11","18:21","20:31","22:41","00:18"]},{"id":"231","name":"Antonello da Messina Est (1)","lat":37.541876,"lon":15.13692441,"times":["06:30","08:15","10:00","11:53","14:03","16:13","18:23","20:33","22:43","00:19"]},{"id":"232","name":"Antonello da Messina Est (2)","lat":37.54235189,"lon":15.13849875,"times":["06:31","08:16","10:01","11:53","14:03","16:13","18:23","20:33","22:43","00:20"]},{"id":"233","name":"Antonello da Messina Est (3)","lat":37.54293551,"lon":15.1404129,"times":["06:32","08:17","10:02","11:54","14:04","16:14","18:24","20:34","22:44","00:20"]},{"id":"234","name":"Pezzana Est (1)","lat":37.54408673,"lon":15.1425206,"times":["06:32","08:17","10:02","11:55","14:05","16:15","18:25","20:35","22:45","00:21"]},{"id":"235","name":"Pezzana Est (2)","lat":37.54586081,"lon":15.14383715,"times":["06:33","08:18","10:03","11:56","14:06","16:16","18:26","20:36","22:46","00:21"]},{"id":"236","name":"Pezzana Est (3)","lat":37.54725777,"lon":15.14395304,"times":["06:34","08:19","10:04","11:57","14:07","16:17","18:27","20:37","22:47","00:22"]},{"id":"237","name":"Pezzana Battisti","lat":37.55130073,"lon":15.1473119,"times":["06:36","08:21","10:06","12:00","14:10","16:20","18:30","20:40","22:50","00:24"]},{"id":"496","name":"Colombo Manganelli","lat":37.55281454,"lon":15.14768849,"times":["06:37","08:22","10:07","12:01","14:11","16:21","18:31","20:41","22:51","00:24"]},{"id":"1655","name":"Re Martino Brancati","lat":37.55386236,"lon":15.1458791,"times":["06:38","08:23","10:08","12:02","14:12","16:22","18:32","20:42","22:52","00:25"]},{"id":"1656","name":"Re Martino Vittorio Veneto","lat":37.55547463,"lon":15.14682195,"times":["06:39","08:24","10:09","12:03","14:13","16:23","18:33","20:43","22:53","00:25"]},{"id":"1657","name":"Re Martino Torrente Est","lat":37.5575457,"lon":15.14845641,"times":["06:40","08:25","10:10","12:04","14:14","16:24","18:34","20:44","22:54","00:26"]},{"id":"1658","name":"Re Martino XXI Aprile","lat":37.55856084,"lon":15.15113049,"times":["06:41","08:26","10:11","12:06","14:16","16:26","18:36","20:46","22:56","00:27"]},{"id":"1659","name":"Livorno Provinciale","lat":37.55983604,"lon":15.15477892,"times":["06:43","08:28","10:13","12:07","14:17","16:27","18:37","20:47","22:57","00:28"]},{"id":"1660","name":"Provinciale Sud","lat":37.56065252,"lon":15.15762259,"times":["06:44","08:29","10:14","12:09","14:19","16:29","18:39","20:49","22:59","00:29"]},{"id":"1661","name":"Terminal Aci Trezza","lat":37.56106422,"lon":15.15979742,"times":["06:45","08:30","10:15","12:10","14:20","16:30","18:40","20:50","23:00","00:30"]}]},"1":{"feriale":[{"id":"1661","name":"Terminal Aci Trezza","lat":37.56106422,"lon":15.15979742,"times":["06:40","07:30","08:30","09:35","10:05","10:40","11:50","11:55","13:40","14:05","15:10","16:15","17:20","18:05","18:25","19:30","20:15","20:35","21:40","22:25","22:40","23:40"]},{"id":"1662","name":"Provinciale Nord","lat":37.56065196,"lon":15.15804153,"times":["06:40","07:30","08:30","09:35","10:05","10:40","11:50","11:55","13:40","14:05","15:10","16:15","17:20","18:05","18:25","19:30","20:15","20:35","21:40","22:25","22:40","23:40"]},{"id":"285","name":"Livorno Malavoglia","lat":37.55962973,"lon":15.15401988,"times":["06:41","07:32","08:32","09:37","10:06","10:42","11:52","11:57","13:41","14:07","15:12","16:17","17:22","18:07","18:27","19:32","20:17","20:37","21:42","22:26","22:42","23:41"]},{"id":"1663","name":"Re Martino","lat":37.55843523,"lon":15.15067735,"times":["06:42","07:33","08:33","09:38","10:07","10:43","11:54","11:58","13:42","14:08","15:13","16:18","17:23","18:08","18:28","19:33","20:18","20:38","21:43","22:27","22:43","23:43"]},{"id":"1664","name":"Re Martino Torrente Ovest","lat":37.55726675,"lon":15.14808223,"times":["06:43","07:34","08:35","09:40","10:08","10:44","11:55","12:00","13:43","14:10","15:15","16:20","17:25","18:10","18:30","19:35","20:20","20:40","21:44","22:28","22:44","23:43"]},{"id":"1665","name":"Dietro Le Mura Vittorio Veneto ","lat":37.55577665,"lon":15.14542077,"times":["06:44","07:35","08:36","09:41","10:09","10:45","11:56","12:01","13:43","14:11","15:16","16:21","17:26","18:11","18:31","19:36","20:21","20:41","21:45","22:29","22:45","23:44"]},{"id":"1666","name":"Privitera","lat":37.55391749,"lon":15.14503008,"times":["06:45","07:36","08:37","09:42","10:10","10:46","11:57","12:02","13:44","14:12","15:17","16:22","17:27","18:12","18:32","19:37","20:22","20:42","21:46","22:30","22:46","23:45"]},{"id":"238","name":"Battisti Crispi","lat":37.55193234,"lon":15.14678104,"times":["06:46","07:38","08:38","09:43","10:11","10:48","11:59","12:03","13:45","14:13","15:18","16:23","17:28","18:13","18:33","19:38","20:23","20:43","21:48","22:31","22:48","23:46"]},{"id":"239","name":"Pezzana Ovest (1)","lat":37.54993296,"lon":15.14546388,"times":["06:47","07:39","08:40","09:45","10:12","10:49","12:01","12:05","13:46","14:15","15:20","16:25","17:30","18:15","18:35","19:40","20:25","20:45","21:49","22:32","22:49","23:48"]},{"id":"240","name":"Pezzana Ovest (2)","lat":37.54716779,"lon":15.14382834,"times":["06:48","07:41","08:42","09:47","10:13","10:51","12:02","12:07","13:47","14:17","15:22","16:27","17:32","18:17","18:37","19:42","20:27","20:47","21:51","22:33","22:51","23:49"]},{"id":"241","name":"Pezzana Ovest (3)","lat":37.54584293,"lon":15.14371259,"times":["06:48","07:41","08:42","09:47","10:13","10:51","12:03","12:07","13:47","14:17","15:22","16:27","17:32","18:17","18:37","19:42","20:27","20:47","21:51","22:33","22:51","23:49"]},{"id":"242","name":"Pezzana Ovest (4)","lat":37.54405993,"lon":15.14231679,"times":["06:49","07:42","08:43","09:48","10:14","10:52","12:04","12:08","13:48","14:18","15:23","16:28","17:33","18:18","18:38","19:43","20:28","20:48","21:52","22:34","22:52","23:50"]},{"id":"243","name":"Antonello da Messina Ovest (1)","lat":37.54291781,"lon":15.14014119,"times":["06:50","07:43","08:44","09:49","10:15","10:53","12:06","12:09","13:49","14:19","15:24","16:29","17:34","18:19","18:39","19:44","20:29","20:49","21:53","22:35","22:53","23:51"]},{"id":"244","name":"Antonello da Messina Ovest (2)","lat":37.54247791,"lon":15.13864614,"times":["06:50","07:44","08:45","09:50","10:15","10:54","12:06","12:10","13:49","14:20","15:25","16:30","17:35","18:20","18:40","19:45","20:30","20:50","21:54","22:35","22:54","23:51"]},{"id":"245","name":"Antonello da Messina Ovest (3)","lat":37.541975,"lon":15.13706043,"times":["06:51","07:44","08:46","09:51","10:16","10:54","12:07","12:11","13:49","14:21","15:26","16:31","17:36","18:21","18:41","19:46","20:31","20:51","21:54","22:36","22:54","23:52"]},{"id":"246","name":"Antonello da Messina Mollica Ovest","lat":37.54110401,"lon":15.134161,"times":["06:52","07:46","08:47","09:52","10:17","10:56","12:08","12:12","13:50","14:22","15:27","16:32","17:37","18:22","18:42","19:47","20:32","20:52","21:56","22:37","22:56","23:53"]},{"id":"1911","name":"Mollica","lat":37.54380355,"lon":15.1315811,"times":["06:53","07:48","08:50","09:55","10:18","10:58","12:11","12:15","13:52","14:25","15:30","16:35","17:40","18:25","18:45","19:50","20:35","20:55","21:58","22:38","22:58","23:55"]},{"id":"247","name":"Musco Ovest","lat":37.54002498,"lon":15.13184988,"times":["06:55","07:50","08:52","09:57","10:20","11:00","12:14","12:17","13:53","14:27","15:32","16:37","17:42","18:27","18:47","19:52","20:37","20:57","22:00","22:40","23:00","23:57"]},{"id":"248","name":"Musco Vittorini Ovest","lat":37.53767375,"lon":15.13065723,"times":["06:56","07:51","08:53","09:58","10:21","11:01","12:15","12:18","13:54","14:28","15:33","16:38","17:43","18:28","18:48","19:53","20:38","20:58","22:01","22:41","23:01","23:58"]},{"id":"249","name":"Musco Lampedusa Ovest","lat":37.53688105,"lon":15.1302144,"times":["06:56","07:52","08:54","09:59","10:21","11:02","12:16","12:19","13:54","14:29","15:34","16:39","17:44","18:29","18:49","19:54","20:39","20:59","22:02","22:41","23:02","23:58"]},{"id":"250","name":"Musco Sturzo Ovest","lat":37.53610703,"lon":15.1291604,"times":["06:57","07:52","08:54","09:59","10:22","11:02","12:16","12:19","13:55","14:29","15:34","16:39","17:44","18:29","18:49","19:54","20:39","20:59","22:02","22:42","23:02","23:59"]},{"id":"251","name":"Musco Lentini Ovest","lat":37.53537928,"lon":15.12699725,"times":["06:57","07:53","08:55","10:00","10:22","11:03","12:17","12:20","13:55","14:30","15:35","16:40","17:45","18:30","18:50","19:55","20:40","21:00","22:03","22:42","23:03","23:59"]},{"id":"252","name":"Acicastello Teseo","lat":37.53496669,"lon":15.12508368,"times":["06:58","07:54","08:56","10:01","10:23","11:04","12:18","12:21","13:56","14:31","15:36","16:41","17:46","18:31","18:51","19:56","20:41","21:01","22:04","22:43","23:04","00:00"]},{"id":"253","name":"Teseo","lat":37.53592412,"lon":15.12319502,"times":["06:58","07:55","08:57","10:02","10:23","11:05","12:19","12:22","13:56","14:32","15:37","16:42","17:47","18:32","18:52","19:57","20:42","21:02","22:05","22:43","23:05","00:01"]},{"id":"1483","name":"Teseo Caruso","lat":37.53570165,"lon":15.12041021,"times":["06:59","07:56","08:58","10:03","10:24","11:06","12:20","12:23","13:57","14:33","15:38","16:43","17:48","18:33","18:53","19:58","20:43","21:03","22:06","22:44","23:06","00:02"]},{"id":"255","name":"Battello Scogliera","lat":37.53597406,"lon":15.11842984,"times":["07:00","07:57","08:59","10:04","10:25","11:07","12:22","12:24","13:58","14:34","15:39","16:44","17:49","18:34","18:54","19:59","20:44","21:04","22:07","22:45","23:07","00:02"]},{"id":"256","name":"Messina Argo","lat":37.5345882,"lon":15.11618654,"times":["07:01","07:58","09:01","10:06","10:26","11:08","12:23","12:26","13:59","14:36","15:41","16:46","17:51","18:36","18:56","20:01","20:46","21:06","22:08","22:46","23:08","00:03"]},{"id":"257","name":"Messina Feudo Grande","lat":37.53240147,"lon":15.11249336,"times":["07:02","08:00","09:02","10:07","10:27","11:10","12:25","12:27","14:00","14:37","15:42","16:47","17:52","18:37","18:57","20:02","20:47","21:07","22:10","22:47","23:10","00:05"]},{"id":"258","name":"Mancini Battaglia Messina","lat":37.53040989,"lon":15.11203765,"times":["07:05","08:03","09:06","10:11","10:30","11:13","12:29","12:31","14:02","14:41","15:46","16:51","17:56","18:41","19:01","20:06","20:51","21:11","22:13","22:50","23:13","00:07"]},{"id":"259","name":"Alagona Parrocchia Ovest","lat":37.52909257,"lon":15.11342777,"times":["07:05","08:04","09:07","10:12","10:30","11:14","12:29","12:32","14:02","14:42","15:47","16:52","17:57","18:42","19:02","20:07","20:52","21:12","22:14","22:50","23:14","00:08"]},{"id":"260","name":"Alagona Anfuso Ovest","lat":37.5269629,"lon":15.11595968,"times":["07:06","08:05","09:08","10:13","10:31","11:15","12:31","12:33","14:03","14:43","15:48","16:53","17:58","18:43","19:03","20:08","20:53","21:13","22:15","22:51","23:15","00:09"]},{"id":"261","name":"Alagona Nettuno Ovest","lat":37.52451072,"lon":15.11644252,"times":["07:07","08:06","09:10","10:15","10:32","11:16","12:33","12:35","14:04","14:45","15:50","16:55","18:00","18:45","19:05","20:10","20:55","21:15","22:16","22:52","23:16","00:10"]},{"id":"262","name":"Lauria","lat":37.52190754,"lon":15.11465043,"times":["07:08","08:08","09:11","10:16","10:33","11:18","12:34","12:36","14:05","14:46","15:51","16:56","18:01","18:46","19:06","20:11","20:56","21:16","22:18","22:53","23:18","00:12"]},{"id":"264","name":"Lauria De Gasperi","lat":37.52057782,"lon":15.11013307,"times":["07:10","08:10","09:13","10:18","10:35","11:20","12:36","12:38","14:06","14:48","15:53","16:58","18:03","18:48","19:08","20:13","20:58","21:18","22:20","22:55","23:20","00:13"]},{"id":"265","name":"Lauria Europa","lat":37.51824452,"lon":15.1068344,"times":["07:11","08:11","09:15","10:20","10:36","11:21","12:38","12:40","14:07","14:50","15:55","17:00","18:05","18:50","19:10","20:15","21:00","21:20","22:21","22:56","23:21","00:14"]},{"id":"1256","name":"Italia Europa","lat":37.51654464,"lon":15.10471811,"times":["07:12","08:13","09:17","10:22","10:37","11:23","12:41","12:42","14:09","14:52","15:57","17:02","18:07","18:52","19:12","20:17","21:02","21:22","22:23","22:57","23:23","00:16"]},{"id":"106","name":"Italia Aquileia","lat":37.51615018,"lon":15.10227332,"times":["07:13","08:14","09:18","10:23","10:38","11:24","12:42","12:43","14:09","14:53","15:58","17:03","18:08","18:53","19:13","20:18","21:03","21:23","22:24","22:58","23:24","00:17"]},{"id":"107","name":"Italia Pasubio Nord","lat":37.51577359,"lon":15.09995305,"times":["07:14","08:15","09:19","10:24","10:39","11:25","12:43","12:44","14:10","14:54","15:59","17:04","18:09","18:54","19:14","20:19","21:04","21:24","22:25","22:59","23:25","00:18"]},{"id":"108","name":"Italia Vittorio Veneto","lat":37.51523567,"lon":15.09646707,"times":["07:15","08:17","09:20","10:25","10:40","11:27","12:44","12:45","14:11","14:55","16:00","17:05","18:10","18:55","19:15","20:20","21:05","21:25","22:27","23:00","23:27","00:19"]},{"id":"109","name":"Verga Nord","lat":37.51455384,"lon":15.09246044,"times":["07:16","08:18","09:22","10:27","10:41","11:28","12:46","12:47","14:12","14:57","16:02","17:07","18:12","18:57","19:17","20:22","21:07","21:27","22:28","23:01","23:28","00:20"]},{"id":"110","name":"Trento Nord","lat":37.51408752,"lon":15.08934808,"times":["07:17","08:19","09:23","10:28","10:42","11:29","12:48","14:13","14:58","16:03","17:08","18:13","18:58","19:18","20:23","21:08","21:28","22:29","23:02","23:29","00:21"]},{"id":"111","name":"XX Settembre Imbriani","lat":37.51358073,"lon":15.08633398,"times":["07:18","08:20","09:25","10:30","10:43","11:30","12:49","12:50","14:13","15:00","16:05","17:10","18:15","19:00","19:20","20:25","21:10","21:30","22:30","23:03","23:30","00:22"]},{"id":"112","name":"VIALE","lat":37.51254948,"lon":15.08488798,"times":["07:18","08:21","09:26","10:31","10:43","11:31","12:50","12:51","14:14","15:01","16:06","17:11","18:16","19:01","19:21","20:26","21:11","21:31","22:31","23:03","23:31","00:23"]},{"id":"113","name":"Etnea Poste","lat":37.51012437,"lon":15.08549625,"times":["07:19","08:22","09:27","10:32","10:44","11:32","12:51","12:52","14:15","15:02","16:07","17:12","18:17","19:02","19:22","20:27","21:12","21:32","22:32","23:04","23:32","00:24"]},{"id":"114","name":"STESICORO","lat":37.5081861,"lon":15.08595794,"times":["07:20","08:23","09:28","10:33","10:45","11:33","12:52","12:53","14:15","15:03","16:08","17:13","18:18","19:03","19:23","20:28","21:13","21:33","22:33","23:05","23:33","00:24"]},{"id":"49","name":"Stesicoro Metro Sud","lat":37.50740991,"lon":15.08734875,"times":["07:20","08:24","09:29","10:34","10:45","11:34","12:53","12:54","14:16","15:04","16:09","17:14","18:19","19:04","19:24","20:29","21:14","21:34","22:34","23:05","23:34","00:25"]},{"id":"50","name":"Sicilia Repubblica ","lat":37.50763277,"lon":15.09064157,"times":["07:21","08:25","09:30","10:35","10:46","11:35","12:55","14:17","15:05","16:10","17:15","18:20","19:05","19:25","20:30","21:15","21:35","22:35","23:06","23:35","00:26"]},{"id":"51","name":"Martiri Libertà Repubblica","lat":37.50736021,"lon":15.093402,"times":["07:22","08:26","09:31","10:36","10:47","11:36","12:56","14:17","15:06","16:11","17:16","18:21","19:06","19:26","20:31","21:16","21:36","22:36","23:07","23:36","00:27"]},{"id":"52","name":"Martiri Libertà Sud","lat":37.50742178,"lon":15.09530293,"times":["07:23","08:27","09:32","10:37","10:48","11:37","12:57","14:18","15:07","16:12","17:17","18:22","19:07","19:27","20:32","21:17","21:37","22:37","23:08","23:37","00:28"]},{"id":"53","name":"Martiri Libertà De Nicola","lat":37.50753723,"lon":15.09743022,"times":["07:23","08:28","09:33","10:38","10:48","11:38","12:58","14:18","15:08","16:13","17:18","18:23","19:08","19:28","20:33","21:18","21:38","22:38","23:08","23:38","00:28"]},{"id":"7","name":"Terminal Stazione Centrale","lat":37.50703343,"lon":15.09987697,"times":["07:25","08:30","09:35","10:40","10:50","11:40","13:00","14:20","15:10","16:15","17:20","18:25","19:10","19:30","20:35","21:20","21:40","22:40","23:10","23:40","00:30"]}],"sabato":[{"id":"1661","name":"Terminal Aci Trezza","lat":37.56106422,"lon":15.15979742,"times":["06:40","07:30","08:30","09:35","10:40","11:55","14:05","15:10","16:15","17:20","18:25","19:30","20:35","21:40","22:40","23:40"]},{"id":"1662","name":"Provinciale Nord","lat":37.56065196,"lon":15.15804153,"times":["06:40","07:30","08:30","09:35","10:40","11:55","14:05","15:10","16:15","17:20","18:25","19:30","20:35","21:40","22:40","23:40"]},{"id":"285","name":"Livorno Malavoglia","lat":37.55962973,"lon":15.15401988,"times":["06:41","07:32","08:32","09:37","10:42","11:57","14:07","15:12","16:17","17:22","18:27","19:32","20:37","21:42","22:42","23:41"]},{"id":"1663","name":"Re Martino","lat":37.55843523,"lon":15.15067735,"times":["06:42","07:33","08:33","09:38","10:43","11:58","14:08","15:13","16:18","17:23","18:28","19:33","20:38","21:43","22:43","23:43"]},{"id":"1664","name":"Re Martino Torrente Ovest","lat":37.55726675,"lon":15.14808223,"times":["06:43","07:34","08:35","09:40","10:44","12:00","14:10","15:15","16:20","17:25","18:30","19:35","20:40","21:44","22:44","23:43"]},{"id":"1665","name":"Dietro Le Mura Vittorio Veneto ","lat":37.55577665,"lon":15.14542077,"times":["06:44","07:35","08:36","09:41","10:45","12:01","14:11","15:16","16:21","17:26","18:31","19:36","20:41","21:45","22:45","23:44"]},{"id":"1666","name":"Privitera","lat":37.55391749,"lon":15.14503008,"times":["06:45","07:36","08:37","09:42","10:46","12:02","14:12","15:17","16:22","17:27","18:32","19:37","20:42","21:46","22:46","23:45"]},{"id":"238","name":"Battisti Crispi","lat":37.55193234,"lon":15.14678104,"times":["06:46","07:38","08:38","09:43","10:48","12:03","14:13","15:18","16:23","17:28","18:33","19:38","20:43","21:48","22:48","23:46"]},{"id":"239","name":"Pezzana Ovest (1)","lat":37.54993296,"lon":15.14546388,"times":["06:47","07:39","08:40","09:45","10:49","12:05","14:15","15:20","16:25","17:30","18:35","19:40","20:45","21:49","22:49","23:48"]},{"id":"240","name":"Pezzana Ovest (2)","lat":37.54716779,"lon":15.14382834,"times":["06:48","07:41","08:42","09:47","10:51","12:07","14:17","15:22","16:27","17:32","18:37","19:42","20:47","21:51","22:51","23:49"]},{"id":"241","name":"Pezzana Ovest (3)","lat":37.54584293,"lon":15.14371259,"times":["06:48","07:41","08:42","09:47","10:51","12:07","14:17","15:22","16:27","17:32","18:37","19:42","20:47","21:51","22:51","23:49"]},{"id":"242","name":"Pezzana Ovest (4)","lat":37.54405993,"lon":15.14231679,"times":["06:49","07:42","08:43","09:48","10:52","12:08","14:18","15:23","16:28","17:33","18:38","19:43","20:48","21:52","22:52","23:50"]},{"id":"243","name":"Antonello da Messina Ovest (1)","lat":37.54291781,"lon":15.14014119,"times":["06:50","07:43","08:44","09:49","10:53","12:09","14:19","15:24","16:29","17:34","18:39","19:44","20:49","21:53","22:53","23:51"]},{"id":"244","name":"Antonello da Messina Ovest (2)","lat":37.54247791,"lon":15.13864614,"times":["06:50","07:44","08:45","09:50","10:54","12:10","14:20","15:25","16:30","17:35","18:40","19:45","20:50","21:54","22:54","23:51"]},{"id":"245","name":"Antonello da Messina Ovest (3)","lat":37.541975,"lon":15.13706043,"times":["06:51","07:44","08:46","09:51","10:54","12:11","14:21","15:26","16:31","17:36","18:41","19:46","20:51","21:54","22:54","23:52"]},{"id":"246","name":"Antonello da Messina Mollica Ovest","lat":37.54110401,"lon":15.134161,"times":["06:52","07:46","08:47","09:52","10:56","12:12","14:22","15:27","16:32","17:37","18:42","19:47","20:52","21:56","22:56","23:53"]},{"id":"1911","name":"Mollica","lat":37.54380355,"lon":15.1315811,"times":["06:53","07:48","08:50","09:55","10:58","12:15","14:25","15:30","16:35","17:40","18:45","19:50","20:55","21:58","22:58","23:55"]},{"id":"247","name":"Musco Ovest","lat":37.54002498,"lon":15.13184988,"times":["06:55","07:50","08:52","09:57","11:00","12:17","14:27","15:32","16:37","17:42","18:47","19:52","20:57","22:00","23:00","23:57"]},{"id":"248","name":"Musco Vittorini Ovest","lat":37.53767375,"lon":15.13065723,"times":["06:56","07:51","08:53","09:58","11:01","12:18","14:28","15:33","16:38","17:43","18:48","19:53","20:58","22:01","23:01","23:58"]},{"id":"249","name":"Musco Lampedusa Ovest","lat":37.53688105,"lon":15.1302144,"times":["06:56","07:52","08:54","09:59","11:02","12:19","14:29","15:34","16:39","17:44","18:49","19:54","20:59","22:02","23:02","23:58"]},{"id":"250","name":"Musco Sturzo Ovest","lat":37.53610703,"lon":15.1291604,"times":["06:57","07:52","08:54","09:59","11:02","12:19","14:29","15:34","16:39","17:44","18:49","19:54","20:59","22:02","23:02","23:59"]},{"id":"251","name":"Musco Lentini Ovest","lat":37.53537928,"lon":15.12699725,"times":["06:57","07:53","08:55","10:00","11:03","12:20","14:30","15:35","16:40","17:45","18:50","19:55","21:00","22:03","23:03","23:59"]},{"id":"252","name":"Acicastello Teseo","lat":37.53496669,"lon":15.12508368,"times":["06:58","07:54","08:56","10:01","11:04","12:21","14:31","15:36","16:41","17:46","18:51","19:56","21:01","22:04","23:04","00:00"]},{"id":"253","name":"Teseo","lat":37.53592412,"lon":15.12319502,"times":["06:58","07:55","08:57","10:02","11:05","12:22","14:32","15:37","16:42","17:47","18:52","19:57","21:02","22:05","23:05","00:01"]},{"id":"1483","name":"Teseo Caruso","lat":37.53570165,"lon":15.12041021,"times":["06:59","07:56","08:58","10:03","11:06","12:23","14:33","15:38","16:43","17:48","18:53","19:58","21:03","22:06","23:06","00:02"]},{"id":"255","name":"Battello Scogliera","lat":37.53597406,"lon":15.11842984,"times":["07:00","07:57","08:59","10:04","11:07","12:24","14:34","15:39","16:44","17:49","18:54","19:59","21:04","22:07","23:07","00:02"]},{"id":"256","name":"Messina Argo","lat":37.5345882,"lon":15.11618654,"times":["07:01","07:58","09:01","10:06","11:08","12:26","14:36","15:41","16:46","17:51","18:56","20:01","21:06","22:08","23:08","00:03"]},{"id":"257","name":"Messina Feudo Grande","lat":37.53240147,"lon":15.11249336,"times":["07:02","08:00","09:02","10:07","11:10","12:27","14:37","15:42","16:47","17:52","18:57","20:02","21:07","22:10","23:10","00:05"]},{"id":"258","name":"Mancini Battaglia Messina","lat":37.53040989,"lon":15.11203765,"times":["07:05","08:03","09:06","10:11","11:13","12:31","14:41","15:46","16:51","17:56","19:01","20:06","21:11","22:13","23:13","00:07"]},{"id":"259","name":"Alagona Parrocchia Ovest","lat":37.52909257,"lon":15.11342777,"times":["07:05","08:04","09:07","10:12","11:14","12:32","14:42","15:47","16:52","17:57","19:02","20:07","21:12","22:14","23:14","00:08"]},{"id":"260","name":"Alagona Anfuso Ovest","lat":37.5269629,"lon":15.11595968,"times":["07:06","08:05","09:08","10:13","11:15","12:33","14:43","15:48","16:53","17:58","19:03","20:08","21:13","22:15","23:15","00:09"]},{"id":"261","name":"Alagona Nettuno Ovest","lat":37.52451072,"lon":15.11644252,"times":["07:07","08:06","09:10","10:15","11:16","12:35","14:45","15:50","16:55","18:00","19:05","20:10","21:15","22:16","23:16","00:10"]},{"id":"262","name":"Lauria","lat":37.52190754,"lon":15.11465043,"times":["07:08","08:08","09:11","10:16","11:18","12:36","14:46","15:51","16:56","18:01","19:06","20:11","21:16","22:18","23:18","00:12"]},{"id":"264","name":"Lauria De Gasperi","lat":37.52057782,"lon":15.11013307,"times":["07:10","08:10","09:13","10:18","11:20","12:38","14:48","15:53","16:58","18:03","19:08","20:13","21:18","22:20","23:20","00:13"]},{"id":"265","name":"Lauria Europa","lat":37.51824452,"lon":15.1068344,"times":["07:11","08:11","09:15","10:20","11:21","12:40","14:50","15:55","17:00","18:05","19:10","20:15","21:20","22:21","23:21","00:14"]},{"id":"1256","name":"Italia Europa","lat":37.51654464,"lon":15.10471811,"times":["07:12","08:13","09:17","10:22","11:23","12:42","14:52","15:57","17:02","18:07","19:12","20:17","21:22","22:23","23:23","00:16"]},{"id":"106","name":"Italia Aquileia","lat":37.51615018,"lon":15.10227332,"times":["07:13","08:14","09:18","10:23","11:24","12:43","14:53","15:58","17:03","18:08","19:13","20:18","21:23","22:24","23:24","00:17"]},{"id":"107","name":"Italia Pasubio Nord","lat":37.51577359,"lon":15.09995305,"times":["07:14","08:15","09:19","10:24","11:25","12:44","14:54","15:59","17:04","18:09","19:14","20:19","21:24","22:25","23:25","00:18"]},{"id":"108","name":"Italia Vittorio Veneto","lat":37.51523567,"lon":15.09646707,"times":["07:15","08:17","09:20","10:25","11:27","12:45","14:55","16:00","17:05","18:10","19:15","20:20","21:25","22:27","23:27","00:19"]},{"id":"109","name":"Verga Nord","lat":37.51455384,"lon":15.09246044,"times":["07:16","08:18","09:22","10:27","11:28","12:47","14:57","16:02","17:07","18:12","19:17","20:22","21:27","22:28","23:28","00:20"]},{"id":"110","name":"Trento Nord","lat":37.51408752,"lon":15.08934808,"times":["07:17","08:19","09:23","10:28","11:29","12:48","14:58","16:03","17:08","18:13","19:18","20:23","21:28","22:29","23:29","00:21"]},{"id":"111","name":"XX Settembre Imbriani","lat":37.51358073,"lon":15.08633398,"times":["07:18","08:20","09:25","10:30","11:30","12:50","15:00","16:05","17:10","18:15","19:20","20:25","21:30","22:30","23:30","00:22"]},{"id":"112","name":"VIALE","lat":37.51254948,"lon":15.08488798,"times":["07:18","08:21","09:26","10:31","11:31","12:51","15:01","16:06","17:11","18:16","19:21","20:26","21:31","22:31","23:31","00:23"]},{"id":"113","name":"Etnea Poste","lat":37.51012437,"lon":15.08549625,"times":["07:19","08:22","09:27","10:32","11:32","12:52","15:02","16:07","17:12","18:17","19:22","20:27","21:32","22:32","23:32","00:24"]},{"id":"114","name":"STESICORO","lat":37.5081861,"lon":15.08595794,"times":["07:20","08:23","09:28","10:33","11:33","12:53","15:03","16:08","17:13","18:18","19:23","20:28","21:33","22:33","23:33","00:24"]},{"id":"49","name":"Stesicoro Metro Sud","lat":37.50740991,"lon":15.08734875,"times":["07:20","08:24","09:29","10:34","11:34","12:54","15:04","16:09","17:14","18:19","19:24","20:29","21:34","22:34","23:34","00:25"]},{"id":"50","name":"Sicilia Repubblica ","lat":37.50763277,"lon":15.09064157,"times":["07:21","08:25","09:30","10:35","11:35","12:55","15:05","16:10","17:15","18:20","19:25","20:30","21:35","22:35","23:35","00:26"]},{"id":"51","name":"Martiri Libertà Repubblica","lat":37.50736021,"lon":15.093402,"times":["07:22","08:26","09:31","10:36","11:36","12:56","15:06","16:11","17:16","18:21","19:26","20:31","21:36","22:36","23:36","00:27"]},{"id":"52","name":"Martiri Libertà Sud","lat":37.50742178,"lon":15.09530293,"times":["07:23","08:27","09:32","10:37","11:37","12:57","15:07","16:12","17:17","18:22","19:27","20:32","21:37","22:37","23:37","00:28"]},{"id":"53","name":"Martiri Libertà De Nicola","lat":37.50753723,"lon":15.09743022,"times":["07:23","08:28","09:33","10:38","11:38","12:58","15:08","16:13","17:18","18:23","19:28","20:33","21:38","22:38","23:38","00:28"]},{"id":"7","name":"Terminal Stazione Centrale","lat":37.50703343,"lon":15.09987697,"times":["07:25","08:30","09:35","10:40","11:40","13:00","15:10","16:15","17:20","18:25","19:30","20:35","21:40","22:40","23:40","00:30"]}],"domenica":[{"id":"1661","name":"Terminal Aci Trezza","lat":37.56106422,"lon":15.15979742,"times":["06:45","08:30","10:15","12:10","14:20","16:30","18:40","20:50","23:00","00:30"]},{"id":"1662","name":"Provinciale Nord","lat":37.56065196,"lon":15.15804153,"times":["06:45","08:30","10:15","12:10","14:20","16:30","18:40","20:50","23:00","00:30"]},{"id":"285","name":"Livorno Malavoglia","lat":37.55962973,"lon":15.15401988,"times":["06:46","08:31","10:16","12:12","14:22","16:32","18:42","20:52","23:01","00:31"]},{"id":"1663","name":"Re Martino","lat":37.55843523,"lon":15.15067735,"times":["06:48","08:33","10:18","12:13","14:23","16:33","18:43","20:53","23:03","00:33"]},{"id":"1664","name":"Re Martino Torrente Ovest","lat":37.55726675,"lon":15.14808223,"times":["06:48","08:33","10:18","12:15","14:25","16:35","18:45","20:55","23:03","00:33"]},{"id":"1665","name":"Dietro Le Mura Vittorio Veneto ","lat":37.55577665,"lon":15.14542077,"times":["06:49","08:34","10:19","12:16","14:26","16:36","18:46","20:56","23:04","00:34"]},{"id":"1666","name":"Privitera","lat":37.55391749,"lon":15.14503008,"times":["06:50","08:35","10:20","12:17","14:27","16:37","18:47","20:57","23:05","00:35"]},{"id":"238","name":"Battisti Crispi","lat":37.55193234,"lon":15.14678104,"times":["06:51","08:36","10:21","12:18","14:28","16:38","18:48","20:58","23:06","00:36"]},{"id":"239","name":"Pezzana Ovest (1)","lat":37.54993296,"lon":15.14546388,"times":["06:53","08:38","10:23","12:20","14:30","16:40","18:50","21:00","23:08","00:38"]},{"id":"240","name":"Pezzana Ovest (2)","lat":37.54716779,"lon":15.14382834,"times":["06:54","08:39","10:24","12:22","14:32","16:42","18:52","21:02","23:09","00:39"]},{"id":"241","name":"Pezzana Ovest (3)","lat":37.54584293,"lon":15.14371259,"times":["06:54","08:39","10:24","12:22","14:32","16:42","18:52","21:02","23:09","00:39"]},{"id":"242","name":"Pezzana Ovest (4)","lat":37.54405993,"lon":15.14231679,"times":["06:55","08:40","10:25","12:23","14:33","16:43","18:53","21:03","23:10","00:40"]},{"id":"243","name":"Antonello da Messina Ovest (1)","lat":37.54291781,"lon":15.14014119,"times":["06:56","08:41","10:26","12:24","14:34","16:44","18:54","21:04","23:11","00:41"]},{"id":"244","name":"Antonello da Messina Ovest (2)","lat":37.54247791,"lon":15.13864614,"times":["06:56","08:41","10:26","12:25","14:35","16:45","18:55","21:05","23:11","00:41"]},{"id":"245","name":"Antonello da Messina Ovest (3)","lat":37.541975,"lon":15.13706043,"times":["06:57","08:42","10:27","12:26","14:36","16:46","18:56","21:06","23:12","00:42"]},{"id":"246","name":"Antonello da Messina Mollica Ovest","lat":37.54110401,"lon":15.134161,"times":["06:58","08:43","10:28","12:27","14:37","16:47","18:57","21:07","23:13","00:43"]},{"id":"1911","name":"Mollica","lat":37.54380355,"lon":15.1315811,"times":["07:00","08:45","10:30","12:30","14:40","16:50","19:00","21:10","23:15","00:45"]},{"id":"247","name":"Musco Ovest","lat":37.54002498,"lon":15.13184988,"times":["07:02","08:47","10:32","12:32","14:42","16:52","19:02","21:12","23:17","00:47"]},{"id":"248","name":"Musco Vittorini Ovest","lat":37.53767375,"lon":15.13065723,"times":["07:03","08:48","10:33","12:33","14:43","16:53","19:03","21:13","23:18","00:48"]},{"id":"249","name":"Musco Lampedusa Ovest","lat":37.53688105,"lon":15.1302144,"times":["07:03","08:48","10:33","12:34","14:44","16:54","19:04","21:14","23:18","00:48"]},{"id":"250","name":"Musco Sturzo Ovest","lat":37.53610703,"lon":15.1291604,"times":["07:04","08:49","10:34","12:34","14:44","16:54","19:04","21:14","23:19","00:49"]},{"id":"251","name":"Musco Lentini Ovest","lat":37.53537928,"lon":15.12699725,"times":["07:04","08:49","10:34","12:35","14:45","16:55","19:05","21:15","23:19","00:49"]},{"id":"252","name":"Acicastello Teseo","lat":37.53496669,"lon":15.12508368,"times":["07:05","08:50","10:35","12:36","14:46","16:56","19:06","21:16","23:20","00:50"]},{"id":"253","name":"Teseo","lat":37.53592412,"lon":15.12319502,"times":["07:06","08:51","10:36","12:37","14:47","16:57","19:07","21:17","23:21","00:51"]},{"id":"1483","name":"Teseo Caruso","lat":37.53570165,"lon":15.12041021,"times":["07:07","08:52","10:37","12:38","14:48","16:58","19:08","21:18","23:22","00:52"]},{"id":"255","name":"Battello Scogliera","lat":37.53597406,"lon":15.11842984,"times":["07:07","08:52","10:37","12:39","14:49","16:59","19:09","21:19","23:22","00:52"]},{"id":"256","name":"Messina Argo","lat":37.5345882,"lon":15.11618654,"times":["07:08","08:53","10:38","12:41","14:51","17:01","19:11","21:21","23:23","00:53"]},{"id":"257","name":"Messina Feudo Grande","lat":37.53240147,"lon":15.11249336,"times":["07:10","08:55","10:40","12:42","14:52","17:02","19:12","21:22","23:25","00:55"]},{"id":"258","name":"Mancini Battaglia Messina","lat":37.53040989,"lon":15.11203765,"times":["07:12","08:57","10:42","12:46","14:56","17:06","19:16","21:26","23:27","00:57"]},{"id":"259","name":"Alagona Parrocchia Ovest","lat":37.52909257,"lon":15.11342777,"times":["07:13","08:58","10:43","12:47","14:57","17:07","19:17","21:27","23:28","00:58"]},{"id":"260","name":"Alagona Anfuso Ovest","lat":37.5269629,"lon":15.11595968,"times":["07:14","08:59","10:44","12:48","14:58","17:08","19:18","21:28","23:29","00:59"]},{"id":"261","name":"Alagona Nettuno Ovest","lat":37.52451072,"lon":15.11644252,"times":["07:15","09:00","10:45","12:50","15:00","17:10","19:20","21:30","23:30","01:00"]},{"id":"262","name":"Lauria","lat":37.52190754,"lon":15.11465043,"times":["07:17","09:02","10:47","12:51","15:01","17:11","19:21","21:31","23:32","01:02"]},{"id":"264","name":"Lauria De Gasperi","lat":37.52057782,"lon":15.11013307,"times":["07:18","09:03","10:48","12:53","15:03","17:13","19:23","21:33","23:33","01:03"]},{"id":"265","name":"Lauria Europa","lat":37.51824452,"lon":15.1068344,"times":["07:19","09:04","10:49","12:55","15:05","17:15","19:25","21:35","23:34","01:04"]},{"id":"1256","name":"Italia Europa","lat":37.51654464,"lon":15.10471811,"times":["07:21","09:06","10:51","12:57","15:07","17:17","19:27","21:37","23:36","01:06"]},{"id":"106","name":"Italia Aquileia","lat":37.51615018,"lon":15.10227332,"times":["07:22","09:07","10:52","12:58","15:08","17:18","19:28","21:38","23:37","01:07"]},{"id":"107","name":"Italia Pasubio Nord","lat":37.51577359,"lon":15.09995305,"times":["07:23","09:08","10:53","12:59","15:09","17:19","19:29","21:39","23:38","01:08"]},{"id":"108","name":"Italia Vittorio Veneto","lat":37.51523567,"lon":15.09646707,"times":["07:24","09:09","10:54","13:00","15:10","17:20","19:30","21:40","23:39","01:09"]},{"id":"109","name":"Verga Nord","lat":37.51455384,"lon":15.09246044,"times":["07:25","09:10","10:55","13:02","15:12","17:22","19:32","21:42","23:40","01:10"]},{"id":"110","name":"Trento Nord","lat":37.51408752,"lon":15.08934808,"times":["07:26","09:11","10:56","13:03","15:13","17:23","19:33","21:43","23:41","01:11"]},{"id":"111","name":"XX Settembre Imbriani","lat":37.51358073,"lon":15.08633398,"times":["07:27","09:12","10:57","13:05","15:15","17:25","19:35","21:45","23:42","01:12"]},{"id":"112","name":"VIALE","lat":37.51254948,"lon":15.08488798,"times":["07:28","09:13","10:58","13:06","15:16","17:26","19:36","21:46","23:43","01:13"]},{"id":"113","name":"Etnea Poste","lat":37.51012437,"lon":15.08549625,"times":["07:29","09:14","10:59","13:07","15:17","17:27","19:37","21:47","23:44","01:14"]},{"id":"114","name":"STESICORO","lat":37.5081861,"lon":15.08595794,"times":["07:29","09:14","10:59","13:08","15:18","17:28","19:38","21:48","23:44","01:14"]},{"id":"49","name":"Stesicoro Metro Sud","lat":37.50740991,"lon":15.08734875,"times":["07:30","09:15","11:00","13:09","15:19","17:29","19:39","21:49","23:45","01:15"]},{"id":"50","name":"Sicilia Repubblica ","lat":37.50763277,"lon":15.09064157,"times":["07:31","09:16","11:01","13:10","15:20","17:30","19:40","21:50","23:46","01:16"]},{"id":"51","name":"Martiri Libertà Repubblica","lat":37.50736021,"lon":15.093402,"times":["07:32","09:17","11:02","13:11","15:21","17:31","19:41","21:51","23:47","01:17"]},{"id":"52","name":"Martiri Libertà Sud","lat":37.50742178,"lon":15.09530293,"times":["07:33","09:18","11:03","13:12","15:22","17:32","19:42","21:52","23:48","01:18"]},{"id":"53","name":"Martiri Libertà De Nicola","lat":37.50753723,"lon":15.09743022,"times":["07:33","09:18","11:03","13:13","15:23","17:33","19:43","21:53","23:48","01:18"]},{"id":"7","name":"Terminal Stazione Centrale","lat":37.50703343,"lon":15.09987697,"times":["07:35","09:20","11:05","13:15","15:25","17:35","19:45","21:55","23:50","01:20"]}]}}}