{"id":"438","directions":{"0":{"feriale":[{"id":"6","name":"Terminal Stazione Centrale","lat":37.50740718,"lon":15.09911409,"times":["06:00","07:00","08:05","09:10","10:15","11:20","12:25","13:30","14:35","15:40","16:45","17:50","18:55","20:00","22:10"]},{"id":"145","name":"VI Aprile Sangiuliano","lat":37.50495073,"lon":15.09691772,"times":["06:00","07:00","08:05","09:10","10:15","11:20","12:25","13:30","14:35","15:40","16:45","17:50","18:55","20:00","22:10"]},{"id":"146","name":"Vittorio Emanuele II Cutelli","lat":37.50349308,"lon":15.09374791,"times":["06:01","07:01","08:06","09:11","10:16","11:21","12:26","13:31","14:36","15:41","16:46","17:51","18:56","20:01","22:11"]},{"id":"147","name":"Vittorio Emanuele II Platamone","lat":37.50320663,"lon":15.09120191,"times":["06:02","07:02","08:06","09:11","10:16","11:21","12:26","13:32","14:36","15:41","16:46","17:51","18:56","20:01","22:12"]},{"id":"1783","name":"Vittorio Emanuele II San Placido","lat":37.50301843,"lon":15.08978744,"times":["06:02","07:02","08:07","09:12","10:17","11:22","12:27","13:32","14:37","15:42","16:47","17:52","18:57","20:02","22:12"]},{"id":"1860","name":"Borsellino","lat":37.50198616,"lon":15.08902438,"times":["06:02","07:02","08:07","09:12","10:17","11:22","12:27","13:33","14:37","15:42","16:47","17:52","18:57","20:02","22:12"]},{"id":"10","name":"Colombo Aretusa","lat":37.49802484,"lon":15.0898154,"times":["06:04","07:04","08:08","09:13","10:18","11:23","12:28","13:34","14:38","15:43","16:48","17:53","18:58","20:03","22:14"]},{"id":"11","name":"Tempio Stella Polare Ovest","lat":37.49534744,"lon":15.09025339,"times":["06:04","07:04","08:09","09:14","10:19","11:24","12:29","13:35","14:39","15:44","16:49","17:54","18:59","20:04","22:14"]},{"id":"12","name":"Tempio Principe Ovest","lat":37.49386943,"lon":15.08995749,"times":["06:05","07:05","08:09","09:14","10:19","11:24","12:29","13:35","14:39","15:44","16:49","17:54","18:59","20:04","22:15"]},{"id":"13","name":"Tempio Assunta Ovest","lat":37.49290509,"lon":15.08979796,"times":["06:05","07:05","08:09","09:14","10:19","11:24","12:29","13:35","14:39","15:44","16:49","17:54","18:59","20:04","22:15"]},{"id":"849","name":"Assunta","lat":37.49286236,"lon":15.08666437,"times":["06:06","07:06","08:10","09:15","10:20","11:25","12:30","13:36","14:40","15:45","16:50","17:55","19:00","20:05","22:16"]},{"id":"742","name":"Concordia Fiducia","lat":37.49315247,"lon":15.08434565,"times":["06:06","07:06","08:10","09:15","10:20","11:25","12:30","13:37","14:40","15:45","16:50","17:55","19:00","20:05","22:16"]},{"id":"743","name":"Concordia Vento Nord","lat":37.49343362,"lon":15.08189116,"times":["06:07","07:07","08:11","09:16","10:21","11:26","12:31","13:37","14:41","15:46","16:51","17:56","19:01","20:06","22:17"]},{"id":"744","name":"Concordia De Lorenzo Nord","lat":37.49372382,"lon":15.07931222,"times":["06:07","07:07","08:11","09:16","10:21","11:26","12:31","13:38","14:41","15:46","16:51","17:56","19:01","20:06","22:17"]},{"id":"745","name":"Concordia Adamo","lat":37.49402295,"lon":15.07677851,"times":["06:08","07:08","08:12","09:17","10:22","11:27","12:32","13:38","14:42","15:47","16:52","17:57","19:02","20:07","22:18"]},{"id":"746","name":"Concordia Poulet","lat":37.49437621,"lon":15.07406384,"times":["06:08","07:08","08:12","09:17","10:22","11:27","12:32","13:39","14:42","15:47","16:52","17:57","19:02","20:07","22:18"]},{"id":"128","name":"Acquicella Regione","lat":37.49304268,"lon":15.07328197,"times":["06:09","07:09","08:13","09:18","10:23","11:28","12:33","13:40","14:43","15:48","16:53","17:58","19:03","20:08","22:19"]},{"id":"129","name":"Acquicella Ovest","lat":37.49084355,"lon":15.07294046,"times":["06:09","07:09","08:13","09:18","10:23","11:28","12:33","13:40","14:43","15:48","16:53","17:58","19:03","20:08","22:19"]},{"id":"130","name":"Acquicella Zia Lisa Ovest","lat":37.48946476,"lon":15.07244139,"times":["06:10","07:10","08:14","09:19","10:24","11:29","12:34","13:41","14:44","15:49","16:54","17:59","19:04","20:09","22:20"]},{"id":"131","name":"Divino Amore ","lat":37.48825831,"lon":15.07015526,"times":["06:10","07:10","08:14","09:19","10:24","11:29","12:34","13:41","14:44","15:49","16:54","17:59","19:04","20:09","22:20"]},{"id":"132","name":"Verrazzano Divino Amore Ovest","lat":37.48742306,"lon":15.06487197,"times":["06:11","07:11","08:15","09:20","10:25","11:30","12:35","13:43","14:45","15:50","16:55","18:00","19:05","20:10","22:21"]},{"id":"133","name":"Verrazzano Nitta","lat":37.48618802,"lon":15.065165,"times":["06:12","07:12","08:16","09:21","10:26","11:31","12:36","13:43","14:46","15:51","16:56","18:01","19:06","20:11","22:22"]},{"id":"1171","name":"Nitta Bonaventura","lat":37.48324203,"lon":15.06241388,"times":["06:13","07:13","08:17","09:22","10:27","11:32","12:37","13:44","14:47","15:52","16:57","18:02","19:07","20:12","22:23"]},{"id":"1710","name":"Librino Bonaventura","lat":37.48268274,"lon":15.06010655,"times":["06:13","07:13","08:17","09:22","10:27","11:32","12:37","13:45","14:47","15:52","16:57","18:02","19:07","20:12","22:23"]},{"id":"1334","name":"Castagnola Librino Sud (4)","lat":37.48109045,"lon":15.05901017,"times":["06:14","07:14","08:18","09:23","10:28","11:33","12:38","13:45","14:48","15:53","16:58","18:03","19:08","20:13","22:24"]},{"id":"756","name":"Fontanarossa Ovest","lat":37.47699354,"lon":15.06608443,"times":["06:16","07:16","08:20","09:25","10:30","11:35","12:40","13:48","14:50","15:55","17:00","18:05","19:10","20:15","22:26"]},{"id":"757","name":"Fontanarossa Goretti Ovest","lat":37.47445172,"lon":15.06601434,"times":["06:17","07:17","08:20","09:25","10:30","11:35","12:40","13:49","14:50","15:55","17:00","18:05","19:10","20:15","22:27"]},{"id":"33","name":"Goretti Campo Sud","lat":37.47385557,"lon":15.06819656,"times":["06:18","07:18","08:21","09:26","10:31","11:36","12:41","13:49","14:51","15:56","17:01","18:06","19:11","20:16","22:28"]},{"id":"34","name":"Goretti Chiesa Sud","lat":37.47389096,"lon":15.06935016,"times":["06:18","07:18","08:21","09:26","10:31","11:36","12:41","13:50","14:51","15:56","17:01","18:06","19:11","20:16","22:28"]},{"id":"35","name":"Goretti Sud","lat":37.4739797,"lon":15.07169132,"times":["06:18","07:18","08:21","09:26","10:31","11:36","12:41","13:50","14:51","15:56","17:01","18:06","19:11","20:16","22:28"]},{"id":"36","name":"Goretti Berretta","lat":37.47408631,"lon":15.07420215,"times":["06:19","07:19","08:22","09:27","10:32","11:37","12:42","13:51","14:52","15:57","17:02","18:07","19:12","20:17","22:29"]},{"id":"758","name":"S.G. La Rena Melilli Ovest","lat":37.47221045,"lon":15.07440671,"times":["06:20","07:20","08:23","09:28","10:33","11:38","12:43","13:52","14:53","15:58","17:03","18:08","19:13","20:18","22:30"]},{"id":"759","name":"S.G. La Rena Sud (1)","lat":37.47004537,"lon":15.0785408,"times":["06:21","07:21","08:24","09:29","10:34","11:39","12:44","13:53","14:54","15:59","17:04","18:09","19:14","20:19","22:31"]},{"id":"760","name":"S.G. Rena Ovest","lat":37.46614842,"lon":15.0829583,"times":["06:23","07:23","08:25","09:30","10:35","11:40","12:45","13:55","14:55","16:00","17:05","18:10","19:15","20:20","22:33"]},{"id":"761","name":"S.G. La Rena Nord (2)","lat":37.46433491,"lon":15.08111104,"times":["06:23","07:23","08:26","09:31","10:36","11:41","12:46","13:56","14:56","16:01","17:06","18:11","19:16","20:21","22:33"]},{"id":"657","name":"S.G. La Rena Nord (3)","lat":37.46393863,"lon":15.07732503,"times":["06:24","07:24","08:27","09:32","10:37","11:42","12:47","13:57","14:57","16:02","17:07","18:12","19:17","20:22","22:34"]},{"id":"762","name":"S. G. la Rena Primosole Nord ","lat":37.46356504,"lon":15.07314258,"times":["06:25","07:25","08:27","09:32","10:37","11:42","12:47","13:57","14:57","16:02","17:07","18:12","19:17","20:22","22:35"]},{"id":"763","name":"Maristaeli Ovest","lat":37.45999383,"lon":15.0658094,"times":["06:27","07:27","08:29","09:34","10:39","11:44","12:49","14:00","14:59","16:04","17:09","18:14","19:19","20:24","22:37"]},{"id":"764","name":"Primosole Maristaeli Ovest","lat":37.45724465,"lon":15.06580699,"times":["06:28","07:28","08:30","09:35","10:40","11:45","12:50","14:00","15:00","16:05","17:10","18:15","19:20","20:25","22:38"]},{"id":"765","name":"Primosole Ovest (2)","lat":37.45263867,"lon":15.06573512,"times":["06:29","07:29","08:31","09:36","10:41","11:46","12:51","14:02","15:01","16:06","17:11","18:16","19:21","20:26","22:39"]},{"id":"1177","name":"Primosole Strada 5 Ovest","lat":37.45046637,"lon":15.0657106,"times":["06:29","07:29","08:31","09:36","10:41","11:46","12:51","14:02","15:01","16:06","17:11","18:16","19:21","20:26","22:39"]},{"id":"1153","name":"Zona Industriale Strada 18 Mimosa","lat":37.44605882,"lon":15.0654015,"times":["06:30","07:30","08:32","09:37","10:42","11:47","12:52","14:04","15:02","16:07","17:12","18:17","19:22","20:27","22:40"]},{"id":"1154","name":"Zona Industriale Strada 18 Ovest","lat":37.44332766,"lon":15.06538782,"times":["06:31","07:31","08:33","09:38","10:43","11:48","12:53","14:04","15:03","16:08","17:13","18:18","19:23","20:28","22:41"]},{"id":"1086","name":"Zona Industriale Strada 18 (1)","lat":37.44012777,"lon":15.06540765,"times":["06:32","07:32","08:34","09:39","10:44","11:49","12:54","14:05","15:04","16:09","17:14","18:19","19:24","20:29","22:42"]},{"id":"769","name":"Primosole SS 114","lat":37.43243902,"lon":15.06543487,"times":["06:34","07:34","08:36","09:41","10:46","11:51","12:56","14:08","15:06","16:11","17:16","18:21","19:26","20:31","22:44"]},{"id":"770","name":"SS 114 Ovest (1)","lat":37.42812146,"lon":15.06536329,"times":["06:35","07:35","08:37","09:42","10:47","11:52","12:57","14:09","15:07","16:12","17:17","18:22","19:27","20:32","22:45"]},{"id":"1920","name":"Oasi del Simeto Ovest","lat":37.41418834,"lon":15.06525466,"times":["06:39","07:39","08:40","09:45","10:50","11:55","13:00","14:13","15:10","16:15","17:20","18:25","19:30","20:35","22:49"]},{"id":"654","name":"Terminal Vaccarizzo ","lat":37.37688677,"lon":15.08027334,"times":["06:50","07:50","08:50","09:55","11:00","12:05","13:10","14:25","15:20","16:25","17:30","18:35","19:40","20:45","23:00"]}],"sabato":[{"id":"6","name":"Terminal Stazione Centrale","lat":37.50740718,"lon":15.09911409,"times":["06:00","07:00","08:05","09:10","10:15","11:20","12:25","13:30","14:35","15:40","16:45","17:50","18:55","20:00","22:10"]},{"id":"145","name":"VI Aprile Sangiuliano","lat":37.50495073,"lon":15.09691772,"times":["06:00","07:00","08:05","09:10","10:15","11:20","12:25","13:30","14:35","15:40","16:45","17:50","18:55","20:00","22:10"]},{"id":"146","name":"Vittorio Emanuele II Cutelli","lat":37.50349308,"lon":15.09374791,"times":["06:01","07:01","08:06","09:11","10:16","11:21","12:26","13:31","14:36","15:41","16:46","17:51","18:56","20:01","22:11"]},{"id":"147","name":"Vittorio Emanuele II Platamone","lat":37.50320663,"lon":15.09120191,"times":["06:02","07:02","08:06","09:11","10:16","11:21","12:26","13:32","14:36","15:41","16:46","17:51","18:56","20:01","22:12"]},{"id":"1783","name":"Vittorio Emanuele II San Placido","lat":37.50301843,"lon":15.08978744,"times":["06:02","07:02","08:07","09:12","10:17","11:22","12:27","13:32","14:37","15:42","16:47","17:52","18:57","20:02","22:12"]},{"id":"1860","name":"Borsellino","lat":37.50198616,"lon":15.08902438,"times":["06:02","07:02","08:07","09:12","10:17","11:22","12:27","13:33","14:37","15:42","16:47","17:52","18:57","20:02","22:12"]},{"id":"10","name":"Colombo Aretusa","lat":37.49802484,"lon":15.0898154,"times":["06:04","07:04","08:08","09:13","10:18","11:23","12:28","13:34","14:38","15:43","16:48","17:53","18:58","20:03","22:14"]},{"id":"11","name":"Tempio Stella Polare Ovest","lat":37.49534744,"lon":15.09025339,"times":["06:04","07:04","08:09","09:14","10:19","11:24","12:29","13:35","14:39","15:44","16:49","17:54","18:59","20:04","22:14"]},{"id":"12","name":"Tempio Principe Ovest","lat":37.49386943,"lon":15.08995749,"times":["06:05","07:05","08:09","09:14","10:19","11:24","12:29","13:35","14:39","15:44","16:49","17:54","18:59","20:04","22:15"]},{"id":"13","name":"Tempio Assunta Ovest","lat":37.49290509,"lon":15.08979796,"times":["06:05","07:05","08:09","09:14","10:19","11:24","12:29","13:35","14:39","15:44","16:49","17:54","18:59","20:04","22:15"]},{"id":"849","name":"Assunta","lat":37.49286236,"lon":15.08666437,"times":["06:06","07:06","08:10","09:15","10:20","11:25","12:30","13:36","14:40","15:45","16:50","17:55","19:00","20:05","22:16"]},{"id":"742","name":"Concordia Fiducia","lat":37.49315247,"lon":15.08434565,"times":["06:06","07:06","08:10","09:15","10:20","11:25","12:30","13:37","14:40","15:45","16:50","17:55","19:00","20:05","22:16"]},{"id":"743","name":"Concordia Vento Nord","lat":37.49343362,"lon":15.08189116,"times":["06:07","07:07","08:11","09:16","10:21","11:26","12:31","13:37","14:41","15:46","16:51","17:56","19:01","20:06","22:17"]},{"id":"744","name":"Concordia De Lorenzo Nord","lat":37.49372382,"lon":15.07931222,"times":["06:07","07:07","08:11","09:16","10:21","11:26","12:31","13:38","14:41","15:46","16:51","17:56","19:01","20:06","22:17"]},{"id":"745","name":"Concordia Adamo","lat":37.49402295,"lon":15.07677851,"times":["06:08","07:08","08:12","09:17","10:22","11:27","12:32","13:38","14:42","15:47","16:52","17:57","19:02","20:07","22:18"]},{"id":"746","name":"Concordia Poulet","lat":37.49437621,"lon":15.07406384,"times":["06:08","07:08","08:12","09:17","10:22","11:27","12:32","13:39","14:42","15:47","16:52","17:57","19:02","20:07","22:18"]},{"id":"128","name":"Acquicella Regione","lat":37.49304268,"lon":15.07328197,"times":["06:09","07:09","08:13","09:18","10:23","11:28","12:33","13:40","14:43","15:48","16:53","17:58","19:03","20:08","22:19"]},{"id":"129","name":"Acquicella Ovest","lat":37.49084355,"lon":15.07294046,"times":["06:09","07:09","08:13","09:18","10:23","11:28","12:33","13:40","14:43","15:48","16:53","17:58","19:03","20:08","22:19"]},{"id":"130","name":"Acquicella Zia Lisa Ovest","lat":37.48946476,"lon":15.07244139,"times":["06:10","07:10","08:14","09:19","10:24","11:29","12:34","13:41","14:44","15:49","16:54","17:59","19:04","20:09","22:20"]},{"id":"131","name":"Divino Amore ","lat":37.48825831,"lon":15.07015526,"times":["06:10","07:10","08:14","09:19","10:24","11:29","12:34","13:41","14:44","15:49","16:54","17:59","19:04","20:09","22:20"]},{"id":"132","name":"Verrazzano Divino Amore Ovest","lat":37.48742306,"lon":15.06487197,"times":["06:11","07:11","08:15","09:20","10:25","11:30","12:35","13:43","14:45","15:50","16:55","18:00","19:05","20:10","22:21"]},{"id":"133","name":"Verrazzano Nitta","lat":37.48618802,"lon":15.065165,"times":["06:12","07:12","08:16","09:21","10:26","11:31","12:36","13:43","14:46","15:51","16:56","18:01","19:06","20:11","22:22"]},{"id":"1171","name":"Nitta Bonaventura","lat":37.48324203,"lon":15.06241388,"times":["06:13","07:13","08:17","09:22","10:27","11:32","12:37","13:44","14:47","15:52","16:57","18:02","19:07","20:12","22:23"]},{"id":"1710","name":"Librino Bonaventura","lat":37.48268274,"lon":15.06010655,"times":["06:13","07:13","08:17","09:22","10:27","11:32","12:37","13:45","14:47","15:52","16:57","18:02","19:07","20:12","22:23"]},{"id":"1334","name":"Castagnola Librino Sud (4)","lat":37.48109045,"lon":15.05901017,"times":["06:14","07:14","08:18","09:23","10:28","11:33","12:38","13:45","14:48","15:53","16:58","18:03","19:08","20:13","22:24"]},{"id":"756","name":"Fontanarossa Ovest","lat":37.47699354,"lon":15.06608443,"times":["06:16","07:16","08:20","09:25","10:30","11:35","12:40","13:48","14:50","15:55","17:00","18:05","19:10","20:15","22:26"]},{"id":"757","name":"Fontanarossa Goretti Ovest","lat":37.47445172,"lon":15.06601434,"times":["06:17","07:17","08:20","09:25","10:30","11:35","12:40","13:49","14:50","15:55","17:00","18:05","19:10","20:15","22:27"]},{"id":"33","name":"Goretti Campo Sud","lat":37.47385557,"lon":15.06819656,"times":["06:18","07:18","08:21","09:26","10:31","11:36","12:41","13:49","14:51","15:56","17:01","18:06","19:11","20:16","22:28"]},{"id":"34","name":"Goretti Chiesa Sud","lat":37.47389096,"lon":15.06935016,"times":["06:18","07:18","08:21","09:26","10:31","11:36","12:41","13:50","14:51","15:56","17:01","18:06","19:11","20:16","22:28"]},{"id":"35","name":"Goretti Sud","lat":37.4739797,"lon":15.07169132,"times":["06:18","07:18","08:21","09:26","10:31","11:36","12:41","13:50","14:51","15:56","17:01","18:06","19:11","20:16","22:28"]},{"id":"36","name":"Goretti Berretta","lat":37.47408631,"lon":15.07420215,"times":["06:19","07:19","08:22","09:27","10:32","11:37","12:42","13:51","14:52","15:57","17:02","18:07","19:12","20:17","22:29"]},{"id":"758","name":"S.G. La Rena Melilli Ovest","lat":37.47221045,"lon":15.07440671,"times":["06:20","07:20","08:23","09:28","10:33","11:38","12:43","13:52","14:53","15:58","17:03","18:08","19:13","20:18","22:30"]},{"id":"759","name":"S.G. La Rena Sud (1)","lat":37.47004537,"lon":15.0785408,"times":["06:21","07:21","08:24","09:29","10:34","11:39","12:44","13:53","14:54","15:59","17:04","18:09","19:14","20:19","22:31"]},{"id":"760","name":"S.G. Rena Ovest","lat":37.46614842,"lon":15.0829583,"times":["06:23","07:23","08:25","09:30","10:35","11:40","12:45","13:55","14:55","16:00","17:05","18:10","19:15","20:20","22:33"]},{"id":"761","name":"S.G. La Rena Nord (2)","lat":37.46433491,"lon":15.08111104,"times":["06:23","07:23","08:26","09:31","10:36","11:41","12:46","13:56","14:56","16:01","17:06","18:11","19:16","20:21","22:33"]},{"id":"657","name":"S.G. La Rena Nord (3)","lat":37.46393863,"lon":15.07732503,"times":["06:24","07:24","08:27","09:32","10:37","11:42","12:47","13:57","14:57","16:02","17:07","18:12","19:17","20:22","22:34"]},{"id":"762","name":"S. G. la Rena Primosole Nord ","lat":37.46356504,"lon":15.07314258,"times":["06:25","07:25","08:27","09:32","10:37","11:42","12:47","13:57","14:57","16:02","17:07","18:12","19:17","20:22","22:35"]},{"id":"763","name":"Maristaeli Ovest","lat":37.45999383,"lon":15.0658094,"times":["06:27","07:27","08:29","09:34","10:39","11:44","12:49","14:00","14:59","16:04","17:09","18:14","19:19","20:24","22:37"]},{"id":"764","name":"Primosole Maristaeli Ovest","lat":37.45724465,"lon":15.06580699,"times":["06:28","07:28","08:30","09:35","10:40","11:45","12:50","14:00","15:00","16:05","17:10","18:15","19:20","20:25","22:38"]},{"id":"765","name":"Primosole Ovest (2)","lat":37.45263867,"lon":15.06573512,"times":["06:29","07:29","08:31","09:36","10:41","11:46","12:51","14:02","15:01","16:06","17:11","18:16","19:21","20:26","22:39"]},{"id":"1177","name":"Primosole Strada 5 Ovest","lat":37.45046637,"lon":15.0657106,"times":["06:29","07:29","08:31","09:36","10:41","11:46","12:51","14:02","15:01","16:06","17:11","18:16","19:21","20:26","22:39"]},{"id":"1153","name":"Zona Industriale Strada 18 Mimosa","lat":37.44605882,"lon":15.0654015,"times":["06:30","07:30","08:32","09:37","10:42","11:47","12:52","14:04","15:02","16:07","17:12","18:17","19:22","20:27","22:40"]},{"id":"1154","name":"Zona Industriale Strada 18 Ovest","lat":37.44332766,"lon":15.06538782,"times":["06:31","07:31","08:33","09:38","10:43","11:48","12:53","14:04","15:03","16:08","17:13","18:18","19:23","20:28","22:41"]},{"id":"1086","name":"Zona Industriale Strada 18 (1)","lat":37.44012777,"lon":15.06540765,"times":["06:32","07:32","08:34","09:39","10:44","11:49","12:54","14:05","15:04","16:09","17:14","18:19","19:24","20:29","22:42"]},{"id":"769","name":"Primosole SS 114","lat":37.43243902,"lon":15.06543487,"times":["06:34","07:34","08:36","09:41","10:46","11:51","12:56","14:08","15:06","16:11","17:16","18:21","19:26","20:31","22:44"]},{"id":"770","name":"SS 114 Ovest (1)","lat":37.42812146,"lon":15.06536329,"times":["06:35","07:35","08:37","09:42","10:47","11:52","12:57","14:09","15:07","16:12","17:17","18:22","19:27","20:32","22:45"]},{"id":"1920","name":"Oasi del Simeto Ovest","lat":37.41418834,"lon":15.06525466,"times":["06:39","07:39","08:40","09:45","10:50","11:55","13:00","14:13","15:10","16:15","17:20","18:25","19:30","20:35","22:49"]},{"id":"654","name":"Terminal Vaccarizzo ","lat":37.37688677,"lon":15.08027334,"times":["06:50","07:50","08:50","09:55","11:00","12:05","13:10","14:25","15:20","16:25","17:30","18:35","19:40","20:45","23:00"]}],"domenica":[{"id":"6","name":"Terminal Stazione Centrale","lat":37.50740718,"lon":15.09911409,"times":["07:00","08:05","09:10","10:15","11:20","12:25","13:30","14:35","15:40","16:45","17:50","18:55","20:00"]},{"id":"145","name":"VI Aprile Sangiuliano","lat":37.50495073,"lon":15.09691772,"times":["07:00","08:05","09:10","10:15","11:20","12:25","13:30","14:35","15:40","16:45","17:50","18:55","20:00"]},{"id":"146","name":"Vittorio Emanuele II Cutelli","lat":37.50349308,"lon":15.09374791,"times":["07:01","08:06","09:11","10:16","11:21","12:26","13:31","14:36","15:41","16:46","17:51","18:56","20:01"]},{"id":"147","name":"Vittorio Emanuele II Platamone","lat":37.50320663,"lon":15.09120191,"times":["07:02","08:06","09:11","10:16","11:21","12:26","13:32","14:36","15:41","16:46","17:51","18:56","20:01"]},{"id":"1783","name":"Vittorio Emanuele II San Placido","lat":37.50301843,"lon":15.08978744,"times":["07:02","08:07","09:12","10:17","11:22","12:27","13:32","14:37","15:42","16:47","17:52","18:57","20:01"]},{"id":"1860","name":"Borsellino","lat":37.50198616,"lon":15.08902438,"times":["07:02","08:07","09:12","10:17","11:22","12:27","13:33","14:37","15:42","16:47","17:52","18:57","20:02"]},{"id":"10","name":"Colombo Aretusa","lat":37.49802484,"lon":15.0898154,"times":["07:04","08:08","09:13","10:18","11:23","12:28","13:34","14:38","15:43","16:48","17:53","18:58","20:03"]},{"id":"11","name":"Tempio Stella Polare Ovest","lat":37.49534744,"lon":15.09025339,"times":["07:04","08:09","09:14","10:19","11:24","12:29","13:35","14:39","15:44","16:49","17:54","18:59","20:03"]},{"id":"12","name":"Tempio Principe Ovest","lat":37.49386943,"lon":15.08995749,"times":["07:05","08:09","09:14","10:19","11:24","12:29","13:35","14:39","15:44","16:49","17:54","18:59","20:04"]},{"id":"13","name":"Tempio Assunta Ovest","lat":37.49290509,"lon":15.08979796,"times":["07:05","08:09","09:14","10:19","11:24","12:29","13:35","14:39","15:44","16:49","17:54","18:59","20:04"]},{"id":"849","name":"Assunta","lat":37.49286236,"lon":15.08666437,"times":["07:06","08:10","09:15","10:20","11:25","12:30","13:36","14:40","15:45","16:50","17:55","19:00","20:04"]},{"id":"742","name":"Concordia Fiducia","lat":37.49315247,"lon":15.08434565,"times":["07:06","08:10","09:15","10:20","11:25","12:30","13:37","14:40","15:45","16:50","17:55","19:00","20:05"]},{"id":"743","name":"Concordia Vento Nord","lat":37.49343362,"lon":15.08189116,"times":["07:07","08:11","09:16","10:21","11:26","12:31","13:37","14:41","15:46","16:51","17:56","19:01","20:05"]},{"id":"744","name":"Concordia De Lorenzo Nord","lat":37.49372382,"lon":15.07931222,"times":["07:07","08:11","09:16","10:21","11:26","12:31","13:38","14:41","15:46","16:51","17:56","19:01","20:06"]},{"id":"745","name":"Concordia Adamo","lat":37.49402295,"lon":15.07677851,"times":["07:08","08:12","09:17","10:22","11:27","12:32","13:38","14:42","15:47","16:52","17:57","19:02","20:06"]},{"id":"746","name":"Concordia Poulet","lat":37.49437621,"lon":15.07406384,"times":["07:08","08:12","09:17","10:22","11:27","12:32","13:39","14:42","15:47","16:52","17:57","19:02","20:06"]},{"id":"128","name":"Acquicella Regione","lat":37.49304268,"lon":15.07328197,"times":["07:09","08:13","09:18","10:23","11:28","12:33","13:40","14:43","15:48","16:53","17:58","19:03","20:07"]},{"id":"129","name":"Acquicella Ovest","lat":37.49084355,"lon":15.07294046,"times":["07:09","08:13","09:18","10:23","11:28","12:33","13:40","14:43","15:48","16:53","17:58","19:03","20:07"]},{"id":"130","name":"Acquicella Zia Lisa Ovest","lat":37.48946476,"lon":15.07244139,"times":["07:10","08:14","09:19","10:24","11:29","12:34","13:41","14:44","15:49","16:54","17:59","19:04","20:08"]},{"id":"131","name":"Divino Amore ","lat":37.48825831,"lon":15.07015526,"times":["07:10","08:14","09:19","10:24","11:29","12:34","13:41","14:44","15:49","16:54","17:59","19:04","20:08"]},{"id":"132","name":"Verrazzano Divino Amore Ovest","lat":37.48742306,"lon":15.06487197,"times":["07:11","08:15","09:20","10:25","11:30","12:35","13:43","14:45","15:50","16:55","18:00","19:05","20:09"]},{"id":"133","name":"Verrazzano Nitta","lat":37.48618802,"lon":15.065165,"times":["07:12","08:16","09:21","10:26","11:31","12:36","13:43","14:46","15:51","16:56","18:01","19:06","20:09"]},{"id":"1171","name":"Nitta Bonaventura","lat":37.48324203,"lon":15.06241388,"times":["07:13","08:17","09:22","10:27","11:32","12:37","13:44","14:47","15:52","16:57","18:02","19:07","20:10"]},{"id":"1710","name":"Librino Bonaventura","lat":37.48268274,"lon":15.06010655,"times":["07:13","08:17","09:22","10:27","11:32","12:37","13:45","14:47","15:52","16:57","18:02","19:07","20:11"]},{"id":"1334","name":"Castagnola Librino Sud (4)","lat":37.48109045,"lon":15.05901017,"times":["07:14","08:18","09:23","10:28","11:33","12:38","13:45","14:48","15:53","16:58","18:03","19:08","20:11"]},{"id":"756","name":"Fontanarossa Ovest","lat":37.47699354,"lon":15.06608443,"times":["07:16","08:20","09:25","10:30","11:35","12:40","13:48","14:50","15:55","17:00","18:05","19:10","20:13"]},{"id":"757","name":"Fontanarossa Goretti Ovest","lat":37.47445172,"lon":15.06601434,"times":["07:17","08:20","09:25","10:30","11:35","12:40","13:49","14:50","15:55","17:00","18:05","19:10","20:14"]},{"id":"33","name":"Goretti Campo Sud","lat":37.47385557,"lon":15.06819656,"times":["07:18","08:21","09:26","10:31","11:36","12:41","13:49","14:51","15:56","17:01","18:06","19:11","20:14"]},{"id":"34","name":"Goretti Chiesa Sud","lat":37.47389096,"lon":15.06935016,"times":["07:18","08:21","09:26","10:31","11:36","12:41","13:50","14:51","15:56","17:01","18:06","19:11","20:14"]},{"id":"35","name":"Goretti Sud","lat":37.4739797,"lon":15.07169132,"times":["07:18","08:21","09:26","10:31","11:36","12:41","13:50","14:51","15:56","17:01","18:06","19:11","20:15"]},{"id":"36","name":"Goretti Berretta","lat":37.47408631,"lon":15.07420215,"times":["07:19","08:22","09:27","10:32","11:37","12:42","13:51","14:52","15:57","17:02","18:07","19:12","20:15"]},{"id":"758","name":"S.G. La Rena Melilli Ovest","lat":37.47221045,"lon":15.07440671,"times":["07:20","08:23","09:28","10:33","11:38","12:43","13:52","14:53","15:58","17:03","18:08","19:13","20:16"]},{"id":"759","name":"S.G. La Rena Sud (1)","lat":37.47004537,"lon":15.0785408,"times":["07:21","08:24","09:29","10:34","11:39","12:44","13:53","14:54","15:59","17:04","18:09","19:14","20:17"]},{"id":"760","name":"S.G. Rena Ovest","lat":37.46614842,"lon":15.0829583,"times":["07:23","08:25","09:30","10:35","11:40","12:45","13:55","14:55","16:00","17:05","18:10","19:15","20:18"]},{"id":"761","name":"S.G. La Rena Nord (2)","lat":37.46433491,"lon":15.08111104,"times":["07:23","08:26","09:31","10:36","11:41","12:46","13:56","14:56","16:01","17:06","18:11","19:16","20:19"]},{"id":"657","name":"S.G. La Rena Nord (3)","lat":37.46393863,"lon":15.07732503,"times":["07:24","08:27","09:32","10:37","11:42","12:47","13:57","14:57","16:02","17:07","18:12","19:17","20:19"]},{"id":"762","name":"S. G. la Rena Primosole Nord ","lat":37.46356504,"lon":15.07314258,"times":["07:25","08:27","09:32","10:37","11:42","12:47","13:57","14:57","16:02","17:07","18:12","19:17","20:20"]},{"id":"763","name":"Maristaeli Ovest","lat":37.45999383,"lon":15.0658094,"times":["07:27","08:29","09:34","10:39","11:44","12:49","14:00","14:59","16:04","17:09","18:14","19:19","20:21"]},{"id":"764","name":"Primosole Maristaeli Ovest","lat":37.45724465,"lon":15.06580699,"times":["07:28","08:30","09:35","10:40","11:45","12:50","14:00","15:00","16:05","17:10","18:15","19:20","20:22"]},{"id":"765","name":"Primosole Ovest (2)","lat":37.45263867,"lon":15.06573512,"times":["07:29","08:31","09:36","10:41","11:46","12:51","14:02","15:01","16:06","17:11","18:16","19:21","20:23"]},{"id":"1177","name":"Primosole Strada 5 Ovest","lat":37.45046637,"lon":15.0657106,"times":["07:29","08:31","09:36","10:41","11:46","12:51","14:02","15:01","16:06","17:11","18:16","19:21","20:23"]},{"id":"1153","name":"Zona Industriale Strada 18 Mimosa","lat":37.44605882,"lon":15.0654015,"times":["07:30","08:32","09:37","10:42","11:47","12:52","14:04","15:02","16:07","17:12","18:17","19:22","20:24"]},{"id":"1154","name":"Zona Industriale Strada 18 Ovest","lat":37.44332766,"lon":15.06538782,"times":["07:31","08:33","09:38","10:43","11:48","12:53","14:04","15:03","16:08","17:13","18:18","19:23","20:25"]},{"id":"1086","name":"Zona Industriale Strada 18 (1)","lat":37.44012777,"lon":15.06540765,"times":["07:32","08:34","09:39","10:44","11:49","12:54","14:05","15:04","16:09","17:14","18:19","19:24","20:25"]},{"id":"769","name":"Primosole SS 114","lat":37.43243902,"lon":15.06543487,"times":["07:34","08:36","09:41","10:46","11:51","12:56","14:08","15:06","16:11","17:16","18:21","19:26","20:27"]},{"id":"770","name":"SS 114 Ovest (1)","lat":37.42812146,"lon":15.06536329,"times":["07:35","08:37","09:42","10:47","11:52","12:57","14:09","15:07","16:12","17:17","18:22","19:27","20:28"]},{"id":"1920","name":"Oasi del Simeto Ovest","lat":37.41418834,"lon":15.06525466,"times":["07:39","08:40","09:45","10:50","11:55","13:00","14:13","15:10","16:15","17:20","18:25","19:30","20:31"]},{"id":"654","name":"Terminal Vaccarizzo ","lat":37.37688677,"lon":15.08027334,"times":["07:50","08:50","09:55","11:00","12:05","13:10","14:25","15:20","16:25","17:30","18:35","19:40","20:40"]}]},"1":{"feriale":[{"id":"654","name":"Terminal Vaccarizzo ","lat":37.37688677,"lon":15.08027334,"times":["06:00","06:50","07:50","08:50","09:55","11:00","12:05","13:10","14:25","15:20","16:25","17:30","18:35","19:40","20:45"]},{"id":"787","name":"Coda Volpe","lat":37.37895459,"lon":15.07470697,"times":["06:01","06:51","07:51","08:52","09:57","11:02","12:07","13:12","14:26","15:22","16:27","17:32","18:37","19:41","20:47"]},{"id":"786","name":"Coda Volpe Nocciolo","lat":37.37400739,"lon":15.07244316,"times":["06:02","06:53","07:53","08:53","09:58","11:03","12:08","13:13","14:28","15:23","16:28","17:33","18:38","19:43","20:48"]},{"id":"1854","name":"Nocciolo Fresia","lat":37.37487582,"lon":15.0682694,"times":["06:03","06:54","07:54","08:54","09:59","11:04","12:09","13:14","14:29","15:24","16:29","17:34","18:39","19:43","20:49"]},{"id":"1855","name":"Nocciolo Lentisco","lat":37.37601776,"lon":15.06522976,"times":["06:03","06:54","07:55","08:55","10:00","11:05","12:10","13:15","14:29","15:25","16:30","17:35","18:40","19:44","20:50"]},{"id":"1856","name":"Valeriana Nocciolo (2)","lat":37.37597986,"lon":15.06345138,"times":["06:04","06:55","07:55","08:56","10:01","11:06","12:11","13:16","14:30","15:26","16:31","17:36","18:41","19:45","20:51"]},{"id":"1903","name":"Valeriana (1)","lat":37.37691611,"lon":15.06190928,"times":["06:04","06:55","07:56","08:56","10:01","11:06","12:11","13:16","14:30","15:26","16:31","17:36","18:41","19:45","20:51"]},{"id":"1904","name":"Valeriana (2)","lat":37.37773471,"lon":15.0606778,"times":["06:04","06:56","07:56","08:56","10:01","11:06","12:11","13:16","14:31","15:26","16:31","17:36","18:41","19:45","20:51"]},{"id":"1905","name":"Vischio (1)","lat":37.37716537,"lon":15.05945066,"times":["06:05","06:56","07:57","08:57","10:02","11:07","12:12","13:17","14:31","15:27","16:32","17:37","18:42","19:46","20:52"]},{"id":"1906","name":"Vischio (2)","lat":37.37528008,"lon":15.06210965,"times":["06:05","06:57","07:57","08:58","10:03","11:08","12:13","13:18","14:32","15:28","16:33","17:38","18:43","19:46","20:53"]},{"id":"1857","name":"Vischio (3)","lat":37.37337205,"lon":15.06489776,"times":["06:06","06:58","07:58","08:59","10:04","11:09","12:14","13:19","14:33","15:29","16:34","17:39","18:44","19:47","20:54"]},{"id":"1858","name":"Valeriana Vischio","lat":37.37287343,"lon":15.06775472,"times":["06:07","06:58","07:59","09:00","10:05","11:10","12:15","13:20","14:33","15:30","16:35","17:40","18:45","19:48","20:55"]},{"id":"1859","name":"Valeriana Nocciolo (1)","lat":37.37366116,"lon":15.07057622,"times":["06:07","06:59","08:00","09:00","10:05","11:10","12:15","13:20","14:34","15:30","16:35","17:40","18:45","19:49","20:55"]},{"id":"785","name":"SP 212 Coda Volpe","lat":37.36595482,"lon":15.06222625,"times":["06:10","07:03","08:04","09:04","10:09","11:14","12:19","13:24","14:38","15:34","16:39","17:44","18:49","19:52","20:59"]},{"id":"784","name":"SP 212 Del Giunco","lat":37.36567345,"lon":15.06580599,"times":["06:11","07:03","08:04","09:05","10:10","11:15","12:20","13:25","14:38","15:35","16:40","17:45","18:50","19:52","21:00"]},{"id":"783","name":"SP 212 Dell'Eufrasia","lat":37.36581642,"lon":15.0680196,"times":["06:11","07:04","08:05","09:06","10:11","11:16","12:21","13:26","14:39","15:36","16:41","17:46","18:51","19:53","21:01"]},{"id":"782","name":"SP 212 Dorella","lat":37.36595031,"lon":15.07027839,"times":["06:11","07:04","08:05","09:06","10:11","11:16","12:21","13:26","14:39","15:36","16:41","17:46","18:51","19:53","21:01"]},{"id":"781","name":"SP 212 Capelvenere","lat":37.36620047,"lon":15.07392638,"times":["06:12","07:05","08:06","09:07","10:12","11:17","12:22","13:27","14:40","15:37","16:42","17:47","18:52","19:54","21:02"]},{"id":"780","name":"SP 212 Camedrio","lat":37.36634324,"lon":15.07621908,"times":["06:12","07:06","08:07","09:08","10:13","11:18","12:23","13:28","14:41","15:38","16:43","17:48","18:53","19:55","21:03"]},{"id":"779","name":"SP 212 Vaccarizzo","lat":37.36646822,"lon":15.07807132,"times":["06:13","07:06","08:07","09:08","10:13","11:18","12:23","13:28","14:41","15:38","16:43","17:48","18:53","19:55","21:03"]},{"id":"793","name":"SS 114 Tangenziale","lat":37.41007592,"lon":15.06524591,"times":["06:24","07:20","08:22","09:24","10:29","11:34","12:39","13:44","14:55","15:54","16:59","18:04","19:09","20:08","21:19"]},{"id":"1921","name":"Oasi del Simeto Est","lat":37.41503997,"lon":15.06528919,"times":["06:25","07:21","08:23","09:25","10:30","11:35","12:40","13:45","14:56","15:55","17:00","18:05","19:10","20:09","21:20"]},{"id":"794","name":"SS 114 Est (1)","lat":37.42805829,"lon":15.06549887,"times":["06:27","07:24","08:27","09:29","10:34","11:39","12:44","13:49","14:59","15:59","17:04","18:09","19:14","20:12","21:24"]},{"id":"1090","name":"Zona Industriale Strada 18 (2)","lat":37.4399565,"lon":15.0654188,"times":["06:30","07:27","08:30","09:32","10:37","11:42","12:47","13:52","15:02","16:02","17:07","18:12","19:17","20:15","21:27"]},{"id":"798","name":"Primosole Kennedy","lat":37.44348975,"lon":15.06567059,"times":["06:31","07:28","08:31","09:34","10:39","11:44","12:49","13:54","15:03","16:04","17:09","18:14","19:19","20:16","21:29"]},{"id":"799","name":"Primosole Strada 5 Est","lat":37.44999762,"lon":15.06577803,"times":["06:32","07:30","08:33","09:36","10:41","11:46","12:51","13:56","15:05","16:06","17:11","18:16","19:21","20:17","21:31"]},{"id":"800","name":"Primosole Est (2)","lat":37.45276482,"lon":15.06581437,"times":["06:33","07:31","08:34","09:36","10:41","11:46","12:51","13:56","15:06","16:06","17:11","18:16","19:21","20:18","21:31"]},{"id":"801","name":"Primosole Maristaeli Est","lat":37.45701927,"lon":15.06586333,"times":["06:33","07:32","08:35","09:38","10:43","11:48","12:53","13:58","15:07","16:08","17:13","18:18","19:23","20:19","21:33"]},{"id":"802","name":"Maristaeli Est","lat":37.45997233,"lon":15.06595534,"times":["06:34","07:33","08:36","09:38","10:43","11:48","12:53","13:58","15:08","16:08","17:13","18:18","19:23","20:20","21:33"]},{"id":"937","name":"S.G. La Rena Primosole Sud","lat":37.46344142,"lon":15.0737167,"times":["06:36","07:35","08:38","09:41","10:46","11:51","12:56","14:01","15:10","16:11","17:16","18:21","19:26","20:22","21:36"]},{"id":"803","name":"S.G. La Rena Sud (3)","lat":37.4637546,"lon":15.07732426,"times":["06:37","07:36","08:39","09:42","10:47","11:52","12:57","14:02","15:11","16:12","17:17","18:22","19:27","20:23","21:37"]},{"id":"804","name":"S.G. La Rena Sud (2)","lat":37.46416169,"lon":15.08132799,"times":["06:37","07:37","08:40","09:43","10:48","11:53","12:58","14:03","15:12","16:13","17:18","18:23","19:28","20:23","21:38"]},{"id":"805","name":"S.G. La Rena Nord (1)","lat":37.47022877,"lon":15.07844556,"times":["06:39","07:39","08:43","09:46","10:51","11:56","13:01","14:06","15:14","16:16","17:21","18:26","19:31","20:26","21:41"]},{"id":"806","name":"S.G. La Rena Melilli Est","lat":37.47156248,"lon":15.07419966,"times":["06:40","07:40","08:44","09:47","10:52","11:57","13:02","14:07","15:15","16:17","17:22","18:27","19:32","20:27","21:42"]},{"id":"996","name":"S. G. La Rena Goretti Est (1)","lat":37.47330155,"lon":15.07510613,"times":["06:41","07:41","08:44","09:48","10:53","11:58","13:03","14:08","15:16","16:18","17:23","18:28","19:33","20:28","21:43"]},{"id":"25","name":"Goretti S.G.La Rena","lat":37.4741313,"lon":15.0743266,"times":["06:41","07:42","08:45","09:48","10:53","11:58","13:03","14:08","15:17","16:18","17:23","18:28","19:33","20:28","21:43"]},{"id":"26","name":"Goretti Nord ","lat":37.47407016,"lon":15.07115986,"times":["06:42","07:42","08:46","09:49","10:54","11:59","13:04","14:09","15:17","16:19","17:24","18:29","19:34","20:29","21:44"]},{"id":"27","name":"Goretti Chiesa Nord","lat":37.4739813,"lon":15.06889711,"times":["06:42","07:43","08:46","09:50","10:55","12:00","13:05","14:10","15:18","16:20","17:25","18:30","19:35","20:29","21:45"]},{"id":"28","name":"Goretti Campo Nord","lat":37.47392848,"lon":15.06680555,"times":["06:42","07:43","08:47","09:50","10:55","12:00","13:05","14:10","15:18","16:20","17:25","18:30","19:35","20:30","21:45"]},{"id":"807","name":"Fontanarossa Goretti Est","lat":37.47449676,"lon":15.06607093,"times":["06:43","07:43","08:47","09:51","10:56","12:01","13:06","14:11","15:18","16:21","17:26","18:31","19:36","20:30","21:46"]},{"id":"808","name":"Fontanarossa Est","lat":37.47731802,"lon":15.06611865,"times":["06:43","07:44","08:48","09:51","10:56","12:01","13:06","14:11","15:19","16:21","17:26","18:31","19:36","20:31","21:46"]},{"id":"1379","name":"Bonaventura Castagnola","lat":37.48242284,"lon":15.06037724,"times":["06:45","07:47","08:50","09:54","10:59","12:04","13:09","14:14","15:22","16:24","17:29","18:34","19:39","20:33","21:49"]},{"id":"1172","name":"Bonaventura Nitta","lat":37.48307971,"lon":15.06254947,"times":["06:46","07:47","08:51","09:55","11:00","12:05","13:10","14:15","15:22","16:25","17:30","18:35","19:40","20:33","21:50"]},{"id":"1893","name":"Nitta","lat":37.48457477,"lon":15.06489885,"times":["06:46","07:48","08:52","09:56","11:01","12:06","13:11","14:16","15:23","16:26","17:31","18:36","19:41","20:34","21:51"]},{"id":"61","name":"Verrazzano San Jacopo","lat":37.48627179,"lon":15.06543605,"times":["06:47","07:48","08:52","09:56","11:01","12:06","13:11","14:16","15:23","16:26","17:31","18:36","19:41","20:34","21:51"]},{"id":"64","name":"Verrazzano Divino Amore Est","lat":37.48742297,"lon":15.06503033,"times":["06:47","07:49","08:53","09:57","11:02","12:07","13:12","14:17","15:24","16:27","17:32","18:37","19:42","20:35","21:52"]},{"id":"1772","name":"Divino Amore Cimitero ","lat":37.48811475,"lon":15.06904658,"times":["06:48","07:50","08:54","09:58","11:03","12:08","13:13","14:18","15:25","16:28","17:33","18:38","19:43","20:36","21:53"]},{"id":"65","name":"Divino Amore San Jacopo ","lat":37.48823987,"lon":15.07084526,"times":["06:48","07:50","08:54","09:58","11:03","12:08","13:13","14:18","15:25","16:28","17:33","18:38","19:43","20:36","21:53"]},{"id":"66","name":"Acquicella Zia Lisa Est","lat":37.48923018,"lon":15.07281446,"times":["06:48","07:51","08:55","09:59","11:04","12:09","13:14","14:19","15:26","16:29","17:34","18:39","19:44","20:36","21:54"]},{"id":"67","name":"Acquicella Est","lat":37.49090646,"lon":15.07323463,"times":["06:49","07:51","08:55","09:59","11:04","12:09","13:14","14:19","15:26","16:29","17:34","18:39","19:44","20:37","21:54"]},{"id":"68","name":"Acquicella Antonini","lat":37.4932858,"lon":15.07367814,"times":["06:49","07:52","08:56","10:00","11:05","12:10","13:15","14:20","15:27","16:30","17:35","18:40","19:45","20:38","21:55"]},{"id":"824","name":"Concordia Acquicella","lat":37.494295,"lon":15.07421083,"times":["06:50","07:52","08:56","10:01","11:06","12:11","13:16","14:21","15:27","16:31","17:36","18:41","19:46","20:38","21:56"]},{"id":"825","name":"Concordia Ferrera","lat":37.49394165,"lon":15.07703862,"times":["06:50","07:53","08:57","10:01","11:06","12:11","13:16","14:21","15:28","16:31","17:36","18:41","19:46","20:39","21:56"]},{"id":"826","name":"Concordia De Lorenzo Sud","lat":37.49366952,"lon":15.07964022,"times":["06:51","07:53","08:58","10:02","11:07","12:12","13:17","14:22","15:28","16:32","17:37","18:42","19:47","20:39","21:57"]},{"id":"827","name":"Concordia Vento Sud","lat":37.49333408,"lon":15.08245667,"times":["06:51","07:54","08:58","10:03","11:08","12:13","13:18","14:23","15:29","16:33","17:38","18:43","19:48","20:40","21:58"]},{"id":"828","name":"Concordia Levante","lat":37.4930985,"lon":15.08418722,"times":["06:51","07:54","08:59","10:03","11:08","12:13","13:18","14:23","15:29","16:33","17:38","18:43","19:48","20:40","21:58"]},{"id":"829","name":"Plaia Barcellona","lat":37.49211559,"lon":15.08477435,"times":["06:52","07:55","08:59","10:03","11:08","12:13","13:18","14:23","15:30","16:33","17:38","18:43","19:48","20:40","21:58"]},{"id":"830","name":"Plaia Acquicella Porto","lat":37.48906389,"lon":15.08426056,"times":["06:52","07:56","09:00","10:04","11:09","12:14","13:19","14:24","15:31","16:34","17:39","18:44","19:49","20:41","21:59"]},{"id":"40","name":"Tempio Faro Biscari Est","lat":37.48982446,"lon":15.08705678,"times":["06:54","07:57","09:02","10:06","11:11","12:16","13:21","14:26","15:32","16:36","17:41","18:46","19:51","20:43","22:01"]},{"id":"41","name":"Tempio Assunta Est","lat":37.4929555,"lon":15.08991651,"times":["06:55","07:58","09:03","10:08","11:13","12:18","13:23","14:28","15:33","16:38","17:43","18:48","19:53","20:44","22:03"]},{"id":"42","name":"Tempio Principe Est","lat":37.49431848,"lon":15.09016208,"times":["06:55","07:59","09:03","10:08","11:13","12:18","13:23","14:28","15:34","16:38","17:43","18:48","19:53","20:44","22:03"]},{"id":"43","name":"Tempio Stella Polare Est","lat":37.49558162,"lon":15.09049125,"times":["06:55","07:59","09:04","10:08","11:13","12:18","13:23","14:28","15:34","16:38","17:43","18:48","19:53","20:45","22:03"]},{"id":"44","name":"Colombo Santa Lucia","lat":37.49790753,"lon":15.08998496,"times":["06:56","08:00","09:05","10:09","11:14","12:19","13:24","14:29","15:35","16:39","17:44","18:49","19:54","20:45","22:04"]},{"id":"1780","name":"Borsellino","lat":37.50189836,"lon":15.08935613,"times":["06:57","08:01","09:06","10:11","11:16","12:21","13:26","14:31","15:36","16:41","17:46","18:51","19:56","20:46","22:06"]},{"id":"1842","name":"Dusmet Borsellino ","lat":37.50127882,"lon":15.09103845,"times":["06:57","08:02","09:07","10:11","11:16","12:21","13:26","14:31","15:37","16:41","17:46","18:51","19:56","20:47","22:06"]},{"id":"448","name":"Dusmet Porto","lat":37.50124,"lon":15.09331518,"times":["06:58","08:02","09:07","10:12","11:17","12:22","13:27","14:32","15:37","16:42","17:47","18:52","19:57","20:47","22:07"]},{"id":"1847","name":"Martiri Dusmet","lat":37.5027907,"lon":15.09583172,"times":["06:58","08:03","09:08","10:13","11:18","12:23","13:28","14:33","15:38","16:43","17:48","18:53","19:58","20:48","22:08"]},{"id":"1848","name":"VI Aprile Passiatore","lat":37.50479433,"lon":15.09701661,"times":["06:59","08:04","09:08","10:13","11:18","12:23","13:28","14:33","15:39","16:43","17:48","18:53","19:58","20:49","22:08"]},{"id":"6","name":"Terminal Stazione Centrale","lat":37.50740718,"lon":15.09911409,"times":["07:00","08:05","09:10","10:15","11:20","12:25","13:30","14:35","15:40","16:45","17:50","18:55","20:00","20:50","22:10"]}],"sabato":[{"id":"654","name":"Terminal Vaccarizzo ","lat":37.37688677,"lon":15.08027334,"times":["06:00","06:50","07:50","08:50","09:55","11:00","12:05","13:10","14:25","15:20","16:25","17:30","18:35","19:40","20:45"]},{"id":"787","name":"Coda Volpe","lat":37.37895459,"lon":15.07470697,"times":["06:01","06:51","07:51","08:52","09:57","11:02","12:07","13:12","14:26","15:22","16:27","17:32","18:37","19:41","20:47"]},{"id":"786","name":"Coda Volpe Nocciolo","lat":37.37400739,"lon":15.07244316,"times":["06:02","06:53","07:53","08:53","09:58","11:03","12:08","13:13","14:28","15:23","16:28","17:33","18:38","19:43","20:48"]},{"id":"1854","name":"Nocciolo Fresia","lat":37.37487582,"lon":15.0682694,"times":["06:03","06:54","07:54","08:54","09:59","11:04","12:09","13:14","14:29","15:24","16:29","17:34","18:39","19:43","20:49"]},{"id":"1855","name":"Nocciolo Lentisco","lat":37.37601776,"lon":15.06522976,"times":["06:03","06:54","07:55","08:55","10:00","11:05","12:10","13:15","14:29","15:25","16:30","17:35","18:40","19:44","20:50"]},{"id":"1856","name":"Valeriana Nocciolo (2)","lat":37.37597986,"lon":15.06345138,"times":["06:04","06:55","07:55","08:56","10:01","11:06","12:11","13:16","14:30","15:26","16:31","17:36","18:41","19:45","20:51"]},{"id":"1903","name":"Valeriana (1)","lat":37.37691611,"lon":15.06190928,"times":["06:04","06:55","07:56","08:56","10:01","11:06","12:11","13:16","14:30","15:26","16:31","17:36","18:41","19:45","20:51"]},{"id":"1904","name":"Valeriana (2)","lat":37.37773471,"lon":15.0606778,"times":["06:04","06:56","07:56","08:56","10:01","11:06","12:11","13:16","14:31","15:26","16:31","17:36","18:41","19:45","20:51"]},{"id":"1905","name":"Vischio (1)","lat":37.37716537,"lon":15.05945066,"times":["06:05","06:56","07:57","08:57","10:02","11:07","12:12","13:17","14:31","15:27","16:32","17:37","18:42","19:46","20:52"]},{"id":"1906","name":"Vischio (2)","lat":37.37528008,"lon":15.06210965,"times":["06:05","06:57","07:57","08:58","10:03","11:08","12:13","13:18","14:32","15:28","16:33","17:38","18:43","19:46","20:53"]},{"id":"1857","name":"Vischio (3)","lat":37.37337205,"lon":15.06489776,"times":["06:06","06:58","07:58","08:59","10:04","11:09","12:14","13:19","14:33","15:29","16:34","17:39","18:44","19:47","20:54"]},{"id":"1858","name":"Valeriana Vischio","lat":37.37287343,"lon":15.06775472,"times":["06:07","06:58","07:59","09:00","10:05","11:10","12:15","13:20","14:33","15:30","16:35","17:40","18:45","19:48","20:55"]},{"id":"1859","name":"Valeriana Nocciolo (1)","lat":37.37366116,"lon":15.07057622,"times":["06:07","06:59","08:00","09:00","10:05","11:10","12:15","13:20","14:34","15:30","16:35","17:40","18:45","19:49","20:55"]},{"id":"785","name":"SP 212 Coda Volpe","lat":37.36595482,"lon":15.06222625,"times":["06:10","07:03","08:04","09:04","10:09","11:14","12:19","13:24","14:38","15:34","16:39","17:44","18:49","19:52","20:59"]},{"id":"784","name":"SP 212 Del Giunco","lat":37.36567345,"lon":15.06580599,"times":["06:11","07:03","08:04","09:05","10:10","11:15","12:20","13:25","14:38","15:35","16:40","17:45","18:50","19:52","21:00"]},{"id":"783","name":"SP 212 Dell'Eufrasia","lat":37.36581642,"lon":15.0680196,"times":["06:11","07:04","08:05","09:06","10:11","11:16","12:21","13:26","14:39","15:36","16:41","17:46","18:51","19:53","21:01"]},{"id":"782","name":"SP 212 Dorella","lat":37.36595031,"lon":15.07027839,"times":["06:11","07:04","08:05","09:06","10:11","11:16","12:21","13:26","14:39","15:36","16:41","17:46","18:51","19:53","21:01"]},{"id":"781","name":"SP 212 Capelvenere","lat":37.36620047,"lon":15.07392638,"times":["06:12","07:05","08:06","09:07","10:12","11:17","12:22","13:27","14:40","15:37","16:42","17:47","18:52","19:54","21:02"]},{"id":"780","name":"SP 212 Camedrio","lat":37.36634324,"lon":15.07621908,"times":["06:12","07:06","08:07","09:08","10:13","11:18","12:23","13:28","14:41","15:38","16:43","17:48","18:53","19:55","21:03"]},{"id":"779","name":"SP 212 Vaccarizzo","lat":37.36646822,"lon":15.07807132,"times":["06:13","07:06","08:07","09:08","10:13","11:18","12:23","13:28","14:41","15:38","16:43","17:48","18:53","19:55","21:03"]},{"id":"793","name":"SS 114 Tangenziale","lat":37.41007592,"lon":15.06524591,"times":["06:24","07:20","08:22","09:24","10:29","11:34","12:39","13:44","14:55","15:54","16:59","18:04","19:09","20:08","21:19"]},{"id":"1921","name":"Oasi del Simeto Est","lat":37.41503997,"lon":15.06528919,"times":["06:25","07:21","08:23","09:25","10:30","11:35","12:40","13:45","14:56","15:55","17:00","18:05","19:10","20:09","21:20"]},{"id":"794","name":"SS 114 Est (1)","lat":37.42805829,"lon":15.06549887,"times":["06:27","07:24","08:27","09:29","10:34","11:39","12:44","13:49","14:59","15:59","17:04","18:09","19:14","20:12","21:24"]},{"id":"1090","name":"Zona Industriale Strada 18 (2)","lat":37.4399565,"lon":15.0654188,"times":["06:30","07:27","08:30","09:32","10:37","11:42","12:47","13:52","15:02","16:02","17:07","18:12","19:17","20:15","21:27"]},{"id":"798","name":"Primosole Kennedy","lat":37.44348975,"lon":15.06567059,"times":["06:31","07:28","08:31","09:34","10:39","11:44","12:49","13:54","15:03","16:04","17:09","18:14","19:19","20:16","21:29"]},{"id":"799","name":"Primosole Strada 5 Est","lat":37.44999762,"lon":15.06577803,"times":["06:32","07:30","08:33","09:36","10:41","11:46","12:51","13:56","15:05","16:06","17:11","18:16","19:21","20:17","21:31"]},{"id":"800","name":"Primosole Est (2)","lat":37.45276482,"lon":15.06581437,"times":["06:33","07:31","08:34","09:36","10:41","11:46","12:51","13:56","15:06","16:06","17:11","18:16","19:21","20:18","21:31"]},{"id":"801","name":"Primosole Maristaeli Est","lat":37.45701927,"lon":15.06586333,"times":["06:33","07:32","08:35","09:38","10:43","11:48","12:53","13:58","15:07","16:08","17:13","18:18","19:23","20:19","21:33"]},{"id":"802","name":"Maristaeli Est","lat":37.45997233,"lon":15.06595534,"times":["06:34","07:33","08:36","09:38","10:43","11:48","12:53","13:58","15:08","16:08","17:13","18:18","19:23","20:20","21:33"]},{"id":"937","name":"S.G. La Rena Primosole Sud","lat":37.46344142,"lon":15.0737167,"times":["06:36","07:35","08:38","09:41","10:46","11:51","12:56","14:01","15:10","16:11","17:16","18:21","19:26","20:22","21:36"]},{"id":"803","name":"S.G. La Rena Sud (3)","lat":37.4637546,"lon":15.07732426,"times":["06:37","07:36","08:39","09:42","10:47","11:52","12:57","14:02","15:11","16:12","17:17","18:22","19:27","20:23","21:37"]},{"id":"804","name":"S.G. La Rena Sud (2)","lat":37.46416169,"lon":15.08132799,"times":["06:37","07:37","08:40","09:43","10:48","11:53","12:58","14:03","15:12","16:13","17:18","18:23","19:28","20:23","21:38"]},{"id":"805","name":"S.G. La Rena Nord (1)","lat":37.47022877,"lon":15.07844556,"times":["06:39","07:39","08:43","09:46","10:51","11:56","13:01","14:06","15:14","16:16","17:21","18:26","19:31","20:26","21:41"]},{"id":"806","name":"S.G. La Rena Melilli Est","lat":37.47156248,"lon":15.07419966,"times":["06:40","07:40","08:44","09:47","10:52","11:57","13:02","14:07","15:15","16:17","17:22","18:27","19:32","20:27","21:42"]},{"id":"996","name":"S. G. La Rena Goretti Est (1)","lat":37.47330155,"lon":15.07510613,"times":["06:41","07:41","08:44","09:48","10:53","11:58","13:03","14:08","15:16","16:18","17:23","18:28","19:33","20:28","21:43"]},{"id":"25","name":"Goretti S.G.La Rena","lat":37.4741313,"lon":15.0743266,"times":["06:41","07:42","08:45","09:48","10:53","11:58","13:03","14:08","15:17","16:18","17:23","18:28","19:33","20:28","21:43"]},{"id":"26","name":"Goretti Nord ","lat":37.47407016,"lon":15.07115986,"times":["06:42","07:42","08:46","09:49","10:54","11:59","13:04","14:09","15:17","16:19","17:24","18:29","19:34","20:29","21:44"]},{"id":"27","name":"Goretti Chiesa Nord","lat":37.4739813,"lon":15.06889711,"times":["06:42","07:43","08:46","09:50","10:55","12:00","13:05","14:10","15:18","16:20","17:25","18:30","19:35","20:29","21:45"]},{"id":"28","name":"Goretti Campo Nord","lat":37.47392848,"lon":15.06680555,"times":["06:42","07:43","08:47","09:50","10:55","12:00","13:05","14:10","15:18","16:20","17:25","18:30","19:35","20:30","21:45"]},{"id":"807","name":"Fontanarossa Goretti Est","lat":37.47449676,"lon":15.06607093,"times":["06:43","07:43","08:47","09:51","10:56","12:01","13:06","14:11","15:18","16:21","17:26","18:31","19:36","20:30","21:46"]},{"id":"808","name":"Fontanarossa Est","lat":37.47731802,"lon":15.06611865,"times":["06:43","07:44","08:48","09:51","10:56","12:01","13:06","14:11","15:19","16:21","17:26","18:31","19:36","20:31","21:46"]},{"id":"1379","name":"Bonaventura Castagnola","lat":37.48242284,"lon":15.06037724,"times":["06:45","07:47","08:50","09:54","10:59","12:04","13:09","14:14","15:22","16:24","17:29","18:34","19:39","20:33","21:49"]},{"id":"1172","name":"Bonaventura Nitta","lat":37.48307971,"lon":15.06254947,"times":["06:46","07:47","08:51","09:55","11:00","12:05","13:10","14:15","15:22","16:25","17:30","18:35","19:40","20:33","21:50"]},{"id":"1893","name":"Nitta","lat":37.48457477,"lon":15.06489885,"times":["06:46","07:48","08:52","09:56","11:01","12:06","13:11","14:16","15:23","16:26","17:31","18:36","19:41","20:34","21:51"]},{"id":"61","name":"Verrazzano San Jacopo","lat":37.48627179,"lon":15.06543605,"times":["06:47","07:48","08:52","09:56","11:01","12:06","13:11","14:16","15:23","16:26","17:31","18:36","19:41","20:34","21:51"]},{"id":"64","name":"Verrazzano Divino Amore Est","lat":37.48742297,"lon":15.06503033,"times":["06:47","07:49","08:53","09:57","11:02","12:07","13:12","14:17","15:24","16:27","17:32","18:37","19:42","20:35","21:52"]},{"id":"1772","name":"Divino Amore Cimitero ","lat":37.48811475,"lon":15.06904658,"times":["06:48","07:50","08:54","09:58","11:03","12:08","13:13","14:18","15:25","16:28","17:33","18:38","19:43","20:36","21:53"]},{"id":"65","name":"Divino Amore San Jacopo ","lat":37.48823987,"lon":15.07084526,"times":["06:48","07:50","08:54","09:58","11:03","12:08","13:13","14:18","15:25","16:28","17:33","18:38","19:43","20:36","21:53"]},{"id":"66","name":"Acquicella Zia Lisa Est","lat":37.48923018,"lon":15.07281446,"times":["06:48","07:51","08:55","09:59","11:04","12:09","13:14","14:19","15:26","16:29","17:34","18:39","19:44","20:36","21:54"]},{"id":"67","name":"Acquicella Est","lat":37.49090646,"lon":15.07323463,"times":["06:49","07:51","08:55","09:59","11:04","12:09","13:14","14:19","15:26","16:29","17:34","18:39","19:44","20:37","21:54"]},{"id":"68","name":"Acquicella Antonini","lat":37.4932858,"lon":15.07367814,"times":["06:49","07:52","08:56","10:00","11:05","12:10","13:15","14:20","15:27","16:30","17:35","18:40","19:45","20:38","21:55"]},{"id":"824","name":"Concordia Acquicella","lat":37.494295,"lon":15.07421083,"times":["06:50","07:52","08:56","10:01","11:06","12:11","13:16","14:21","15:27","16:31","17:36","18:41","19:46","20:38","21:56"]},{"id":"825","name":"Concordia Ferrera","lat":37.49394165,"lon":15.07703862,"times":["06:50","07:53","08:57","10:01","11:06","12:11","13:16","14:21","15:28","16:31","17:36","18:41","19:46","20:39","21:56"]},{"id":"826","name":"Concordia De Lorenzo Sud","lat":37.49366952,"lon":15.07964022,"times":["06:51","07:53","08:58","10:02","11:07","12:12","13:17","14:22","15:28","16:32","17:37","18:42","19:47","20:39","21:57"]},{"id":"827","name":"Concordia Vento Sud","lat":37.49333408,"lon":15.08245667,"times":["06:51","07:54","08:58","10:03","11:08","12:13","13:18","14:23","15:29","16:33","17:38","18:43","19:48","20:40","21:58"]},{"id":"828","name":"Concordia Levante","lat":37.4930985,"lon":15.08418722,"times":["06:51","07:54","08:59","10:03","11:08","12:13","13:18","14:23","15:29","16:33","17:38","18:43","19:48","20:40","21:58"]},{"id":"829","name":"Plaia Barcellona","lat":37.49211559,"lon":15.08477435,"times":["06:52","07:55","08:59","10:03","11:08","12:13","13:18","14:23","15:30","16:33","17:38","18:43","19:48","20:40","21:58"]},{"id":"830","name":"Plaia Acquicella Porto","lat":37.48906389,"lon":15.08426056,"times":["06:52","07:56","09:00","10:04","11:09","12:14","13:19","14:24","15:31","16:34","17:39","18:44","19:49","20:41","21:59"]},{"id":"40","name":"Tempio Faro Biscari Est","lat":37.48982446,"lon":15.08705678,"times":["06:54","07:57","09:02","10:06","11:11","12:16","13:21","14:26","15:32","16:36","17:41","18:46","19:51","20:43","22:01"]},{"id":"41","name":"Tempio Assunta Est","lat":37.4929555,"lon":15.08991651,"times":["06:55","07:58","09:03","10:08","11:13","12:18","13:23","14:28","15:33","16:38","17:43","18:48","19:53","20:44","22:03"]},{"id":"42","name":"Tempio Principe Est","lat":37.49431848,"lon":15.09016208,"times":["06:55","07:59","09:03","10:08","11:13","12:18","13:23","14:28","15:34","16:38","17:43","18:48","19:53","20:44","22:03"]},{"id":"43","name":"Tempio Stella Polare Est","lat":37.49558162,"lon":15.09049125,"times":["06:55","07:59","09:04","10:08","11:13","12:18","13:23","14:28","15:34","16:38","17:43","18:48","19:53","20:45","22:03"]},{"id":"44","name":"Colombo Santa Lucia","lat":37.49790753,"lon":15.08998496,"times":["06:56","08:00","09:05","10:09","11:14","12:19","13:24","14:29","15:35","16:39","17:44","18:49","19:54","20:45","22:04"]},{"id":"1780","name":"Borsellino","lat":37.50189836,"lon":15.08935613,"times":["06:57","08:01","09:06","10:11","11:16","12:21","13:26","14:31","15:36","16:41","17:46","18:51","19:56","20:46","22:06"]},{"id":"1842","name":"Dusmet Borsellino ","lat":37.50127882,"lon":15.09103845,"times":["06:57","08:02","09:07","10:11","11:16","12:21","13:26","14:31","15:37","16:41","17:46","18:51","19:56","20:47","22:06"]},{"id":"448","name":"Dusmet Porto","lat":37.50124,"lon":15.09331518,"times":["06:58","08:02","09:07","10:12","11:17","12:22","13:27","14:32","15:37","16:42","17:47","18:52","19:57","20:47","22:07"]},{"id":"1847","name":"Martiri Dusmet","lat":37.5027907,"lon":15.09583172,"times":["06:58","08:03","09:08","10:13","11:18","12:23","13:28","14:33","15:38","16:43","17:48","18:53","19:58","20:48","22:08"]},{"id":"1848","name":"VI Aprile Passiatore","lat":37.50479433,"lon":15.09701661,"times":["06:59","08:04","09:08","10:13","11:18","12:23","13:28","14:33","15:39","16:43","17:48","18:53","19:58","20:49","22:08"]},{"id":"6","name":"Terminal Stazione Centrale","lat":37.50740718,"lon":15.09911409,"times":["07:00","08:05","09:10","10:15","11:20","12:25","13:30","14:35","15:40","16:45","17:50","18:55","20:00","20:50","22:10"]}],"domenica":[{"id":"654","name":"Terminal Vaccarizzo ","lat":37.37688677,"lon":15.08027334,"times":["06:00","07:00","07:50","08:50","09:55","11:00","12:05","13:10","14:25","15:20","16:25","17:30","18:35","19:40"]},{"id":"787","name":"Coda Volpe","lat":37.37895459,"lon":15.07470697,"times":["06:01","07:01","07:51","08:52","09:57","11:02","12:06","13:11","14:26","15:22","16:27","17:32","18:37","19:41"]},{"id":"786","name":"Coda Volpe Nocciolo","lat":37.37400739,"lon":15.07244316,"times":["06:02","07:02","07:53","08:53","09:58","11:03","12:08","13:13","14:28","15:23","16:28","17:33","18:38","19:43"]},{"id":"1854","name":"Nocciolo Fresia","lat":37.37487582,"lon":15.0682694,"times":["06:03","07:03","07:54","08:54","09:59","11:04","12:09","13:14","14:29","15:24","16:29","17:34","18:39","19:43"]},{"id":"1855","name":"Nocciolo Lentisco","lat":37.37601776,"lon":15.06522976,"times":["06:03","07:04","07:55","08:55","10:00","11:05","12:09","13:14","14:29","15:25","16:30","17:35","18:40","19:44"]},{"id":"1856","name":"Valeriana Nocciolo (2)","lat":37.37597986,"lon":15.06345138,"times":["06:04","07:04","07:55","08:56","10:01","11:06","12:10","13:15","14:30","15:26","16:31","17:36","18:41","19:45"]},{"id":"1903","name":"Valeriana (1)","lat":37.37691611,"lon":15.06190928,"times":["06:04","07:05","07:56","08:56","10:01","11:06","12:10","13:15","14:30","15:26","16:31","17:36","18:41","19:45"]},{"id":"1904","name":"Valeriana (2)","lat":37.37773471,"lon":15.0606778,"times":["06:04","07:05","07:56","08:56","10:01","11:06","12:11","13:16","14:31","15:26","16:31","17:36","18:41","19:45"]},{"id":"1905","name":"Vischio (1)","lat":37.37716537,"lon":15.05945066,"times":["06:05","07:05","07:57","08:57","10:02","11:07","12:11","13:16","14:31","15:27","16:32","17:37","18:42","19:46"]},{"id":"1906","name":"Vischio (2)","lat":37.37528008,"lon":15.06210965,"times":["06:05","07:06","07:57","08:58","10:03","11:08","12:12","13:17","14:32","15:28","16:33","17:38","18:43","19:46"]},{"id":"1857","name":"Vischio (3)","lat":37.37337205,"lon":15.06489776,"times":["06:06","07:07","07:58","08:59","10:04","11:09","12:13","13:18","14:33","15:29","16:34","17:39","18:44","19:47"]},{"id":"1858","name":"Valeriana Vischio","lat":37.37287343,"lon":15.06775472,"times":["06:07","07:07","07:59","09:00","10:05","11:10","12:13","13:18","14:33","15:30","16:35","17:40","18:45","19:48"]},{"id":"1859","name":"Valeriana Nocciolo (1)","lat":37.37366116,"lon":15.07057622,"times":["06:07","07:08","08:00","09:00","10:05","11:10","12:14","13:19","14:34","15:30","16:35","17:40","18:45","19:49"]},{"id":"785","name":"SP 212 Coda Volpe","lat":37.36595482,"lon":15.06222625,"times":["06:10","07:11","08:04","09:04","10:09","11:14","12:18","13:23","14:38","15:34","16:39","17:44","18:49","19:52"]},{"id":"784","name":"SP 212 Del Giunco","lat":37.36567345,"lon":15.06580599,"times":["06:11","07:12","08:04","09:05","10:10","11:15","12:18","13:23","14:38","15:35","16:40","17:45","18:50","19:52"]},{"id":"783","name":"SP 212 Dell'Eufrasia","lat":37.36581642,"lon":15.0680196,"times":["06:11","07:12","08:05","09:06","10:11","11:16","12:19","13:24","14:39","15:36","16:41","17:46","18:51","19:53"]},{"id":"782","name":"SP 212 Dorella","lat":37.36595031,"lon":15.07027839,"times":["06:11","07:12","08:05","09:06","10:11","11:16","12:19","13:24","14:39","15:36","16:41","17:46","18:51","19:53"]},{"id":"781","name":"SP 212 Capelvenere","lat":37.36620047,"lon":15.07392638,"times":["06:12","07:13","08:06","09:07","10:12","11:17","12:20","13:25","14:40","15:37","16:42","17:47","18:52","19:54"]},{"id":"780","name":"SP 212 Camedrio","lat":37.36634324,"lon":15.07621908,"times":["06:12","07:13","08:07","09:08","10:13","11:18","12:21","13:26","14:41","15:38","16:43","17:48","18:53","19:55"]},{"id":"779","name":"SP 212 Vaccarizzo","lat":37.36646822,"lon":15.07807132,"times":["06:13","07:14","08:07","09:08","10:13","11:18","12:21","13:26","14:41","15:38","16:43","17:48","18:53","19:55"]},{"id":"793","name":"SS 114 Tangenziale","lat":37.41007592,"lon":15.06524591,"times":["06:24","07:26","08:22","09:24","10:29","11:34","12:35","13:40","14:55","15:54","16:59","18:04","19:09","20:08"]},{"id":"1921","name":"Oasi del Simeto Est","lat":37.41503997,"lon":15.06528919,"times":["06:25","07:27","08:23","09:25","10:30","11:35","12:36","13:41","14:56","15:55","17:00","18:05","19:10","20:09"]},{"id":"794","name":"SS 114 Est (1)","lat":37.42805829,"lon":15.06549887,"times":["06:27","07:30","08:27","09:29","10:34","11:39","12:39","13:44","14:59","15:59","17:04","18:09","19:14","20:12"]},{"id":"1090","name":"Zona Industriale Strada 18 (2)","lat":37.4399565,"lon":15.0654188,"times":["06:30","07:32","08:30","09:32","10:37","11:42","12:42","13:47","15:02","16:02","17:07","18:12","19:17","20:15"]},{"id":"798","name":"Primosole Kennedy","lat":37.44348975,"lon":15.06567059,"times":["06:31","07:33","08:31","09:34","10:39","11:44","12:43","13:48","15:03","16:04","17:09","18:14","19:19","20:16"]},{"id":"799","name":"Primosole Strada 5 Est","lat":37.44999762,"lon":15.06577803,"times":["06:32","07:35","08:33","09:36","10:41","11:46","12:45","13:50","15:05","16:06","17:11","18:16","19:21","20:17"]},{"id":"800","name":"Primosole Est (2)","lat":37.45276482,"lon":15.06581437,"times":["06:33","07:35","08:34","09:36","10:41","11:46","12:46","13:51","15:06","16:06","17:11","18:16","19:21","20:18"]},{"id":"801","name":"Primosole Maristaeli Est","lat":37.45701927,"lon":15.06586333,"times":["06:33","07:36","08:35","09:38","10:43","11:48","12:47","13:52","15:07","16:08","17:13","18:18","19:23","20:19"]},{"id":"802","name":"Maristaeli Est","lat":37.45997233,"lon":15.06595534,"times":["06:34","07:37","08:36","09:38","10:43","11:48","12:48","13:53","15:08","16:08","17:13","18:18","19:23","20:20"]},{"id":"937","name":"S.G. La Rena Primosole Sud","lat":37.46344142,"lon":15.0737167,"times":["06:36","07:39","08:38","09:41","10:46","11:51","12:50","13:55","15:10","16:11","17:16","18:21","19:26","20:22"]},{"id":"803","name":"S.G. La Rena Sud (3)","lat":37.4637546,"lon":15.07732426,"times":["06:37","07:40","08:39","09:42","10:47","11:52","12:51","13:56","15:11","16:12","17:17","18:22","19:27","20:23"]},{"id":"804","name":"S.G. La Rena Sud (2)","lat":37.46416169,"lon":15.08132799,"times":["06:37","07:40","08:40","09:43","10:48","11:53","12:52","13:57","15:12","16:13","17:18","18:23","19:28","20:23"]},{"id":"805","name":"S.G. La Rena Nord (1)","lat":37.47022877,"lon":15.07844556,"times":["06:39","07:43","08:43","09:46","10:51","11:56","12:54","13:59","15:14","16:16","17:21","18:26","19:31","20:26"]},{"id":"806","name":"S.G. La Rena Melilli Est","lat":37.47156248,"lon":15.07419966,"times":["06:40","07:44","08:44","09:47","10:52","11:57","12:55","14:00","15:15","16:17","17:22","18:27","19:32","20:27"]},{"id":"996","name":"S. G. La Rena Goretti Est (1)","lat":37.47330155,"lon":15.07510613,"times":["06:41","07:44","08:44","09:48","10:53","11:58","12:56","14:01","15:16","16:18","17:23","18:28","19:33","20:28"]},{"id":"25","name":"Goretti S.G.La Rena","lat":37.4741313,"lon":15.0743266,"times":["06:41","07:45","08:45","09:48","10:53","11:58","12:57","14:02","15:17","16:18","17:23","18:28","19:33","20:28"]},{"id":"26","name":"Goretti Nord ","lat":37.47407016,"lon":15.07115986,"times":["06:42","07:45","08:46","09:49","10:54","11:59","12:57","14:02","15:17","16:19","17:24","18:29","19:34","20:29"]},{"id":"27","name":"Goretti Chiesa Nord","lat":37.4739813,"lon":15.06889711,"times":["06:42","07:46","08:46","09:50","10:55","12:00","12:58","14:03","15:18","16:20","17:25","18:30","19:35","20:29"]},{"id":"28","name":"Goretti Campo Nord","lat":37.47392848,"lon":15.06680555,"times":["06:42","07:46","08:47","09:50","10:55","12:00","12:58","14:03","15:18","16:20","17:25","18:30","19:35","20:30"]},{"id":"807","name":"Fontanarossa Goretti Est","lat":37.47449676,"lon":15.06607093,"times":["06:43","07:46","08:47","09:51","10:56","12:01","12:58","14:03","15:18","16:21","17:26","18:31","19:36","20:30"]},{"id":"808","name":"Fontanarossa Est","lat":37.47731802,"lon":15.06611865,"times":["06:43","07:47","08:48","09:51","10:56","12:01","12:59","14:04","15:19","16:21","17:26","18:31","19:36","20:31"]},{"id":"1379","name":"Bonaventura Castagnola","lat":37.48242284,"lon":15.06037724,"times":["06:45","07:49","08:50","09:54","10:59","12:04","13:02","14:07","15:22","16:24","17:29","18:34","19:39","20:33"]},{"id":"1172","name":"Bonaventura Nitta","lat":37.48307971,"lon":15.06254947,"times":["06:46","07:49","08:51","09:55","11:00","12:05","13:02","14:07","15:22","16:25","17:30","18:35","19:40","20:33"]},{"id":"1893","name":"Nitta","lat":37.48457477,"lon":15.06489885,"times":["06:46","07:50","08:52","09:56","11:01","12:06","13:03","14:08","15:23","16:26","17:31","18:36","19:41","20:34"]},{"id":"61","name":"Verrazzano San Jacopo","lat":37.48627179,"lon":15.06543605,"times":["06:47","07:51","08:52","09:56","11:01","12:06","13:03","14:08","15:23","16:26","17:31","18:36","19:41","20:34"]},{"id":"64","name":"Verrazzano Divino Amore Est","lat":37.48742297,"lon":15.06503033,"times":["06:47","07:51","08:53","09:57","11:02","12:07","13:04","14:09","15:24","16:27","17:32","18:37","19:42","20:35"]},{"id":"1772","name":"Divino Amore Cimitero ","lat":37.48811475,"lon":15.06904658,"times":["06:48","07:52","08:54","09:58","11:03","12:08","13:05","14:10","15:25","16:28","17:33","18:38","19:43","20:36"]},{"id":"65","name":"Divino Amore San Jacopo ","lat":37.48823987,"lon":15.07084526,"times":["06:48","07:52","08:54","09:58","11:03","12:08","13:05","14:10","15:25","16:28","17:33","18:38","19:43","20:36"]},{"id":"66","name":"Acquicella Zia Lisa Est","lat":37.48923018,"lon":15.07281446,"times":["06:48","07:52","08:55","09:59","11:04","12:09","13:06","14:11","15:26","16:29","17:34","18:39","19:44","20:36"]},{"id":"67","name":"Acquicella Est","lat":37.49090646,"lon":15.07323463,"times":["06:49","07:53","08:55","09:59","11:04","12:09","13:06","14:11","15:26","16:29","17:34","18:39","19:44","20:37"]},{"id":"68","name":"Acquicella Antonini","lat":37.4932858,"lon":15.07367814,"times":["06:49","07:53","08:56","10:00","11:05","12:10","13:07","14:12","15:27","16:30","17:35","18:40","19:45","20:38"]},{"id":"824","name":"Concordia Acquicella","lat":37.494295,"lon":15.07421083,"times":["06:50","07:54","08:56","10:01","11:06","12:11","13:07","14:12","15:27","16:31","17:36","18:41","19:46","20:38"]},{"id":"825","name":"Concordia Ferrera","lat":37.49394165,"lon":15.07703862,"times":["06:50","07:54","08:57","10:01","11:06","12:11","13:08","14:13","15:28","16:31","17:36","18:41","19:46","20:39"]},{"id":"826","name":"Concordia De Lorenzo Sud","lat":37.49366952,"lon":15.07964022,"times":["06:51","07:55","08:58","10:02","11:07","12:12","13:08","14:13","15:28","16:32","17:37","18:42","19:47","20:39"]},{"id":"827","name":"Concordia Vento Sud","lat":37.49333408,"lon":15.08245667,"times":["06:51","07:55","08:58","10:03","11:08","12:13","13:09","14:14","15:29","16:33","17:38","18:43","19:48","20:40"]},{"id":"828","name":"Concordia Levante","lat":37.4930985,"lon":15.08418722,"times":["06:51","07:56","08:59","10:03","11:08","12:13","13:09","14:14","15:29","16:33","17:38","18:43","19:48","20:40"]},{"id":"829","name":"Plaia Barcellona","lat":37.49211559,"lon":15.08477435,"times":["06:52","07:56","08:59","10:03","11:08","12:13","13:10","14:15","15:30","16:33","17:38","18:43","19:48","20:40"]},{"id":"830","name":"Plaia Acquicella Porto","lat":37.48906389,"lon":15.08426056,"times":["06:52","07:57","09:00","10:04","11:09","12:14","13:11","14:16","15:31","16:34","17:39","18:44","19:49","20:41"]},{"id":"40","name":"Tempio Faro Biscari Est","lat":37.48982446,"lon":15.08705678,"times":["06:54","07:58","09:02","10:06","11:11","12:16","13:12","14:17","15:32","16:36","17:41","18:46","19:51","20:43"]},{"id":"41","name":"Tempio Assunta Est","lat":37.4929555,"lon":15.08991651,"times":["06:55","07:59","09:03","10:08","11:13","12:18","13:13","14:18","15:33","16:38","17:43","18:48","19:53","20:44"]},{"id":"42","name":"Tempio Principe Est","lat":37.49431848,"lon":15.09016208,"times":["06:55","08:00","09:03","10:08","11:13","12:18","13:14","14:19","15:34","16:38","17:43","18:48","19:53","20:44"]},{"id":"43","name":"Tempio Stella Polare Est","lat":37.49558162,"lon":15.09049125,"times":["06:55","08:00","09:04","10:08","11:13","12:18","13:14","14:19","15:34","16:38","17:43","18:48","19:53","20:45"]},{"id":"44","name":"Colombo Santa Lucia","lat":37.49790753,"lon":15.08998496,"times":["06:56","08:00","09:05","10:09","11:14","12:19","13:15","14:20","15:35","16:39","17:44","18:49","19:54","20:45"]},{"id":"1780","name":"Borsellino","lat":37.50189836,"lon":15.08935613,"times":["06:57","08:01","09:06","10:11","11:16","12:21","13:16","14:21","15:36","16:41","17:46","18:51","19:56","20:46"]},{"id":"1842","name":"Dusmet Borsellino ","lat":37.50127882,"lon":15.09103845,"times":["06:57","08:02","09:07","10:11","11:16","12:21","13:17","14:22","15:37","16:41","17:46","18:51","19:56","20:47"]},{"id":"448","name":"Dusmet Porto","lat":37.50124,"lon":15.09331518,"times":["06:58","08:03","09:07","10:12","11:17","12:22","13:17","14:22","15:37","16:42","17:47","18:52","19:57","20:47"]},{"id":"1847","name":"Martiri Dusmet","lat":37.5027907,"lon":15.09583172,"times":["06:58","08:03","09:08","10:13","11:18","12:23","13:18","14:23","15:38","16:43","17:48","18:53","19:58","20:48"]},{"id":"1848","name":"VI Aprile Passiatore","lat":37.50479433,"lon":15.09701661,"times":["06:59","08:04","09:08","10:13","11:18","12:23","13:19","14:24","15:39","16:43","17:48","18:53","19:58","20:49"]},{"id":"6","name":"Terminal Stazione Centrale","lat":37.50740718,"lon":15.09911409,"times":["07:00","08:05","09:10","10:15","11:20","12:25","13:20","14:25","15:40","16:45","17:50","18:55","20:00","20:50"]}]}}}