{"id":"601","directions":{"0":{"feriale":[{"id":"1845","name":"Parcheggio Nesima","lat":37.51702842,"lon":15.04994588,"times":["06:00","07:00","08:20","09:40","11:00","12:20","13:40","15:00","16:20","17:40","19:00","20:20","21:40"]},{"id":"571","name":"Nesima Metro Nord","lat":37.5156079,"lon":15.04783207,"times":["06:01","07:02","08:22","09:42","11:02","12:22","13:42","15:02","16:22","17:42","19:02","20:22","21:42"]},{"id":"545","name":"Fontana Eredia","lat":37.51504979,"lon":15.04597593,"times":["06:02","07:03","08:23","09:43","11:03","12:23","13:43","15:03","16:23","17:43","19:03","20:23","21:42"]},{"id":"547","name":"Fontana Montepalma","lat":37.51361832,"lon":15.04138094,"times":["06:03","07:04","08:24","09:44","11:04","12:24","13:44","15:04","16:24","17:44","19:04","20:24","21:44"]},{"id":"1697","name":"Palermo Garibaldi (4)","lat":37.51122054,"lon":15.04180959,"times":["06:05","07:07","08:27","09:47","11:07","12:27","13:47","15:07","16:27","17:47","19:07","20:27","21:46"]},{"id":"908","name":"Palermo Garibaldi (2)","lat":37.50998498,"lon":15.04369851,"times":["06:06","07:08","08:28","09:48","11:08","12:28","13:48","15:08","16:28","17:48","19:08","20:28","21:47"]},{"id":"909","name":"Palermo Sud ","lat":37.50930838,"lon":15.04523694,"times":["06:06","07:08","08:28","09:48","11:08","12:28","13:48","15:08","16:28","17:48","19:08","20:28","21:47"]},{"id":"910","name":"Marconi Palermo    ","lat":37.50694617,"lon":15.04685349,"times":["06:07","07:10","08:30","09:50","11:10","12:30","13:50","15:10","16:30","17:50","19:10","20:30","21:48"]},{"id":"911","name":"Palermo Marsala","lat":37.50478211,"lon":15.04878687,"times":["06:08","07:11","08:31","09:51","11:11","12:31","13:51","15:11","16:31","17:51","19:11","20:31","21:49"]},{"id":"913","name":"Palermo Monte Po","lat":37.50339282,"lon":15.05158052,"times":["06:09","07:12","08:32","09:52","11:12","12:32","13:52","15:12","16:32","17:52","19:12","20:32","21:50"]},{"id":"914","name":"Palermo Lampedusa","lat":37.50245459,"lon":15.05341272,"times":["06:09","07:13","08:33","09:53","11:13","12:33","13:53","15:13","16:33","17:53","19:13","20:33","21:51"]},{"id":"915","name":"Palermo Bandiera","lat":37.50120053,"lon":15.05591215,"times":["06:10","07:14","08:34","09:54","11:14","12:34","13:54","15:14","16:34","17:54","19:14","20:34","21:52"]},{"id":"1602","name":"Palermo Ungaretti (1)","lat":37.50047878,"lon":15.05728055,"times":["06:11","07:14","08:34","09:54","11:14","12:34","13:54","15:14","16:34","17:54","19:14","20:34","21:53"]},{"id":"916","name":"Palermo Ungaretti (2)","lat":37.50009081,"lon":15.0580722,"times":["06:11","07:15","08:35","09:55","11:15","12:35","13:55","15:15","16:35","17:55","19:15","20:35","21:53"]},{"id":"917","name":"Palermo Vico Quarto","lat":37.49883671,"lon":15.06045834,"times":["06:12","07:16","08:36","09:56","11:16","12:36","13:56","15:16","16:36","17:56","19:16","20:36","21:54"]},{"id":"918","name":"Palermo Gibilrossa","lat":37.49769923,"lon":15.06380611,"times":["06:13","07:17","08:37","09:57","11:17","12:37","13:57","15:17","16:37","17:57","19:17","20:37","21:55"]},{"id":"919","name":"Palermo Fossa Creta Sud","lat":37.49818454,"lon":15.06639725,"times":["06:14","07:18","08:38","09:58","11:18","12:38","13:58","15:18","16:38","17:58","19:18","20:38","21:56"]},{"id":"920","name":"Palermo Cernaia","lat":37.49880485,"lon":15.06923744,"times":["06:14","07:19","08:39","09:59","11:19","12:39","13:59","15:19","16:39","17:59","19:19","20:39","21:57"]},{"id":"1750","name":"Missori Palestro","lat":37.49890221,"lon":15.07222424,"times":["06:15","07:20","08:40","10:00","11:20","12:40","14:00","15:20","16:40","18:00","19:20","20:40","21:58"]},{"id":"896","name":"Palermo Palestro","lat":37.49923606,"lon":15.0716589,"times":["06:16","07:21","08:41","10:01","11:21","12:41","14:01","15:21","16:41","18:01","19:21","20:41","21:59"]},{"id":"348","name":"Palermo Leotta","lat":37.49875083,"lon":15.06913557,"times":["06:17","07:22","08:42","10:02","11:22","12:42","14:02","15:22","16:42","18:02","19:22","20:42","22:00"]},{"id":"349","name":"Palermo Fossa Creta Nord","lat":37.49822066,"lon":15.06628415,"times":["06:17","07:23","08:43","10:03","11:23","12:43","14:03","15:23","16:43","18:03","19:23","20:43","22:00"]},{"id":"350","name":"Fossa Creta ","lat":37.4972839,"lon":15.06508413,"times":["06:18","07:24","08:44","10:04","11:24","12:44","14:04","15:24","16:44","18:04","19:24","20:44","22:01"]},{"id":"351","name":"Fossa Creta Calliope Ovest","lat":37.49656338,"lon":15.06404271,"times":["06:18","07:25","08:45","10:05","11:25","12:45","14:05","15:25","16:45","18:05","19:25","20:45","22:01"]},{"id":"352","name":"Fossa Creta Zaccà Ovest","lat":37.49597818,"lon":15.06275255,"times":["06:19","07:25","08:45","10:05","11:25","12:45","14:05","15:25","16:45","18:05","19:25","20:45","22:02"]},{"id":"353","name":"Fossa Creta Asse Attrezzato","lat":37.49567529,"lon":15.06160236,"times":["06:19","07:26","08:46","10:06","11:26","12:46","14:06","15:26","16:46","18:06","19:26","20:46","22:02"]},{"id":"354","name":"Fossa Creta San Teodoro Nord","lat":37.49542991,"lon":15.05974288,"times":["06:20","07:26","08:46","10:06","11:26","12:46","14:06","15:26","16:46","18:06","19:26","20:46","22:03"]},{"id":"355","name":"San Teodoro Terreforti","lat":37.49423138,"lon":15.05916499,"times":["06:20","07:27","08:47","10:07","11:27","12:47","14:07","15:27","16:47","18:07","19:27","20:47","22:04"]},{"id":"1743","name":"San Giorgio Zappetta","lat":37.49452118,"lon":15.05637099,"times":["06:21","07:28","08:48","10:08","11:28","12:48","14:08","15:28","16:48","18:08","19:28","20:48","22:05"]},{"id":"358","name":"Colonna Grimaldi (2)","lat":37.4941619,"lon":15.05365569,"times":["06:22","07:29","08:49","10:09","11:29","12:49","14:09","15:29","16:49","18:09","19:29","20:49","22:06"]},{"id":"359","name":"Colonna Grimaldi (3)","lat":37.49406391,"lon":15.05104241,"times":["06:23","07:30","08:50","10:10","11:30","12:50","14:10","15:30","16:50","18:10","19:30","20:50","22:06"]},{"id":"1365","name":"Grimaldi Colonna (1)","lat":37.49394679,"lon":15.05090658,"times":["06:23","07:31","08:51","10:11","11:31","12:51","14:11","15:31","16:51","18:11","19:31","20:51","22:07"]},{"id":"1354","name":"Grimaldi Colonna (2)","lat":37.493783,"lon":15.05436811,"times":["06:24","07:32","08:52","10:12","11:32","12:52","14:12","15:32","16:52","18:12","19:32","20:52","22:08"]},{"id":"1366","name":"Grimaldi Colonna (3)","lat":37.49218317,"lon":15.05514296,"times":["06:25","07:33","08:53","10:13","11:33","12:53","14:13","15:33","16:53","18:13","19:33","20:53","22:09"]},{"id":"1573","name":"Grimaldi Maggiolino (1)","lat":37.48983417,"lon":15.05617516,"times":["06:26","07:35","08:55","10:15","11:35","12:55","14:15","15:35","16:55","18:15","19:35","20:55","22:10"]},{"id":"1574","name":"Grimaldi Maggiolino (2)","lat":37.48997008,"lon":15.05465946,"times":["06:26","07:35","08:55","10:15","11:35","12:55","14:15","15:35","16:55","18:15","19:35","20:55","22:11"]},{"id":"1575","name":"Grimaldi Maggiolino (3)","lat":37.4904206,"lon":15.05501046,"times":["06:27","07:36","08:56","10:16","11:36","12:56","14:16","15:36","16:56","18:16","19:36","20:56","22:11"]},{"id":"1576","name":"Grimaldi Nitta","lat":37.49087064,"lon":15.05637956,"times":["06:28","07:38","08:58","10:18","11:38","12:58","14:18","15:38","16:58","18:18","19:38","20:58","22:13"]},{"id":"812","name":"San Teodoro Asse Attrezzato","lat":37.49031108,"lon":15.05786101,"times":["06:29","07:39","08:59","10:19","11:39","12:59","14:19","15:39","16:59","18:19","19:39","20:59","22:14"]},{"id":"447","name":"Terminal Villaggio Sant'Agata","lat":37.4907071,"lon":15.05903777,"times":["06:30","07:40","09:00","10:20","11:40","13:00","14:20","15:40","17:00","18:20","19:40","21:00","22:15"]}],"sabato":[{"id":"1845","name":"Parcheggio Nesima","lat":37.51702842,"lon":15.04994588,"times":["06:00","07:00","08:20","09:40","11:00","12:20","13:40","15:00","16:20","17:40","19:00","20:20","21:40"]},{"id":"571","name":"Nesima Metro Nord","lat":37.5156079,"lon":15.04783207,"times":["06:01","07:02","08:22","09:42","11:02","12:22","13:42","15:02","16:22","17:42","19:02","20:22","21:42"]},{"id":"545","name":"Fontana Eredia","lat":37.51504979,"lon":15.04597593,"times":["06:02","07:03","08:23","09:43","11:03","12:23","13:43","15:03","16:23","17:43","19:03","20:23","21:42"]},{"id":"547","name":"Fontana Montepalma","lat":37.51361832,"lon":15.04138094,"times":["06:03","07:04","08:24","09:44","11:04","12:24","13:44","15:04","16:24","17:44","19:04","20:24","21:44"]},{"id":"1697","name":"Palermo Garibaldi (4)","lat":37.51122054,"lon":15.04180959,"times":["06:05","07:07","08:27","09:47","11:07","12:27","13:47","15:07","16:27","17:47","19:07","20:27","21:46"]},{"id":"908","name":"Palermo Garibaldi (2)","lat":37.50998498,"lon":15.04369851,"times":["06:06","07:08","08:28","09:48","11:08","12:28","13:48","15:08","16:28","17:48","19:08","20:28","21:47"]},{"id":"909","name":"Palermo Sud ","lat":37.50930838,"lon":15.04523694,"times":["06:06","07:08","08:28","09:48","11:08","12:28","13:48","15:08","16:28","17:48","19:08","20:28","21:47"]},{"id":"910","name":"Marconi Palermo    ","lat":37.50694617,"lon":15.04685349,"times":["06:07","07:10","08:30","09:50","11:10","12:30","13:50","15:10","16:30","17:50","19:10","20:30","21:48"]},{"id":"911","name":"Palermo Marsala","lat":37.50478211,"lon":15.04878687,"times":["06:08","07:11","08:31","09:51","11:11","12:31","13:51","15:11","16:31","17:51","19:11","20:31","21:49"]},{"id":"913","name":"Palermo Monte Po","lat":37.50339282,"lon":15.05158052,"times":["06:09","07:12","08:32","09:52","11:12","12:32","13:52","15:12","16:32","17:52","19:12","20:32","21:50"]},{"id":"914","name":"Palermo Lampedusa","lat":37.50245459,"lon":15.05341272,"times":["06:09","07:13","08:33","09:53","11:13","12:33","13:53","15:13","16:33","17:53","19:13","20:33","21:51"]},{"id":"915","name":"Palermo Bandiera","lat":37.50120053,"lon":15.05591215,"times":["06:10","07:14","08:34","09:54","11:14","12:34","13:54","15:14","16:34","17:54","19:14","20:34","21:52"]},{"id":"1602","name":"Palermo Ungaretti (1)","lat":37.50047878,"lon":15.05728055,"times":["06:11","07:14","08:34","09:54","11:14","12:34","13:54","15:14","16:34","17:54","19:14","20:34","21:53"]},{"id":"916","name":"Palermo Ungaretti (2)","lat":37.50009081,"lon":15.0580722,"times":["06:11","07:15","08:35","09:55","11:15","12:35","13:55","15:15","16:35","17:55","19:15","20:35","21:53"]},{"id":"917","name":"Palermo Vico Quarto","lat":37.49883671,"lon":15.06045834,"times":["06:12","07:16","08:36","09:56","11:16","12:36","13:56","15:16","16:36","17:56","19:16","20:36","21:54"]},{"id":"918","name":"Palermo Gibilrossa","lat":37.49769923,"lon":15.06380611,"times":["06:13","07:17","08:37","09:57","11:17","12:37","13:57","15:17","16:37","17:57","19:17","20:37","21:55"]},{"id":"919","name":"Palermo Fossa Creta Sud","lat":37.49818454,"lon":15.06639725,"times":["06:14","07:18","08:38","09:58","11:18","12:38","13:58","15:18","16:38","17:58","19:18","20:38","21:56"]},{"id":"920","name":"Palermo Cernaia","lat":37.49880485,"lon":15.06923744,"times":["06:14","07:19","08:39","09:59","11:19","12:39","13:59","15:19","16:39","17:59","19:19","20:39","21:57"]},{"id":"1750","name":"Missori Palestro","lat":37.49890221,"lon":15.07222424,"times":["06:15","07:20","08:40","10:00","11:20","12:40","14:00","15:20","16:40","18:00","19:20","20:40","21:58"]},{"id":"896","name":"Palermo Palestro","lat":37.49923606,"lon":15.0716589,"times":["06:16","07:21","08:41","10:01","11:21","12:41","14:01","15:21","16:41","18:01","19:21","20:41","21:59"]},{"id":"348","name":"Palermo Leotta","lat":37.49875083,"lon":15.06913557,"times":["06:17","07:22","08:42","10:02","11:22","12:42","14:02","15:22","16:42","18:02","19:22","20:42","22:00"]},{"id":"349","name":"Palermo Fossa Creta Nord","lat":37.49822066,"lon":15.06628415,"times":["06:17","07:23","08:43","10:03","11:23","12:43","14:03","15:23","16:43","18:03","19:23","20:43","22:00"]},{"id":"350","name":"Fossa Creta ","lat":37.4972839,"lon":15.06508413,"times":["06:18","07:24","08:44","10:04","11:24","12:44","14:04","15:24","16:44","18:04","19:24","20:44","22:01"]},{"id":"351","name":"Fossa Creta Calliope Ovest","lat":37.49656338,"lon":15.06404271,"times":["06:18","07:25","08:45","10:05","11:25","12:45","14:05","15:25","16:45","18:05","19:25","20:45","22:01"]},{"id":"352","name":"Fossa Creta Zaccà Ovest","lat":37.49597818,"lon":15.06275255,"times":["06:19","07:25","08:45","10:05","11:25","12:45","14:05","15:25","16:45","18:05","19:25","20:45","22:02"]},{"id":"353","name":"Fossa Creta Asse Attrezzato","lat":37.49567529,"lon":15.06160236,"times":["06:19","07:26","08:46","10:06","11:26","12:46","14:06","15:26","16:46","18:06","19:26","20:46","22:02"]},{"id":"354","name":"Fossa Creta San Teodoro Nord","lat":37.49542991,"lon":15.05974288,"times":["06:20","07:26","08:46","10:06","11:26","12:46","14:06","15:26","16:46","18:06","19:26","20:46","22:03"]},{"id":"355","name":"San Teodoro Terreforti","lat":37.49423138,"lon":15.05916499,"times":["06:20","07:27","08:47","10:07","11:27","12:47","14:07","15:27","16:47","18:07","19:27","20:47","22:04"]},{"id":"1743","name":"San Giorgio Zappetta","lat":37.49452118,"lon":15.05637099,"times":["06:21","07:28","08:48","10:08","11:28","12:48","14:08","15:28","16:48","18:08","19:28","20:48","22:05"]},{"id":"358","name":"Colonna Grimaldi (2)","lat":37.4941619,"lon":15.05365569,"times":["06:22","07:29","08:49","10:09","11:29","12:49","14:09","15:29","16:49","18:09","19:29","20:49","22:06"]},{"id":"359","name":"Colonna Grimaldi (3)","lat":37.49406391,"lon":15.05104241,"times":["06:23","07:30","08:50","10:10","11:30","12:50","14:10","15:30","16:50","18:10","19:30","20:50","22:06"]},{"id":"1365","name":"Grimaldi Colonna (1)","lat":37.49394679,"lon":15.05090658,"times":["06:23","07:31","08:51","10:11","11:31","12:51","14:11","15:31","16:51","18:11","19:31","20:51","22:07"]},{"id":"1354","name":"Grimaldi Colonna (2)","lat":37.493783,"lon":15.05436811,"times":["06:24","07:32","08:52","10:12","11:32","12:52","14:12","15:32","16:52","18:12","19:32","20:52","22:08"]},{"id":"1366","name":"Grimaldi Colonna (3)","lat":37.49218317,"lon":15.05514296,"times":["06:25","07:33","08:53","10:13","11:33","12:53","14:13","15:33","16:53","18:13","19:33","20:53","22:09"]},{"id":"1573","name":"Grimaldi Maggiolino (1)","lat":37.48983417,"lon":15.05617516,"times":["06:26","07:35","08:55","10:15","11:35","12:55","14:15","15:35","16:55","18:15","19:35","20:55","22:10"]},{"id":"1574","name":"Grimaldi Maggiolino (2)","lat":37.48997008,"lon":15.05465946,"times":["06:26","07:35","08:55","10:15","11:35","12:55","14:15","15:35","16:55","18:15","19:35","20:55","22:11"]},{"id":"1575","name":"Grimaldi Maggiolino (3)","lat":37.4904206,"lon":15.05501046,"times":["06:27","07:36","08:56","10:16","11:36","12:56","14:16","15:36","16:56","18:16","19:36","20:56","22:11"]},{"id":"1576","name":"Grimaldi Nitta","lat":37.49087064,"lon":15.05637956,"times":["06:28","07:38","08:58","10:18","11:38","12:58","14:18","15:38","16:58","18:18","19:38","20:58","22:13"]},{"id":"812","name":"San Teodoro Asse Attrezzato","lat":37.49031108,"lon":15.05786101,"times":["06:29","07:39","08:59","10:19","11:39","12:59","14:19","15:39","16:59","18:19","19:39","20:59","22:14"]},{"id":"447","name":"Terminal Villaggio Sant'Agata","lat":37.4907071,"lon":15.05903777,"times":["06:30","07:40","09:00","10:20","11:40","13:00","14:20","15:40","17:00","18:20","19:40","21:00","22:15"]}],"domenica":[]},"1":{"feriale":[{"id":"447","name":"Terminal Villaggio Sant'Agata","lat":37.4907071,"lon":15.05903777,"times":["06:30","07:40","09:00","10:20","11:40","13:00","14:20","15:40","17:00","18:20","19:40","21:00","22:15"]},{"id":"357","name":"Colonna Grimaldi (1)","lat":37.49362049,"lon":15.05494493,"times":["06:31","07:42","09:02","10:22","11:42","13:02","14:22","15:42","17:02","18:22","19:42","21:02","22:16"]},{"id":"358","name":"Colonna Grimaldi (2)","lat":37.4941619,"lon":15.05365569,"times":["06:32","07:42","09:02","10:22","11:42","13:02","14:22","15:42","17:02","18:22","19:42","21:02","22:17"]},{"id":"359","name":"Colonna Grimaldi (3)","lat":37.49406391,"lon":15.05104241,"times":["06:32","07:43","09:03","10:23","11:43","13:03","14:23","15:43","17:03","18:23","19:43","21:03","22:18"]},{"id":"1570","name":"Pecorino Ovest","lat":37.49309085,"lon":15.05006888,"times":["06:33","07:44","09:04","10:24","11:44","13:04","14:24","15:44","17:04","18:24","19:44","21:04","22:18"]},{"id":"1571","name":"Pecorino Grimaldi Nord","lat":37.4914604,"lon":15.04757911,"times":["06:34","07:45","09:05","10:25","11:45","13:05","14:25","15:45","17:05","18:25","19:45","21:05","22:19"]},{"id":"1461","name":"Pecorino San Teodoro Nord ","lat":37.49135373,"lon":15.04372159,"times":["06:35","07:46","09:06","10:26","11:46","13:06","14:26","15:46","17:06","18:26","19:46","21:06","22:21"]},{"id":"1144","name":"Cardinale San Giorgio","lat":37.49158875,"lon":15.04188915,"times":["06:35","07:47","09:07","10:27","11:47","13:07","14:27","15:47","17:07","18:27","19:47","21:07","22:21"]},{"id":"1145","name":"Cardinale Giulio","lat":37.49136385,"lon":15.04061074,"times":["06:36","07:48","09:08","10:28","11:48","13:08","14:28","15:48","17:08","18:28","19:48","21:08","22:22"]},{"id":"1146","name":"Cardinale Pecorino","lat":37.4908507,"lon":15.03875528,"times":["06:36","07:48","09:08","10:28","11:48","13:08","14:28","15:48","17:08","18:28","19:48","21:08","22:22"]},{"id":"1151","name":"Pecorino San Teodoro Est ","lat":37.49197756,"lon":15.03828075,"times":["06:37","07:49","09:09","10:29","11:49","13:09","14:29","15:49","17:09","18:29","19:49","21:09","22:23"]},{"id":"1218","name":"Pecorino","lat":37.49445678,"lon":15.03685662,"times":["06:37","07:50","09:10","10:30","11:50","13:10","14:30","15:50","17:10","18:30","19:50","21:10","22:24"]},{"id":"373","name":"San Giorgio Calici","lat":37.4920116,"lon":15.04407265,"times":["06:40","07:54","09:14","10:34","11:54","13:14","14:34","15:54","17:14","18:34","19:54","21:14","22:27"]},{"id":"363","name":"Calici Airone","lat":37.49376639,"lon":15.04178064,"times":["06:41","07:55","09:15","10:35","11:55","13:15","14:35","15:55","17:15","18:35","19:55","21:15","22:28"]},{"id":"364","name":"Biancospino Aratro","lat":37.49479826,"lon":15.04004697,"times":["06:42","07:56","09:16","10:36","11:56","13:16","14:36","15:56","17:16","18:36","19:56","21:16","22:29"]},{"id":"365","name":"Azalea Cravone","lat":37.495637,"lon":15.038622,"times":["06:42","07:56","09:16","10:36","11:56","13:16","14:36","15:56","17:16","18:36","19:56","21:16","22:29"]},{"id":"1502","name":"Cravone Ippocastano Est","lat":37.49628051,"lon":15.03700795,"times":["06:43","07:57","09:17","10:37","11:57","13:17","14:37","15:57","17:17","18:37","19:57","21:17","22:30"]},{"id":"366","name":"Cravone Salvia","lat":37.49699902,"lon":15.03560212,"times":["06:43","07:58","09:18","10:38","11:58","13:18","14:38","15:58","17:18","18:38","19:58","21:18","22:30"]},{"id":"367","name":"Cravone Mazaro Nord","lat":37.49790083,"lon":15.03407527,"times":["06:44","07:58","09:18","10:38","11:58","13:18","14:38","15:58","17:18","18:38","19:58","21:18","22:31"]},{"id":"1139","name":"Cravone Olmi Nord","lat":37.50000166,"lon":15.03177959,"times":["06:45","07:59","09:19","10:39","11:59","13:19","14:39","15:59","17:19","18:39","19:59","21:19","22:32"]},{"id":"1140","name":"Cravone Finocchiaro Aprile","lat":37.50391406,"lon":15.02995968,"times":["06:46","08:01","09:21","10:41","12:01","13:21","14:41","16:01","17:21","18:41","20:01","21:21","22:34"]},{"id":"1220","name":"Salomone Marino Monte Po ","lat":37.50589644,"lon":15.03235912,"times":["06:47","08:03","09:23","10:43","12:03","13:23","14:43","16:03","17:23","18:43","20:03","21:23","22:35"]},{"id":"525","name":"Salomone Marino Sorrento Sud","lat":37.50684204,"lon":15.03526736,"times":["06:48","08:04","09:24","10:44","12:04","13:24","14:44","16:04","17:24","18:44","20:04","21:24","22:36"]},{"id":"526","name":"Pitrè","lat":37.50783336,"lon":15.0358675,"times":["06:49","08:05","09:25","10:45","12:05","13:25","14:45","16:05","17:25","18:45","20:05","21:25","22:37"]},{"id":"551","name":"Raccuglia (1)","lat":37.5073201,"lon":15.03411349,"times":["06:49","08:06","09:26","10:46","12:06","13:26","14:46","16:06","17:26","18:46","20:06","21:26","22:37"]},{"id":"552","name":"Raccuglia (2)","lat":37.50680675,"lon":15.03260843,"times":["06:50","08:06","09:26","10:46","12:06","13:26","14:46","16:06","17:26","18:46","20:06","21:26","22:38"]},{"id":"529","name":"Vigo","lat":37.50852749,"lon":15.03560759,"times":["06:51","08:08","09:28","10:48","12:08","13:28","14:48","16:08","17:28","18:48","20:08","21:28","22:39"]},{"id":"530","name":"Vigo Mercato Est","lat":37.51015874,"lon":15.03633253,"times":["06:51","08:09","09:29","10:49","12:09","13:29","14:49","16:09","17:29","18:49","20:09","21:29","22:40"]},{"id":"531","name":"Palermo Favara","lat":37.51178069,"lon":15.0379514,"times":["06:52","08:10","09:30","10:50","12:10","13:30","14:50","16:10","17:30","18:50","20:10","21:30","22:41"]},{"id":"532","name":"Fontana Nobili","lat":37.51361813,"lon":15.04191277,"times":["06:54","08:12","09:32","10:52","12:12","13:32","14:52","16:12","17:32","18:52","20:12","21:32","22:43"]},{"id":"533","name":"Secchi Tassoni","lat":37.51407652,"lon":15.0454435,"times":["06:55","08:14","09:34","10:54","12:14","13:34","14:54","16:14","17:34","18:54","20:14","21:34","22:44"]},{"id":"534","name":"Nobili Pacinotti","lat":37.51315676,"lon":15.04639344,"times":["06:56","08:14","09:34","10:54","12:14","13:34","14:54","16:14","17:34","18:54","20:14","21:34","22:45"]},{"id":"569","name":"San Pio X Pacinotti","lat":37.51348063,"lon":15.04795518,"times":["06:56","08:15","09:35","10:55","12:15","13:35","14:55","16:15","17:35","18:55","20:15","21:35","22:45"]},{"id":"570","name":"San Pio X Galilei","lat":37.51393889,"lon":15.05137278,"times":["06:57","08:16","09:36","10:56","12:16","13:36","14:56","16:16","17:36","18:56","20:16","21:36","22:46"]},{"id":"1747","name":"Miceli La Malfa ","lat":37.51488443,"lon":15.05337632,"times":["06:58","08:17","09:37","10:57","12:17","13:37","14:57","16:17","17:37","18:57","20:17","21:37","22:47"]},{"id":"1845","name":"Parcheggio Nesima","lat":37.51702842,"lon":15.04994588,"times":["07:00","08:20","09:40","11:00","12:20","13:40","15:00","16:20","17:40","19:00","20:20","21:40","22:50"]}],"sabato":[{"id":"447","name":"Terminal Villaggio Sant'Agata","lat":37.4907071,"lon":15.05903777,"times":["06:30","07:40","09:00","10:20","11:40","13:00","14:20","15:40","17:00","18:20","19:40","21:00","22:15"]},{"id":"357","name":"Colonna Grimaldi (1)","lat":37.49362049,"lon":15.05494493,"times":["06:31","07:42","09:02","10:22","11:42","13:02","14:22","15:42","17:02","18:22","19:42","21:02","22:16"]},{"id":"358","name":"Colonna Grimaldi (2)","lat":37.4941619,"lon":15.05365569,"times":["06:32","07:42","09:02","10:22","11:42","13:02","14:22","15:42","17:02","18:22","19:42","21:02","22:17"]},{"id":"359","name":"Colonna Grimaldi (3)","lat":37.49406391,"lon":15.05104241,"times":["06:32","07:43","09:03","10:23","11:43","13:03","14:23","15:43","17:03","18:23","19:43","21:03","22:18"]},{"id":"1570","name":"Pecorino Ovest","lat":37.49309085,"lon":15.05006888,"times":["06:33","07:44","09:04","10:24","11:44","13:04","14:24","15:44","17:04","18:24","19:44","21:04","22:18"]},{"id":"1571","name":"Pecorino Grimaldi Nord","lat":37.4914604,"lon":15.04757911,"times":["06:34","07:45","09:05","10:25","11:45","13:05","14:25","15:45","17:05","18:25","19:45","21:05","22:19"]},{"id":"1461","name":"Pecorino San Teodoro Nord ","lat":37.49135373,"lon":15.04372159,"times":["06:35","07:46","09:06","10:26","11:46","13:06","14:26","15:46","17:06","18:26","19:46","21:06","22:21"]},{"id":"1144","name":"Cardinale San Giorgio","lat":37.49158875,"lon":15.04188915,"times":["06:35","07:47","09:07","10:27","11:47","13:07","14:27","15:47","17:07","18:27","19:47","21:07","22:21"]},{"id":"1145","name":"Cardinale Giulio","lat":37.49136385,"lon":15.04061074,"times":["06:36","07:48","09:08","10:28","11:48","13:08","14:28","15:48","17:08","18:28","19:48","21:08","22:22"]},{"id":"1146","name":"Cardinale Pecorino","lat":37.4908507,"lon":15.03875528,"times":["06:36","07:48","09:08","10:28","11:48","13:08","14:28","15:48","17:08","18:28","19:48","21:08","22:22"]},{"id":"1151","name":"Pecorino San Teodoro Est ","lat":37.49197756,"lon":15.03828075,"times":["06:37","07:49","09:09","10:29","11:49","13:09","14:29","15:49","17:09","18:29","19:49","21:09","22:23"]},{"id":"1218","name":"Pecorino","lat":37.49445678,"lon":15.03685662,"times":["06:37","07:50","09:10","10:30","11:50","13:10","14:30","15:50","17:10","18:30","19:50","21:10","22:24"]},{"id":"373","name":"San Giorgio Calici","lat":37.4920116,"lon":15.04407265,"times":["06:40","07:54","09:14","10:34","11:54","13:14","14:34","15:54","17:14","18:34","19:54","21:14","22:27"]},{"id":"363","name":"Calici Airone","lat":37.49376639,"lon":15.04178064,"times":["06:41","07:55","09:15","10:35","11:55","13:15","14:35","15:55","17:15","18:35","19:55","21:15","22:28"]},{"id":"364","name":"Biancospino Aratro","lat":37.49479826,"lon":15.04004697,"times":["06:42","07:56","09:16","10:36","11:56","13:16","14:36","15:56","17:16","18:36","19:56","21:16","22:29"]},{"id":"365","name":"Azalea Cravone","lat":37.495637,"lon":15.038622,"times":["06:42","07:56","09:16","10:36","11:56","13:16","14:36","15:56","17:16","18:36","19:56","21:16","22:29"]},{"id":"1502","name":"Cravone Ippocastano Est","lat":37.49628051,"lon":15.03700795,"times":["06:43","07:57","09:17","10:37","11:57","13:17","14:37","15:57","17:17","18:37","19:57","21:17","22:30"]},{"id":"366","name":"Cravone Salvia","lat":37.49699902,"lon":15.03560212,"times":["06:43","07:58","09:18","10:38","11:58","13:18","14:38","15:58","17:18","18:38","19:58","21:18","22:30"]},{"id":"367","name":"Cravone Mazaro Nord","lat":37.49790083,"lon":15.03407527,"times":["06:44","07:58","09:18","10:38","11:58","13:18","14:38","15:58","17:18","18:38","19:58","21:18","22:31"]},{"id":"1139","name":"Cravone Olmi Nord","lat":37.50000166,"lon":15.03177959,"times":["06:45","07:59","09:19","10:39","11:59","13:19","14:39","15:59","17:19","18:39","19:59","21:19","22:32"]},{"id":"1140","name":"Cravone Finocchiaro Aprile","lat":37.50391406,"lon":15.02995968,"times":["06:46","08:01","09:21","10:41","12:01","13:21","14:41","16:01","17:21","18:41","20:01","21:21","22:34"]},{"id":"1220","name":"Salomone Marino Monte Po ","lat":37.50589644,"lon":15.03235912,"times":["06:47","08:03","09:23","10:43","12:03","13:23","14:43","16:03","17:23","18:43","20:03","21:23","22:35"]},{"id":"525","name":"Salomone Marino Sorrento Sud","lat":37.50684204,"lon":15.03526736,"times":["06:48","08:04","09:24","10:44","12:04","13:24","14:44","16:04","17:24","18:44","20:04","21:24","22:36"]},{"id":"526","name":"Pitrè","lat":37.50783336,"lon":15.0358675,"times":["06:49","08:05","09:25","10:45","12:05","13:25","14:45","16:05","17:25","18:45","20:05","21:25","22:37"]},{"id":"551","name":"Raccuglia (1)","lat":37.5073201,"lon":15.03411349,"times":["06:49","08:06","09:26","10:46","12:06","13:26","14:46","16:06","17:26","18:46","20:06","21:26","22:37"]},{"id":"552","name":"Raccuglia (2)","lat":37.50680675,"lon":15.03260843,"times":["06:50","08:06","09:26","10:46","12:06","13:26","14:46","16:06","17:26","18:46","20:06","21:26","22:38"]},{"id":"529","name":"Vigo","lat":37.50852749,"lon":15.03560759,"times":["06:51","08:08","09:28","10:48","12:08","13:28","14:48","16:08","17:28","18:48","20:08","21:28","22:39"]},{"id":"530","name":"Vigo Mercato Est","lat":37.51015874,"lon":15.03633253,"times":["06:51","08:09","09:29","10:49","12:09","13:29","14:49","16:09","17:29","18:49","20:09","21:29","22:40"]},{"id":"531","name":"Palermo Favara","lat":37.51178069,"lon":15.0379514,"times":["06:52","08:10","09:30","10:50","12:10","13:30","14:50","16:10","17:30","18:50","20:10","21:30","22:41"]},{"id":"532","name":"Fontana Nobili","lat":37.51361813,"lon":15.04191277,"times":["06:54","08:12","09:32","10:52","12:12","13:32","14:52","16:12","17:32","18:52","20:12","21:32","22:43"]},{"id":"533","name":"Secchi Tassoni","lat":37.51407652,"lon":15.0454435,"times":["06:55","08:14","09:34","10:54","12:14","13:34","14:54","16:14","17:34","18:54","20:14","21:34","22:44"]},{"id":"534","name":"Nobili Pacinotti","lat":37.51315676,"lon":15.04639344,"times":["06:56","08:14","09:34","10:54","12:14","13:34","14:54","16:14","17:34","18:54","20:14","21:34","22:45"]},{"id":"569","name":"San Pio X Pacinotti","lat":37.51348063,"lon":15.04795518,"times":["06:56","08:15","09:35","10:55","12:15","13:35","14:55","16:15","17:35","18:55","20:15","21:35","22:45"]},{"id":"570","name":"San Pio X Galilei","lat":37.51393889,"lon":15.05137278,"times":["06:57","08:16","09:36","10:56","12:16","13:36","14:56","16:16","17:36","18:56","20:16","21:36","22:46"]},{"id":"1747","name":"Miceli La Malfa ","lat":37.51488443,"lon":15.05337632,"times":["06:58","08:17","09:37","10:57","12:17","13:37","14:57","16:17","17:37","18:57","20:17","21:37","22:47"]},{"id":"1845","name":"Parcheggio Nesima","lat":37.51702842,"lon":15.04994588,"times":["07:00","08:20","09:40","11:00","12:20","13:40","15:00","16:20","17:40","19:00","20:20","21:40","22:50"]}],"domenica":[]}}}