{"id":"701","directions":{"0":{"feriale":[{"id":"1832","name":"Parcheggio Due Obelischi","lat":37.54114224,"lon":15.07854487,"times":["05:30","06:15","07:00","08:00","09:00","10:00","11:00","12:00","13:00","14:00","15:00","16:00","17:00","18:00","19:00","20:00","21:00","21:45","22:30"]},{"id":"165","name":"Etnea Barriera","lat":37.54303064,"lon":15.07592314,"times":["05:31","06:16","07:02","08:02","09:02","10:02","11:02","12:02","13:02","14:02","15:02","16:02","17:02","18:02","19:02","20:02","21:02","21:46","22:32"]},{"id":"166","name":"Etnea Due Obelischi","lat":37.54350945,"lon":15.0742143,"times":["05:32","06:17","07:03","08:03","09:03","10:03","11:03","12:03","13:03","14:03","15:03","16:03","17:03","18:03","19:03","20:03","21:03","21:47","22:32"]},{"id":"1678","name":"Etnea San Paolo","lat":37.54455534,"lon":15.06874212,"times":["05:35","06:20","07:06","08:06","09:06","10:06","11:06","12:06","13:06","14:06","15:06","16:06","17:06","18:06","19:06","20:06","21:06","21:50","22:35"]},{"id":"1681","name":"Coviello Guttuso","lat":37.5452267,"lon":15.06637102,"times":["05:36","06:21","07:07","08:07","09:07","10:07","11:07","12:07","13:07","14:07","15:07","16:07","17:07","18:07","19:07","20:07","21:07","21:51","22:36"]},{"id":"1682","name":"Coviello Gozzano Nord","lat":37.54471387,"lon":15.06466121,"times":["05:36","06:21","07:08","08:08","09:08","10:08","11:08","12:08","13:08","14:08","15:08","16:08","17:08","18:08","19:08","20:08","21:08","21:51","22:37"]},{"id":"1683","name":"Coviello Martoglio","lat":37.54497651,"lon":15.06234078,"times":["05:37","06:22","07:09","08:09","09:09","10:09","11:09","12:09","13:09","14:09","15:09","16:09","17:09","18:09","19:09","20:09","21:09","21:52","22:38"]},{"id":"1480","name":"Fasano","lat":37.54694082,"lon":15.05371274,"times":["05:42","06:27","07:14","08:14","09:14","10:14","11:14","12:14","13:14","14:14","15:14","16:14","17:14","18:14","19:14","20:14","21:14","21:57","22:43"]},{"id":"681","name":"Battista Dell'Alloro","lat":37.54672081,"lon":15.05275374,"times":["05:42","06:27","07:15","08:15","09:15","10:15","11:15","12:15","13:15","14:15","15:15","16:15","17:15","18:15","19:15","20:15","21:15","21:57","22:43"]},{"id":"682","name":"Battista Fasano","lat":37.54826236,"lon":15.05225671,"times":["05:43","06:28","07:16","08:16","09:16","10:16","11:16","12:16","13:16","14:16","15:16","16:16","17:16","18:16","19:16","20:16","21:16","21:58","22:44"]},{"id":"1265","name":"Girolamo Gravina Grande","lat":37.55028175,"lon":15.05146564,"times":["05:44","06:29","07:17","08:17","09:17","10:17","11:17","12:17","13:17","14:17","15:17","16:17","17:17","18:17","19:17","20:17","21:17","21:59","22:46"]},{"id":"1266","name":"Girolamo Gravina Belvedere","lat":37.55038367,"lon":15.05267251,"times":["05:45","06:30","07:18","08:18","09:18","10:18","11:18","12:18","13:18","14:18","15:18","16:18","17:18","18:18","19:18","20:18","21:18","22:00","22:46"]},{"id":"1267","name":"Galermo Coccio","lat":37.55155987,"lon":15.05545161,"times":["05:46","06:31","07:19","08:19","09:19","10:19","11:19","12:19","13:19","14:19","15:19","16:19","17:19","18:19","19:19","20:19","21:19","22:01","22:48"]},{"id":"1577","name":"Unione Europea","lat":37.55293751,"lon":15.0584415,"times":["05:48","06:33","07:22","08:22","09:22","10:22","11:22","12:22","13:22","14:22","15:22","16:22","17:22","18:22","19:22","20:22","21:22","22:03","22:50"]}],"sabato":[{"id":"1832","name":"Parcheggio Due Obelischi","lat":37.54114224,"lon":15.07854487,"times":["05:30","06:15","07:00","08:00","09:00","10:00","11:00","12:00","13:00","14:00","15:00","16:00","17:00","18:00","19:00","20:00","21:00","21:45","22:30"]},{"id":"165","name":"Etnea Barriera","lat":37.54303064,"lon":15.07592314,"times":["05:31","06:16","07:02","08:02","09:02","10:02","11:02","12:02","13:02","14:02","15:02","16:02","17:02","18:02","19:02","20:02","21:02","21:46","22:32"]},{"id":"166","name":"Etnea Due Obelischi","lat":37.54350945,"lon":15.0742143,"times":["05:32","06:17","07:03","08:03","09:03","10:03","11:03","12:03","13:03","14:03","15:03","16:03","17:03","18:03","19:03","20:03","21:03","21:47","22:32"]},{"id":"1678","name":"Etnea San Paolo","lat":37.54455534,"lon":15.06874212,"times":["05:35","06:20","07:06","08:06","09:06","10:06","11:06","12:06","13:06","14:06","15:06","16:06","17:06","18:06","19:06","20:06","21:06","21:50","22:35"]},{"id":"1681","name":"Coviello Guttuso","lat":37.5452267,"lon":15.06637102,"times":["05:36","06:21","07:07","08:07","09:07","10:07","11:07","12:07","13:07","14:07","15:07","16:07","17:07","18:07","19:07","20:07","21:07","21:51","22:36"]},{"id":"1682","name":"Coviello Gozzano Nord","lat":37.54471387,"lon":15.06466121,"times":["05:36","06:21","07:08","08:08","09:08","10:08","11:08","12:08","13:08","14:08","15:08","16:08","17:08","18:08","19:08","20:08","21:08","21:51","22:37"]},{"id":"1683","name":"Coviello Martoglio","lat":37.54497651,"lon":15.06234078,"times":["05:37","06:22","07:09","08:09","09:09","10:09","11:09","12:09","13:09","14:09","15:09","16:09","17:09","18:09","19:09","20:09","21:09","21:52","22:38"]},{"id":"1480","name":"Fasano","lat":37.54694082,"lon":15.05371274,"times":["05:42","06:27","07:14","08:14","09:14","10:14","11:14","12:14","13:14","14:14","15:14","16:14","17:14","18:14","19:14","20:14","21:14","21:57","22:43"]},{"id":"681","name":"Battista Dell'Alloro","lat":37.54672081,"lon":15.05275374,"times":["05:42","06:27","07:15","08:15","09:15","10:15","11:15","12:15","13:15","14:15","15:15","16:15","17:15","18:15","19:15","20:15","21:15","21:57","22:43"]},{"id":"682","name":"Battista Fasano","lat":37.54826236,"lon":15.05225671,"times":["05:43","06:28","07:16","08:16","09:16","10:16","11:16","12:16","13:16","14:16","15:16","16:16","17:16","18:16","19:16","20:16","21:16","21:58","22:44"]},{"id":"1265","name":"Girolamo Gravina Grande","lat":37.55028175,"lon":15.05146564,"times":["05:44","06:29","07:17","08:17","09:17","10:17","11:17","12:17","13:17","14:17","15:17","16:17","17:17","18:17","19:17","20:17","21:17","21:59","22:46"]},{"id":"1266","name":"Girolamo Gravina Belvedere","lat":37.55038367,"lon":15.05267251,"times":["05:45","06:30","07:18","08:18","09:18","10:18","11:18","12:18","13:18","14:18","15:18","16:18","17:18","18:18","19:18","20:18","21:18","22:00","22:46"]},{"id":"1267","name":"Galermo Coccio","lat":37.55155987,"lon":15.05545161,"times":["05:46","06:31","07:19","08:19","09:19","10:19","11:19","12:19","13:19","14:19","15:19","16:19","17:19","18:19","19:19","20:19","21:19","22:01","22:48"]},{"id":"1577","name":"Unione Europea","lat":37.55293751,"lon":15.0584415,"times":["05:48","06:33","07:22","08:22","09:22","10:22","11:22","12:22","13:22","14:22","15:22","16:22","17:22","18:22","19:22","20:22","21:22","22:03","22:50"]}],"domenica":[]},"1":{"feriale":[{"id":"1577","name":"Unione Europea","lat":37.55293751,"lon":15.0584415,"times":["05:48","06:33","07:22","08:22","09:22","10:22","11:22","12:22","13:22","14:22","15:22","16:22","17:22","18:22","19:22","20:22","21:22","22:03","22:50"]},{"id":"1924","name":"Badia Gravina","lat":37.55462526,"lon":15.05784845,"times":["05:48","06:33","07:23","08:23","09:23","10:23","11:23","12:23","13:23","14:23","15:23","16:23","17:23","18:23","19:23","20:23","21:22","22:03","22:50"]},{"id":"1268","name":"Badia Galermo","lat":37.55272198,"lon":15.05686309,"times":["05:49","06:34","07:23","08:23","09:23","10:24","11:23","12:23","13:23","14:23","15:23","16:24","17:23","18:23","19:23","20:23","21:23","22:04","22:51"]},{"id":"1269","name":"Galermo Badia","lat":37.55213551,"lon":15.05605363,"times":["05:49","06:34","07:24","08:24","09:24","10:24","11:24","12:24","13:24","14:24","15:24","16:24","17:24","18:24","19:24","20:24","21:23","22:04","22:51"]},{"id":"1270","name":"Girolamo Gravina Guardia","lat":37.55129872,"lon":15.05493064,"times":["05:49","06:34","07:24","08:24","09:24","10:25","11:24","12:24","13:24","14:24","15:24","16:25","17:24","18:24","19:24","20:24","21:23","22:04","22:52"]},{"id":"1271","name":"Girolamo Gravina La Scala","lat":37.55043441,"lon":15.05274503,"times":["05:50","06:35","07:25","08:25","09:25","10:25","11:25","12:25","13:25","14:25","15:25","16:25","17:25","18:25","19:25","20:25","21:23","22:05","22:52"]},{"id":"683","name":"Grande","lat":37.55054332,"lon":15.05104694,"times":["05:50","06:35","07:25","08:25","09:25","10:26","11:25","12:25","13:25","14:25","15:25","16:26","17:25","18:25","19:25","20:25","21:24","22:05","22:52"]},{"id":"1272","name":"Chiesa Madre Calvario","lat":37.5517334,"lon":15.05039112,"times":["05:50","06:35","07:26","08:26","09:26","10:27","11:26","12:26","13:26","14:26","15:26","16:27","17:26","18:26","19:26","20:26","21:24","22:05","22:53"]},{"id":"1273","name":"Calvario Guardia","lat":37.5530493,"lon":15.05058447,"times":["05:51","06:36","07:26","08:26","09:26","10:27","11:26","12:26","13:26","14:26","15:26","16:27","17:26","18:26","19:26","20:26","21:24","22:06","22:53"]},{"id":"1274","name":"Macello Calvario","lat":37.55377063,"lon":15.05001888,"times":["05:51","06:36","07:27","08:27","09:27","10:28","11:27","12:27","13:27","14:27","15:27","16:28","17:27","18:27","19:27","20:27","21:24","22:06","22:53"]},{"id":"1275","name":"Macello Allegria","lat":37.55452783,"lon":15.0498722,"times":["05:51","06:36","07:27","08:27","09:27","10:28","11:27","12:27","13:27","14:27","15:27","16:28","17:27","18:27","19:27","20:27","21:25","22:06","22:54"]},{"id":"1276","name":"Macello","lat":37.55552842,"lon":15.04966907,"times":["05:51","06:36","07:27","08:27","09:27","10:28","11:27","12:27","13:27","14:27","15:27","16:28","17:27","18:27","19:27","20:27","21:25","22:06","22:54"]},{"id":"1277","name":"Macello Venere","lat":37.5567259,"lon":15.04949464,"times":["05:52","06:37","07:28","08:28","09:28","10:29","11:28","12:28","13:28","14:28","15:28","16:29","17:28","18:28","19:28","20:28","21:25","22:07","22:54"]},{"id":"1278","name":"Macello Acquario","lat":37.55775505,"lon":15.04902518,"times":["05:52","06:37","07:28","08:28","09:28","10:29","11:28","12:28","13:28","14:28","15:28","16:29","17:28","18:28","19:28","20:28","21:25","22:07","22:55"]},{"id":"1372","name":"Comuni Macello","lat":37.56060383,"lon":15.04781553,"times":["05:53","06:38","07:29","08:29","09:29","10:31","11:29","12:29","13:29","14:29","15:29","16:31","17:29","18:29","19:29","20:29","21:26","22:08","22:56"]},{"id":"1373","name":"Comuni","lat":37.56068619,"lon":15.04465656,"times":["05:53","06:38","07:30","08:30","09:30","10:32","11:30","12:30","13:30","14:30","15:30","16:32","17:30","18:30","19:30","20:30","21:26","22:08","22:56"]},{"id":"1374","name":"Cisternazza","lat":37.56196634,"lon":15.04407986,"times":["05:54","06:39","07:31","08:31","09:31","10:32","11:31","12:31","13:31","14:31","15:31","16:32","17:31","18:31","19:31","20:31","21:27","22:09","22:57"]},{"id":"1375","name":"Comunità Europea (1)","lat":37.56229044,"lon":15.04508779,"times":["05:54","06:39","07:31","08:31","09:31","10:33","11:31","12:31","13:31","14:31","15:31","16:33","17:31","18:31","19:31","20:31","21:27","22:09","22:57"]},{"id":"1376","name":"Comunità Europea (2)","lat":37.56203742,"lon":15.04674077,"times":["05:54","06:39","07:32","08:32","09:32","10:34","11:32","12:32","13:32","14:32","15:32","16:34","17:32","18:32","19:32","20:32","21:27","22:09","22:57"]},{"id":"1643","name":"Comunità Europea Macello","lat":37.56161342,"lon":15.04765765,"times":["05:55","06:40","07:32","08:32","09:32","10:34","11:32","12:32","13:32","14:32","15:32","16:34","17:32","18:32","19:32","20:32","21:27","22:10","22:58"]},{"id":"1279","name":"Balatelle Orsa Minore Est","lat":37.5583416,"lon":15.04738383,"times":["05:56","06:41","07:34","08:34","09:34","10:36","11:34","12:34","13:34","14:34","15:34","16:36","17:34","18:34","19:34","20:34","21:28","22:11","22:59"]},{"id":"1280","name":"Balatelle","lat":37.55888168,"lon":15.04549556,"times":["05:56","06:41","07:35","08:35","09:35","10:37","11:35","12:35","13:35","14:35","15:35","16:37","17:35","18:35","19:35","20:35","21:29","22:11","22:59"]},{"id":"1281","name":"Balatelle Orsa Minore Ovest","lat":37.5582244,"lon":15.04744037,"times":["05:57","06:42","07:35","08:35","09:35","10:37","11:35","12:35","13:35","14:35","15:35","16:37","17:35","18:35","19:35","20:35","21:29","22:12","23:00"]},{"id":"1282","name":"Orsa Minore Mariani","lat":37.55763027,"lon":15.0455039,"times":["05:57","06:42","07:36","08:36","09:36","10:38","11:36","12:36","13:36","14:36","15:36","16:38","17:36","18:36","19:36","20:36","21:29","22:12","23:00"]},{"id":"1543","name":"San Matteo Mariani","lat":37.557234,"lon":15.04463185,"times":["05:57","06:42","07:36","08:36","09:36","10:38","11:36","12:36","13:36","14:36","15:36","16:38","17:36","18:36","19:36","20:36","21:30","22:12","23:01"]},{"id":"1284","name":"San Matteo","lat":37.55654917,"lon":15.04408799,"times":["05:58","06:43","07:37","08:37","09:37","10:39","11:37","12:37","13:37","14:37","15:37","16:39","17:37","18:37","19:37","20:37","21:30","22:13","23:01"]},{"id":"1355","name":"Adone Meli","lat":37.55498103,"lon":15.04349833,"times":["05:58","06:43","07:38","08:38","09:38","10:40","11:38","12:38","13:38","14:38","15:38","16:40","17:38","18:38","19:38","20:38","21:30","22:13","23:02"]},{"id":"1356","name":"Adone   ","lat":37.55524303,"lon":15.04181153,"times":["05:58","06:43","07:38","08:38","09:38","10:40","11:38","12:38","13:38","14:38","15:38","16:40","17:38","18:38","19:38","20:38","21:30","22:13","23:02"]},{"id":"M1_701","name":"San Matteo Meli","lat":37.55413354,"lon":15.044543,"times":["05:59","06:44","07:39","08:39","09:39","10:42","11:39","12:39","13:39","14:39","15:39","16:42","17:39","18:39","19:39","20:39","21:31","22:14","23:03"]},{"id":"687","name":"Clarenza Sant'Andrea ","lat":37.55306197,"lon":15.04245555,"times":["06:00","06:45","07:40","08:40","09:40","10:42","11:40","12:40","13:40","14:40","15:40","16:42","17:40","18:40","19:40","20:40","21:31","22:15","23:03"]},{"id":"688","name":"Vigne Nuove Andromeda","lat":37.55206077,"lon":15.04310039,"times":["06:00","06:45","07:40","08:40","09:40","10:43","11:40","12:40","13:40","14:40","15:40","16:43","17:40","18:40","19:40","20:40","21:32","22:15","23:04"]},{"id":"1765","name":"Capricorno","lat":37.55076491,"lon":15.0420791,"times":["06:00","06:45","07:41","08:41","09:41","10:44","11:41","12:41","13:41","14:41","15:41","16:44","17:41","18:41","19:41","20:41","21:32","22:15","23:04"]},{"id":"1766","name":"Bello Flaminia","lat":37.54985239,"lon":15.04325761,"times":["06:01","06:46","07:41","08:41","09:41","10:44","11:41","12:41","13:41","14:41","15:41","16:44","17:41","18:41","19:41","20:41","21:32","22:16","23:05"]},{"id":"723","name":"Minzoni Bello","lat":37.54853556,"lon":15.04549837,"times":["06:01","06:46","07:42","08:42","09:42","10:45","11:42","12:42","13:42","14:42","15:42","16:45","17:42","18:42","19:42","20:42","21:33","22:16","23:05"]},{"id":"724","name":"Minzoni (1)","lat":37.54717418,"lon":15.04633527,"times":["06:02","06:47","07:43","08:43","09:43","10:46","11:43","12:43","13:43","14:43","15:43","16:46","17:43","18:43","19:43","20:43","21:33","22:17","23:06"]},{"id":"725","name":"Minzoni (2)","lat":37.54616394,"lon":15.04814592,"times":["06:02","06:47","07:43","08:43","09:43","10:47","11:43","12:43","13:43","14:43","15:43","16:47","17:43","18:43","19:43","20:43","21:33","22:17","23:06"]},{"id":"726","name":"Minzoni San Luca","lat":37.5459738,"lon":15.05019479,"times":["06:03","06:48","07:44","08:44","09:44","10:47","11:44","12:44","13:44","14:44","15:44","16:47","17:44","18:44","19:44","20:44","21:34","22:18","23:07"]},{"id":"727","name":"San Luca","lat":37.54472089,"lon":15.05022791,"times":["06:03","06:48","07:45","08:45","09:45","10:48","11:45","12:45","13:45","14:45","15:45","16:48","17:45","18:45","19:45","20:45","21:34","22:18","23:07"]},{"id":"1321","name":"Misericordia San Luca","lat":37.5441614,"lon":15.05174444,"times":["06:03","06:48","07:45","08:45","09:45","10:49","11:45","12:45","13:45","14:45","15:45","16:49","17:45","18:45","19:45","20:45","21:35","22:18","23:08"]},{"id":"728","name":"Misericordia Galermo","lat":37.54392643,"lon":15.05312533,"times":["06:04","06:49","07:46","08:46","09:46","10:49","11:46","12:46","13:46","14:46","15:46","16:49","17:46","18:46","19:46","20:46","21:35","22:19","23:08"]},{"id":"1728","name":"Barriera Galermo","lat":37.54407001,"lon":15.05451781,"times":["06:04","06:49","07:46","08:46","09:46","10:50","11:46","12:46","13:46","14:46","15:46","16:50","17:46","18:46","19:46","20:46","21:35","22:19","23:08"]},{"id":"1479","name":"Barriera Fasano Sud ","lat":37.54442978,"lon":15.05618214,"times":["06:04","06:49","07:47","08:47","09:47","10:51","11:47","12:47","13:47","14:47","15:47","16:51","17:47","18:47","19:47","20:47","21:35","22:19","23:09"]},{"id":"1901","name":"Coviello Gozzano Sud","lat":37.54470288,"lon":15.06468762,"times":["06:06","06:51","07:50","08:50","09:50","10:54","11:50","12:50","13:50","14:50","15:50","16:54","17:50","18:50","19:50","20:50","21:37","22:21","23:11"]},{"id":"1902","name":"Coviello Bramante","lat":37.54502719,"lon":15.06582006,"times":["06:06","06:51","07:50","08:50","09:50","10:54","11:50","12:50","13:50","14:50","15:50","16:54","17:50","18:50","19:50","20:50","21:37","22:21","23:11"]},{"id":"1844","name":"BOSCO","lat":37.54278896,"lon":15.07652882,"times":["06:09","06:54","07:53","08:53","09:53","10:58","11:53","12:53","13:53","14:53","15:53","16:58","17:53","18:53","19:53","20:53","21:39","22:24","23:14"]},{"id":"1832","name":"Parcheggio Due Obelischi","lat":37.54114224,"lon":15.07854487,"times":["06:10","06:55","07:55","08:55","09:55","11:00","11:55","12:55","13:55","14:55","15:55","17:00","17:55","18:55","19:55","20:55","21:40","22:25","23:15"]}],"sabato":[{"id":"1577","name":"Unione Europea","lat":37.55293751,"lon":15.0584415,"times":["05:48","06:33","07:22","08:22","09:22","10:22","11:22","12:22","13:22","14:22","15:22","16:22","17:22","18:22","19:22","20:22","21:22","22:03","22:50"]},{"id":"1924","name":"Badia Gravina","lat":37.55462526,"lon":15.05784845,"times":["05:48","06:33","07:23","08:23","09:23","10:23","11:23","12:23","13:23","14:23","15:23","16:23","17:23","18:23","19:23","20:23","21:22","22:03","22:50"]},{"id":"1268","name":"Badia Galermo","lat":37.55272198,"lon":15.05686309,"times":["05:49","06:34","07:23","08:23","09:23","10:24","11:23","12:23","13:23","14:23","15:23","16:24","17:23","18:23","19:23","20:23","21:23","22:04","22:51"]},{"id":"1269","name":"Galermo Badia","lat":37.55213551,"lon":15.05605363,"times":["05:49","06:34","07:24","08:24","09:24","10:24","11:24","12:24","13:24","14:24","15:24","16:24","17:24","18:24","19:24","20:24","21:23","22:04","22:51"]},{"id":"1270","name":"Girolamo Gravina Guardia","lat":37.55129872,"lon":15.05493064,"times":["05:49","06:34","07:24","08:24","09:24","10:25","11:24","12:24","13:24","14:24","15:24","16:25","17:24","18:24","19:24","20:24","21:23","22:04","22:52"]},{"id":"1271","name":"Girolamo Gravina La Scala","lat":37.55043441,"lon":15.05274503,"times":["05:50","06:35","07:25","08:25","09:25","10:25","11:25","12:25","13:25","14:25","15:25","16:25","17:25","18:25","19:25","20:25","21:23","22:05","22:52"]},{"id":"683","name":"Grande","lat":37.55054332,"lon":15.05104694,"times":["05:50","06:35","07:25","08:25","09:25","10:26","11:25","12:25","13:25","14:25","15:25","16:26","17:25","18:25","19:25","20:25","21:24","22:05","22:52"]},{"id":"1272","name":"Chiesa Madre Calvario","lat":37.5517334,"lon":15.05039112,"times":["05:50","06:35","07:26","08:26","09:26","10:27","11:26","12:26","13:26","14:26","15:26","16:27","17:26","18:26","19:26","20:26","21:24","22:05","22:53"]},{"id":"1273","name":"Calvario Guardia","lat":37.5530493,"lon":15.05058447,"times":["05:51","06:36","07:26","08:26","09:26","10:27","11:26","12:26","13:26","14:26","15:26","16:27","17:26","18:26","19:26","20:26","21:24","22:06","22:53"]},{"id":"1274","name":"Macello Calvario","lat":37.55377063,"lon":15.05001888,"times":["05:51","06:36","07:27","08:27","09:27","10:28","11:27","12:27","13:27","14:27","15:27","16:28","17:27","18:27","19:27","20:27","21:24","22:06","22:53"]},{"id":"1275","name":"Macello Allegria","lat":37.55452783,"lon":15.0498722,"times":["05:51","06:36","07:27","08:27","09:27","10:28","11:27","12:27","13:27","14:27","15:27","16:28","17:27","18:27","19:27","20:27","21:25","22:06","22:54"]},{"id":"1276","name":"Macello","lat":37.55552842,"lon":15.04966907,"times":["05:51","06:36","07:27","08:27","09:27","10:28","11:27","12:27","13:27","14:27","15:27","16:28","17:27","18:27","19:27","20:27","21:25","22:06","22:54"]},{"id":"1277","name":"Macello Venere","lat":37.5567259,"lon":15.04949464,"times":["05:52","06:37","07:28","08:28","09:28","10:29","11:28","12:28","13:28","14:28","15:28","16:29","17:28","18:28","19:28","20:28","21:25","22:07","22:54"]},{"id":"1278","name":"Macello Acquario","lat":37.55775505,"lon":15.04902518,"times":["05:52","06:37","07:28","08:28","09:28","10:29","11:28","12:28","13:28","14:28","15:28","16:29","17:28","18:28","19:28","20:28","21:25","22:07","22:55"]},{"id":"1372","name":"Comuni Macello","lat":37.56060383,"lon":15.04781553,"times":["05:53","06:38","07:29","08:29","09:29","10:31","11:29","12:29","13:29","14:29","15:29","16:31","17:29","18:29","19:29","20:29","21:26","22:08","22:56"]},{"id":"1373","name":"Comuni","lat":37.56068619,"lon":15.04465656,"times":["05:53","06:38","07:30","08:30","09:30","10:32","11:30","12:30","13:30","14:30","15:30","16:32","17:30","18:30","19:30","20:30","21:26","22:08","22:56"]},{"id":"1374","name":"Cisternazza","lat":37.56196634,"lon":15.04407986,"times":["05:54","06:39","07:31","08:31","09:31","10:32","11:31","12:31","13:31","14:31","15:31","16:32","17:31","18:31","19:31","20:31","21:27","22:09","22:57"]},{"id":"1375","name":"Comunità Europea (1)","lat":37.56229044,"lon":15.04508779,"times":["05:54","06:39","07:31","08:31","09:31","10:33","11:31","12:31","13:31","14:31","15:31","16:33","17:31","18:31","19:31","20:31","21:27","22:09","22:57"]},{"id":"1376","name":"Comunità Europea (2)","lat":37.56203742,"lon":15.04674077,"times":["05:54","06:39","07:32","08:32","09:32","10:34","11:32","12:32","13:32","14:32","15:32","16:34","17:32","18:32","19:32","20:32","21:27","22:09","22:57"]},{"id":"1643","name":"Comunità Europea Macello","lat":37.56161342,"lon":15.04765765,"times":["05:55","06:40","07:32","08:32","09:32","10:34","11:32","12:32","13:32","14:32","15:32","16:34","17:32","18:32","19:32","20:32","21:27","22:10","22:58"]},{"id":"1279","name":"Balatelle Orsa Minore Est","lat":37.5583416,"lon":15.04738383,"times":["05:56","06:41","07:34","08:34","09:34","10:36","11:34","12:34","13:34","14:34","15:34","16:36","17:34","18:34","19:34","20:34","21:28","22:11","22:59"]},{"id":"1280","name":"Balatelle","lat":37.55888168,"lon":15.04549556,"times":["05:56","06:41","07:35","08:35","09:35","10:37","11:35","12:35","13:35","14:35","15:35","16:37","17:35","18:35","19:35","20:35","21:29","22:11","22:59"]},{"id":"1281","name":"Balatelle Orsa Minore Ovest","lat":37.5582244,"lon":15.04744037,"times":["05:57","06:42","07:35","08:35","09:35","10:37","11:35","12:35","13:35","14:35","15:35","16:37","17:35","18:35","19:35","20:35","21:29","22:12","23:00"]},{"id":"1282","name":"Orsa Minore Mariani","lat":37.55763027,"lon":15.0455039,"times":["05:57","06:42","07:36","08:36","09:36","10:38","11:36","12:36","13:36","14:36","15:36","16:38","17:36","18:36","19:36","20:36","21:29","22:12","23:00"]},{"id":"1543","name":"San Matteo Mariani","lat":37.557234,"lon":15.04463185,"times":["05:57","06:42","07:36","08:36","09:36","10:38","11:36","12:36","13:36","14:36","15:36","16:38","17:36","18:36","19:36","20:36","21:30","22:12","23:01"]},{"id":"1284","name":"San Matteo","lat":37.55654917,"lon":15.04408799,"times":["05:58","06:43","07:37","08:37","09:37","10:39","11:37","12:37","13:37","14:37","15:37","16:39","17:37","18:37","19:37","20:37","21:30","22:13","23:01"]},{"id":"1355","name":"Adone Meli","lat":37.55498103,"lon":15.04349833,"times":["05:58","06:43","07:38","08:38","09:38","10:40","11:38","12:38","13:38","14:38","15:38","16:40","17:38","18:38","19:38","20:38","21:30","22:13","23:02"]},{"id":"1356","name":"Adone   ","lat":37.55524303,"lon":15.04181153,"times":["05:58","06:43","07:38","08:38","09:38","10:40","11:38","12:38","13:38","14:38","15:38","16:40","17:38","18:38","19:38","20:38","21:30","22:13","23:02"]},{"id":"M1_701","name":"San Matteo Meli","lat":37.55413354,"lon":15.044543,"times":["05:59","06:44","07:39","08:39","09:39","10:42","11:39","12:39","13:39","14:39","15:39","16:42","17:39","18:39","19:39","20:39","21:31","22:14","23:03"]},{"id":"687","name":"Clarenza Sant'Andrea ","lat":37.55306197,"lon":15.04245555,"times":["06:00","06:45","07:40","08:40","09:40","10:42","11:40","12:40","13:40","14:40","15:40","16:42","17:40","18:40","19:40","20:40","21:31","22:15","23:03"]},{"id":"688","name":"Vigne Nuove Andromeda","lat":37.55206077,"lon":15.04310039,"times":["06:00","06:45","07:40","08:40","09:40","10:43","11:40","12:40","13:40","14:40","15:40","16:43","17:40","18:40","19:40","20:40","21:32","22:15","23:04"]},{"id":"1765","name":"Capricorno","lat":37.55076491,"lon":15.0420791,"times":["06:00","06:45","07:41","08:41","09:41","10:44","11:41","12:41","13:41","14:41","15:41","16:44","17:41","18:41","19:41","20:41","21:32","22:15","23:04"]},{"id":"1766","name":"Bello Flaminia","lat":37.54985239,"lon":15.04325761,"times":["06:01","06:46","07:41","08:41","09:41","10:44","11:41","12:41","13:41","14:41","15:41","16:44","17:41","18:41","19:41","20:41","21:32","22:16","23:05"]},{"id":"723","name":"Minzoni Bello","lat":37.54853556,"lon":15.04549837,"times":["06:01","06:46","07:42","08:42","09:42","10:45","11:42","12:42","13:42","14:42","15:42","16:45","17:42","18:42","19:42","20:42","21:33","22:16","23:05"]},{"id":"724","name":"Minzoni (1)","lat":37.54717418,"lon":15.04633527,"times":["06:02","06:47","07:43","08:43","09:43","10:46","11:43","12:43","13:43","14:43","15:43","16:46","17:43","18:43","19:43","20:43","21:33","22:17","23:06"]},{"id":"725","name":"Minzoni (2)","lat":37.54616394,"lon":15.04814592,"times":["06:02","06:47","07:43","08:43","09:43","10:47","11:43","12:43","13:43","14:43","15:43","16:47","17:43","18:43","19:43","20:43","21:33","22:17","23:06"]},{"id":"726","name":"Minzoni San Luca","lat":37.5459738,"lon":15.05019479,"times":["06:03","06:48","07:44","08:44","09:44","10:47","11:44","12:44","13:44","14:44","15:44","16:47","17:44","18:44","19:44","20:44","21:34","22:18","23:07"]},{"id":"727","name":"San Luca","lat":37.54472089,"lon":15.05022791,"times":["06:03","06:48","07:45","08:45","09:45","10:48","11:45","12:45","13:45","14:45","15:45","16:48","17:45","18:45","19:45","20:45","21:34","22:18","23:07"]},{"id":"1321","name":"Misericordia San Luca","lat":37.5441614,"lon":15.05174444,"times":["06:03","06:48","07:45","08:45","09:45","10:49","11:45","12:45","13:45","14:45","15:45","16:49","17:45","18:45","19:45","20:45","21:35","22:18","23:08"]},{"id":"728","name":"Misericordia Galermo","lat":37.54392643,"lon":15.05312533,"times":["06:04","06:49","07:46","08:46","09:46","10:49","11:46","12:46","13:46","14:46","15:46","16:49","17:46","18:46","19:46","20:46","21:35","22:19","23:08"]},{"id":"1728","name":"Barriera Galermo","lat":37.54407001,"lon":15.05451781,"times":["06:04","06:49","07:46","08:46","09:46","10:50","11:46","12:46","13:46","14:46","15:46","16:50","17:46","18:46","19:46","20:46","21:35","22:19","23:08"]},{"id":"1479","name":"Barriera Fasano Sud ","lat":37.54442978,"lon":15.05618214,"times":["06:04","06:49","07:47","08:47","09:47","10:51","11:47","12:47","13:47","14:47","15:47","16:51","17:47","18:47","19:47","20:47","21:35","22:19","23:09"]},{"id":"1901","name":"Coviello Gozzano Sud","lat":37.54470288,"lon":15.06468762,"times":["06:06","06:51","07:50","08:50","09:50","10:54","11:50","12:50","13:50","14:50","15:50","16:54","17:50","18:50","19:50","20:50","21:37","22:21","23:11"]},{"id":"1902","name":"Coviello Bramante","lat":37.54502719,"lon":15.06582006,"times":["06:06","06:51","07:50","08:50","09:50","10:54","11:50","12:50","13:50","14:50","15:50","16:54","17:50","18:50","19:50","20:50","21:37","22:21","23:11"]},{"id":"1844","name":"BOSCO","lat":37.54278896,"lon":15.07652882,"times":["06:09","06:54","07:53","08:53","09:53","10:58","11:53","12:53","13:53","14:53","15:53","16:58","17:53","18:53","19:53","20:53","21:39","22:24","23:14"]},{"id":"1832","name":"Parcheggio Due Obelischi","lat":37.54114224,"lon":15.07854487,"times":["06:10","06:55","07:55","08:55","09:55","11:00","11:55","12:55","13:55","14:55","15:55","17:00","17:55","18:55","19:55","20:55","21:40","22:25","23:15"]}],"domenica":[]}}}