{"id":"702","directions":{"0":{"feriale":[{"id":"307","name":"Terminal Borsa","lat":37.50769098,"lon":15.08508615,"times":["06:00","07:00","08:15","09:15","09:30","10:30","10:45","11:45","12:00","13:00","13:15","14:30","15:45","16:45","17:00","18:00","18:15","19:15","19:30","20:30","20:45","22:00"]},{"id":"389","name":"Sant'Euplio Spedalieri","lat":37.50903412,"lon":15.08494058,"times":["06:00","07:00","08:15","09:15","09:30","10:30","10:45","11:45","12:00","13:00","13:15","14:30","15:45","16:45","17:00","18:00","18:15","19:15","19:30","20:30","20:45","22:00"]},{"id":"148","name":"VILLA BELLINI","lat":37.51142248,"lon":15.08529406,"times":["06:01","07:01","08:16","09:16","09:31","10:31","10:46","11:46","12:01","13:01","13:16","14:31","15:46","16:46","17:01","18:01","18:16","19:16","19:31","20:31","20:46","22:01"]},{"id":"303","name":"ROMA","lat":37.51314501,"lon":15.08400605,"times":["06:02","07:02","08:17","09:17","09:32","10:32","10:47","11:47","12:02","13:02","13:17","14:32","15:47","16:47","17:02","18:02","18:17","19:17","19:32","20:32","20:47","22:02"]},{"id":"304","name":"Regina Margherita Tomaselli","lat":37.51275023,"lon":15.08141438,"times":["06:02","07:03","08:18","09:18","09:33","10:33","10:48","11:48","12:03","13:03","13:18","14:33","15:48","16:48","17:03","18:03","18:18","19:18","19:33","20:33","20:48","22:03"]},{"id":"305","name":"S.M. Gesù Cifali","lat":37.51230144,"lon":15.078619,"times":["06:03","07:04","08:19","09:19","09:34","10:34","10:49","11:49","12:04","13:04","13:19","14:34","15:49","16:49","17:04","18:04","18:19","19:19","19:33","20:33","20:49","22:03"]},{"id":"668","name":"Rapisardi Lavaggi","lat":37.51161016,"lon":15.07434112,"times":["06:04","07:05","08:20","09:20","09:35","10:35","10:50","11:50","12:05","13:05","13:20","14:35","15:50","16:50","17:05","18:05","18:20","19:20","19:35","20:35","20:50","22:05"]},{"id":"669","name":"Fava Franchetti","lat":37.51208025,"lon":15.07211247,"times":["06:05","07:06","08:21","09:21","09:36","10:36","10:51","11:51","12:06","13:06","13:21","14:36","15:51","16:51","17:06","18:06","18:21","19:21","19:36","20:36","20:51","22:06"]},{"id":"446","name":"Aporti","lat":37.51403555,"lon":15.07318933,"times":["06:06","07:08","08:23","09:23","09:38","10:38","10:53","11:53","12:08","13:08","13:23","14:38","15:53","16:53","17:08","18:08","18:23","19:23","19:37","20:37","20:53","22:07"]},{"id":"580","name":"Cifali Vecchi","lat":37.51514374,"lon":15.0739712,"times":["06:06","07:08","08:23","09:23","09:38","10:38","10:53","11:53","12:08","13:08","13:23","14:38","15:53","16:53","17:08","18:08","18:23","19:23","19:37","20:37","20:53","22:07"]},{"id":"581","name":"Cifali Chisari","lat":37.51620818,"lon":15.07262566,"times":["06:07","07:09","08:24","09:24","09:39","10:39","10:54","11:54","12:09","13:09","13:24","14:39","15:54","16:54","17:09","18:09","18:24","19:24","19:38","20:38","20:54","22:08"]},{"id":"1046","name":"Valdisavoia Chisari","lat":37.51781259,"lon":15.07266116,"times":["06:08","07:10","08:25","09:25","09:40","10:40","10:55","11:55","12:10","13:10","13:25","14:40","15:55","16:55","17:10","18:10","18:25","19:25","19:39","20:39","20:55","22:09"]},{"id":"1047","name":"Valdisavoia Bonadies","lat":37.51815715,"lon":15.06926663,"times":["06:08","07:11","08:26","09:26","09:41","10:41","10:56","11:56","12:11","13:11","13:26","14:41","15:56","16:56","17:11","18:11","18:26","19:26","19:40","20:40","20:56","22:10"]},{"id":"1541","name":"Santa Sofia Valdisavoia","lat":37.51913973,"lon":15.06909779,"times":["06:09","07:11","08:26","09:26","09:41","10:41","10:56","11:56","12:11","13:11","13:26","14:41","15:56","16:56","17:11","18:11","18:26","19:26","19:40","20:40","20:56","22:10"]},{"id":"1048","name":"Santa Sofia Est (1)","lat":37.5209329,"lon":15.07002741,"times":["06:09","07:12","08:27","09:27","09:42","10:42","10:57","11:57","12:12","13:12","13:27","14:42","15:57","16:57","17:12","18:12","18:27","19:27","19:41","20:41","20:57","22:11"]},{"id":"1049","name":"Santa Sofia Varese","lat":37.52203265,"lon":15.06987,"times":["06:10","07:13","08:28","09:28","09:43","10:43","10:58","11:58","12:13","13:13","13:28","14:43","15:58","16:58","17:13","18:13","18:28","19:28","19:41","20:41","20:58","22:11"]},{"id":"869","name":"Doria Vivaldi","lat":37.52311374,"lon":15.070799,"times":["06:10","07:13","08:28","09:28","09:43","10:43","10:58","11:58","12:13","13:13","13:28","14:43","15:58","16:58","17:13","18:13","18:28","19:28","19:42","20:42","20:58","22:12"]},{"id":"589","name":"Usodimare Galermo","lat":37.52244991,"lon":15.06526442,"times":["06:13","07:17","08:32","09:32","09:47","10:47","11:02","12:02","12:17","13:17","13:32","14:47","16:02","17:02","17:17","18:17","18:32","19:32","19:45","20:45","21:02","22:15"]},{"id":"590","name":"San Nullo Usodimare Nord","lat":37.52237959,"lon":15.06195984,"times":["06:14","07:18","08:33","09:33","09:48","10:48","11:03","12:03","12:18","13:18","13:33","14:48","16:03","17:03","17:18","18:18","18:33","19:33","19:46","20:46","21:03","22:16"]},{"id":"591","name":"San Nullo Lima","lat":37.52297577,"lon":15.05945928,"times":["06:15","07:19","08:34","09:34","09:49","10:49","11:04","12:04","12:19","13:19","13:34","14:49","16:04","17:04","17:19","18:19","18:34","19:34","19:47","20:47","21:04","22:17"]},{"id":"592","name":"San Nullo Impastato","lat":37.52301276,"lon":15.05756938,"times":["06:15","07:19","08:34","09:34","09:49","10:49","11:04","12:04","12:19","13:19","13:34","14:49","16:04","17:04","17:19","18:19","18:34","19:34","19:47","20:47","21:04","22:17"]},{"id":"593","name":"San Nullo Catania ","lat":37.52326585,"lon":15.05609837,"times":["06:15","07:20","08:35","09:35","09:50","10:50","11:05","12:05","12:20","13:20","13:35","14:50","16:05","17:05","17:20","18:20","18:35","19:35","19:48","20:48","21:05","22:18"]},{"id":"1739","name":"Poggio del Lupo ingresso Misterbianco","lat":37.52566216,"lon":15.05062532,"times":["06:17","07:22","08:37","09:37","09:52","10:52","11:07","12:07","12:22","13:22","13:37","14:52","16:07","17:07","17:22","18:22","18:37","19:37","19:50","20:50","21:07","22:20"]},{"id":"1740","name":"Poggio del Lupo Aristotele","lat":null,"lon":37.52805275,"times":["06:18","07:23","08:38","09:38","09:53","10:53","11:08","12:08","12:23","13:23","13:38","14:53","16:08","17:08","17:23","18:23","18:38","19:38","19:51","20:51","21:08","22:21"]},{"id":"1761","name":"Stesìcoro","lat":null,"lon":37.5297295,"times":["06:19","07:24","08:39","09:39","09:54","10:54","11:09","12:09","12:24","13:24","13:39","14:54","16:09","17:09","17:24","18:24","18:39","19:39","19:52","20:52","21:09","22:22"]},{"id":"1742","name":"Nicolosoto","lat":null,"lon":37.53158554,"times":["06:19","07:25","08:40","09:40","09:55","10:55","11:10","12:10","12:25","13:25","13:40","14:55","16:10","17:10","17:25","18:25","18:40","19:40","19:52","20:52","21:10","22:22"]},{"id":"1762","name":"Rose","lat":null,"lon":37.53259746,"times":["06:20","07:26","08:41","09:41","09:56","10:56","11:11","12:11","12:26","13:26","13:41","14:56","16:11","17:11","17:26","18:26","18:41","19:41","19:53","20:53","21:11","22:23"]},{"id":"1756","name":"Rose","lat":null,"lon":37.53269756,"times":["06:21","07:27","08:42","09:42","09:57","10:57","11:12","12:12","12:27","13:27","13:42","14:57","16:12","17:12","17:27","18:27","18:42","19:42","19:54","20:54","21:12","22:24"]},{"id":"1757","name":"Poggio del Lupo","lat":null,"lon":37.53184606,"times":["06:21","07:27","08:42","09:42","09:57","10:57","11:12","12:12","12:27","13:27","13:42","14:57","16:12","17:12","17:27","18:27","18:42","19:42","19:54","20:54","21:12","22:24"]},{"id":"1763","name":"Poggio Lupo","lat":37.52940555,"lon":15.04680874,"times":["06:22","07:28","08:43","09:43","09:58","10:58","11:13","12:13","12:28","13:28","13:43","14:58","16:13","17:13","17:28","18:28","18:43","19:43","19:55","20:55","21:13","22:25"]},{"id":"1758","name":"Poggio del Lupo Aristotele","lat":null,"lon":37.52818673,"times":["06:23","07:29","08:44","09:44","09:59","10:59","11:14","12:14","12:29","13:29","13:44","14:59","16:14","17:14","17:29","18:29","18:44","19:44","19:56","20:56","21:14","22:26"]},{"id":"1760","name":"Poggio del Lupo uscita Misterbianco","lat":37.52560107,"lon":15.05063214,"times":["06:24","07:30","08:45","09:45","10:00","11:00","11:15","12:15","12:30","13:30","13:45","15:00","16:15","17:15","17:30","18:30","18:45","19:45","19:57","20:57","21:15","22:27"]},{"id":"1292","name":"Croce Catania","lat":37.52363614,"lon":15.05454821,"times":["06:25","07:32","08:47","09:47","10:02","11:02","11:17","12:17","12:32","13:32","13:47","15:02","16:17","17:17","17:32","18:32","18:47","19:47","19:59","20:59","21:17","22:29"]},{"id":"1503","name":"Croce","lat":37.52342951,"lon":15.05304289,"times":["06:25","07:33","08:48","09:48","10:03","11:03","11:18","12:18","12:33","13:33","13:48","15:03","16:18","17:18","17:33","18:33","18:48","19:48","19:59","20:59","21:18","22:29"]},{"id":"1504","name":"Cataudella Morano","lat":37.52217645,"lon":15.05340414,"times":["06:26","07:33","08:48","09:48","10:03","11:03","11:18","12:18","12:33","13:33","13:48","15:03","16:18","17:18","17:33","18:33","18:48","19:48","20:00","21:00","21:18","22:30"]},{"id":"1505","name":"Cataudella Catania","lat":37.52158933,"lon":15.05606316,"times":["06:27","07:34","08:49","09:49","10:04","11:04","11:19","12:19","12:34","13:34","13:49","15:04","16:19","17:19","17:34","18:34","18:49","19:49","20:00","21:00","21:19","22:30"]},{"id":"1170","name":"San Giacomo Catania","lat":37.52043509,"lon":15.05710342,"times":["06:27","07:35","08:50","09:50","10:05","11:05","11:20","12:20","12:35","13:35","13:50","15:05","16:20","17:20","17:35","18:35","18:50","19:50","20:01","21:01","21:20","22:31"]},{"id":"1195","name":"San Giacomo (1)","lat":37.51991287,"lon":15.05590347,"times":["06:27","07:35","08:50","09:50","10:05","11:05","11:20","12:20","12:35","13:35","13:50","15:05","16:20","17:20","17:35","18:35","18:50","19:50","20:01","21:01","21:20","22:31"]},{"id":"1217","name":"San Giacomo (2)","lat":37.51931031,"lon":15.05296076,"times":["06:28","07:36","08:51","09:51","10:06","11:06","11:21","12:21","12:36","13:36","13:51","15:06","16:21","17:21","17:36","18:36","18:51","19:51","20:02","21:02","21:21","22:32"]},{"id":"1219","name":"San Giacomo Selvaggi","lat":37.51843721,"lon":15.05016503,"times":["06:29","07:38","08:53","09:53","10:08","11:08","11:23","12:23","12:38","13:38","13:53","15:08","16:23","17:23","17:38","18:38","18:53","19:53","20:03","21:03","21:23","22:33"]},{"id":"1234","name":"Arezzo San Giacomo Est","lat":37.51902392,"lon":15.04819637,"times":["06:30","07:38","08:53","09:53","10:08","11:08","11:23","12:23","12:38","13:38","13:53","15:08","16:23","17:23","17:38","18:38","18:53","19:53","20:04","21:04","21:23","22:34"]},{"id":"1834","name":"Ota","lat":37.52137778,"lon":15.04956576,"times":["06:31","07:41","08:56","09:56","10:11","11:11","11:26","12:26","12:41","13:41","13:56","15:11","16:26","17:26","17:41","18:41","18:56","19:56","20:06","21:06","21:26","22:36"]},{"id":"1235","name":"Borgese","lat":37.52093503,"lon":15.0476544,"times":["06:32","07:42","08:57","09:57","10:12","11:12","11:27","12:27","12:42","13:42","13:57","15:12","16:27","17:27","17:42","18:42","18:57","19:57","20:07","21:07","21:27","22:37"]},{"id":"1254","name":"Arezzo San Giacomo Ovest","lat":37.51913218,"lon":15.04794748,"times":["06:33","07:43","08:58","09:58","10:13","11:13","11:28","12:28","12:43","13:43","13:58","15:13","16:28","17:28","17:43","18:43","18:58","19:58","20:08","21:08","21:28","22:38"]},{"id":"1257","name":"San Giacomo Amari","lat":37.51839221,"lon":15.05001788,"times":["06:34","07:43","08:58","09:58","10:13","11:13","11:28","12:28","12:43","13:43","13:58","15:13","16:28","17:28","17:43","18:43","18:58","19:58","20:09","21:09","21:28","22:39"]},{"id":"1845","name":"Parcheggio Nesima","lat":37.51702842,"lon":15.04994588,"times":["06:35","07:45","09:00","10:00","10:15","11:15","11:30","12:30","12:45","13:45","14:00","15:15","16:30","17:30","17:45","18:45","19:00","20:00","20:10","21:10","21:30","22:40"]}],"sabato":[{"id":"307","name":"Terminal Borsa","lat":37.50769098,"lon":15.08508615,"times":["06:00","07:00","08:15","09:30","10:45","12:00","13:15","14:30","15:45","17:00","18:15","19:30","20:45","22:00"]},{"id":"389","name":"Sant'Euplio Spedalieri","lat":37.50903412,"lon":15.08494058,"times":["06:00","07:00","08:15","09:30","10:45","12:00","13:15","14:30","15:45","17:00","18:15","19:30","20:45","22:00"]},{"id":"148","name":"VILLA BELLINI","lat":37.51142248,"lon":15.08529406,"times":["06:01","07:01","08:16","09:31","10:46","12:01","13:16","14:31","15:46","17:01","18:16","19:31","20:46","22:01"]},{"id":"303","name":"ROMA","lat":37.51314501,"lon":15.08400605,"times":["06:02","07:02","08:17","09:32","10:47","12:02","13:17","14:32","15:47","17:02","18:17","19:32","20:47","22:02"]},{"id":"304","name":"Regina Margherita Tomaselli","lat":37.51275023,"lon":15.08141438,"times":["06:02","07:03","08:18","09:33","10:48","12:03","13:18","14:33","15:48","17:03","18:18","19:33","20:48","22:03"]},{"id":"305","name":"S.M. Gesù Cifali","lat":37.51230144,"lon":15.078619,"times":["06:03","07:04","08:19","09:34","10:49","12:04","13:19","14:34","15:49","17:04","18:19","19:33","20:49","22:03"]},{"id":"668","name":"Rapisardi Lavaggi","lat":37.51161016,"lon":15.07434112,"times":["06:04","07:05","08:20","09:35","10:50","12:05","13:20","14:35","15:50","17:05","18:20","19:35","20:50","22:05"]},{"id":"669","name":"Fava Franchetti","lat":37.51208025,"lon":15.07211247,"times":["06:05","07:06","08:21","09:36","10:51","12:06","13:21","14:36","15:51","17:06","18:21","19:36","20:51","22:06"]},{"id":"446","name":"Aporti","lat":37.51403555,"lon":15.07318933,"times":["06:06","07:08","08:23","09:38","10:53","12:08","13:23","14:38","15:53","17:08","18:23","19:37","20:53","22:07"]},{"id":"580","name":"Cifali Vecchi","lat":37.51514374,"lon":15.0739712,"times":["06:06","07:08","08:23","09:38","10:53","12:08","13:23","14:38","15:53","17:08","18:23","19:37","20:53","22:07"]},{"id":"581","name":"Cifali Chisari","lat":37.51620818,"lon":15.07262566,"times":["06:07","07:09","08:24","09:39","10:54","12:09","13:24","14:39","15:54","17:09","18:24","19:38","20:54","22:08"]},{"id":"1046","name":"Valdisavoia Chisari","lat":37.51781259,"lon":15.07266116,"times":["06:08","07:10","08:25","09:40","10:55","12:10","13:25","14:40","15:55","17:10","18:25","19:39","20:55","22:09"]},{"id":"1047","name":"Valdisavoia Bonadies","lat":37.51815715,"lon":15.06926663,"times":["06:08","07:11","08:26","09:41","10:56","12:11","13:26","14:41","15:56","17:11","18:26","19:40","20:56","22:10"]},{"id":"1541","name":"Santa Sofia Valdisavoia","lat":37.51913973,"lon":15.06909779,"times":["06:09","07:11","08:26","09:41","10:56","12:11","13:26","14:41","15:56","17:11","18:26","19:40","20:56","22:10"]},{"id":"1048","name":"Santa Sofia Est (1)","lat":37.5209329,"lon":15.07002741,"times":["06:09","07:12","08:27","09:42","10:57","12:12","13:27","14:42","15:57","17:12","18:27","19:41","20:57","22:11"]},{"id":"1049","name":"Santa Sofia Varese","lat":37.52203265,"lon":15.06987,"times":["06:10","07:13","08:28","09:43","10:58","12:13","13:28","14:43","15:58","17:13","18:28","19:41","20:58","22:11"]},{"id":"869","name":"Doria Vivaldi","lat":37.52311374,"lon":15.070799,"times":["06:10","07:13","08:28","09:43","10:58","12:13","13:28","14:43","15:58","17:13","18:28","19:42","20:58","22:12"]},{"id":"589","name":"Usodimare Galermo","lat":37.52244991,"lon":15.06526442,"times":["06:13","07:17","08:32","09:47","11:02","12:17","13:32","14:47","16:02","17:17","18:32","19:45","21:02","22:15"]},{"id":"590","name":"San Nullo Usodimare Nord","lat":37.52237959,"lon":15.06195984,"times":["06:14","07:18","08:33","09:48","11:03","12:18","13:33","14:48","16:03","17:18","18:33","19:46","21:03","22:16"]},{"id":"591","name":"San Nullo Lima","lat":37.52297577,"lon":15.05945928,"times":["06:15","07:19","08:34","09:49","11:04","12:19","13:34","14:49","16:04","17:19","18:34","19:47","21:04","22:17"]},{"id":"592","name":"San Nullo Impastato","lat":37.52301276,"lon":15.05756938,"times":["06:15","07:19","08:34","09:49","11:04","12:19","13:34","14:49","16:04","17:19","18:34","19:47","21:04","22:17"]},{"id":"593","name":"San Nullo Catania ","lat":37.52326585,"lon":15.05609837,"times":["06:15","07:20","08:35","09:50","11:05","12:20","13:35","14:50","16:05","17:20","18:35","19:48","21:05","22:18"]},{"id":"1739","name":"Poggio del Lupo ingresso Misterbianco","lat":37.52566216,"lon":15.05062532,"times":["06:17","07:22","08:37","09:52","11:07","12:22","13:37","14:52","16:07","17:22","18:37","19:50","21:07","22:20"]},{"id":"1740","name":"Poggio del Lupo Aristotele","lat":null,"lon":37.52805275,"times":["06:18","07:23","08:38","09:53","11:08","12:23","13:38","14:53","16:08","17:23","18:38","19:51","21:08","22:21"]},{"id":"1761","name":"Stesìcoro","lat":null,"lon":37.5297295,"times":["06:19","07:24","08:39","09:54","11:09","12:24","13:39","14:54","16:09","17:24","18:39","19:52","21:09","22:22"]},{"id":"1742","name":"Nicolosoto","lat":null,"lon":37.53158554,"times":["06:19","07:25","08:40","09:55","11:10","12:25","13:40","14:55","16:10","17:25","18:40","19:52","21:10","22:22"]},{"id":"1762","name":"Rose","lat":null,"lon":37.53259746,"times":["06:20","07:26","08:41","09:56","11:11","12:26","13:41","14:56","16:11","17:26","18:41","19:53","21:11","22:23"]},{"id":"1756","name":"Rose","lat":null,"lon":37.53269756,"times":["06:21","07:27","08:42","09:57","11:12","12:27","13:42","14:57","16:12","17:27","18:42","19:54","21:12","22:24"]},{"id":"1757","name":"Poggio del Lupo","lat":null,"lon":37.53184606,"times":["06:21","07:27","08:42","09:57","11:12","12:27","13:42","14:57","16:12","17:27","18:42","19:54","21:12","22:24"]},{"id":"1763","name":"Poggio Lupo","lat":37.52940555,"lon":15.04680874,"times":["06:22","07:28","08:43","09:58","11:13","12:28","13:43","14:58","16:13","17:28","18:43","19:55","21:13","22:25"]},{"id":"1758","name":"Poggio del Lupo Aristotele","lat":null,"lon":37.52818673,"times":["06:23","07:29","08:44","09:59","11:14","12:29","13:44","14:59","16:14","17:29","18:44","19:56","21:14","22:26"]},{"id":"1760","name":"Poggio del Lupo uscita Misterbianco","lat":37.52560107,"lon":15.05063214,"times":["06:24","07:30","08:45","10:00","11:15","12:30","13:45","15:00","16:15","17:30","18:45","19:57","21:15","22:27"]},{"id":"1292","name":"Croce Catania","lat":37.52363614,"lon":15.05454821,"times":["06:25","07:32","08:47","10:02","11:17","12:32","13:47","15:02","16:17","17:32","18:47","19:59","21:17","22:29"]},{"id":"1503","name":"Croce","lat":37.52342951,"lon":15.05304289,"times":["06:25","07:33","08:48","10:03","11:18","12:33","13:48","15:03","16:18","17:33","18:48","19:59","21:18","22:29"]},{"id":"1504","name":"Cataudella Morano","lat":37.52217645,"lon":15.05340414,"times":["06:26","07:33","08:48","10:03","11:18","12:33","13:48","15:03","16:18","17:33","18:48","20:00","21:18","22:30"]},{"id":"1505","name":"Cataudella Catania","lat":37.52158933,"lon":15.05606316,"times":["06:27","07:34","08:49","10:04","11:19","12:34","13:49","15:04","16:19","17:34","18:49","20:00","21:19","22:30"]},{"id":"1170","name":"San Giacomo Catania","lat":37.52043509,"lon":15.05710342,"times":["06:27","07:35","08:50","10:05","11:20","12:35","13:50","15:05","16:20","17:35","18:50","20:01","21:20","22:31"]},{"id":"1195","name":"San Giacomo (1)","lat":37.51991287,"lon":15.05590347,"times":["06:27","07:35","08:50","10:05","11:20","12:35","13:50","15:05","16:20","17:35","18:50","20:01","21:20","22:31"]},{"id":"1217","name":"San Giacomo (2)","lat":37.51931031,"lon":15.05296076,"times":["06:28","07:36","08:51","10:06","11:21","12:36","13:51","15:06","16:21","17:36","18:51","20:02","21:21","22:32"]},{"id":"1219","name":"San Giacomo Selvaggi","lat":37.51843721,"lon":15.05016503,"times":["06:29","07:38","08:53","10:08","11:23","12:38","13:53","15:08","16:23","17:38","18:53","20:03","21:23","22:33"]},{"id":"1234","name":"Arezzo San Giacomo Est","lat":37.51902392,"lon":15.04819637,"times":["06:30","07:38","08:53","10:08","11:23","12:38","13:53","15:08","16:23","17:38","18:53","20:04","21:23","22:34"]},{"id":"1834","name":"Ota","lat":37.52137778,"lon":15.04956576,"times":["06:31","07:41","08:56","10:11","11:26","12:41","13:56","15:11","16:26","17:41","18:56","20:06","21:26","22:36"]},{"id":"1235","name":"Borgese","lat":37.52093503,"lon":15.0476544,"times":["06:32","07:42","08:57","10:12","11:27","12:42","13:57","15:12","16:27","17:42","18:57","20:07","21:27","22:37"]},{"id":"1254","name":"Arezzo San Giacomo Ovest","lat":37.51913218,"lon":15.04794748,"times":["06:33","07:43","08:58","10:13","11:28","12:43","13:58","15:13","16:28","17:43","18:58","20:08","21:28","22:38"]},{"id":"1257","name":"San Giacomo Amari","lat":37.51839221,"lon":15.05001788,"times":["06:34","07:43","08:58","10:13","11:28","12:43","13:58","15:13","16:28","17:43","18:58","20:09","21:28","22:39"]},{"id":"1845","name":"Parcheggio Nesima","lat":37.51702842,"lon":15.04994588,"times":["06:35","07:45","09:00","10:15","11:30","12:45","14:00","15:15","16:30","17:45","19:00","20:10","21:30","22:40"]}],"domenica":[{"id":"307","name":"Terminal Borsa","lat":37.50769098,"lon":15.08508615,"times":["07:00","08:00","09:15","10:30","11:45","13:00","14:15","15:30","16:45","18:00","19:15","20:30"]},{"id":"389","name":"Sant'Euplio Spedalieri","lat":37.50903412,"lon":15.08494058,"times":["07:00","08:00","09:15","10:30","11:45","13:00","14:15","15:30","16:45","18:00","19:15","20:30"]},{"id":"148","name":"VILLA BELLINI","lat":37.51142248,"lon":15.08529406,"times":["07:01","08:01","09:16","10:31","11:46","13:01","14:16","15:31","16:46","18:01","19:16","20:31"]},{"id":"303","name":"ROMA","lat":37.51314501,"lon":15.08400605,"times":["07:02","08:02","09:17","10:32","11:47","13:02","14:17","15:32","16:47","18:02","19:17","20:32"]},{"id":"304","name":"Regina Margherita Tomaselli","lat":37.51275023,"lon":15.08141438,"times":["07:02","08:03","09:18","10:33","11:48","13:03","14:18","15:33","16:48","18:03","19:18","20:33"]},{"id":"305","name":"S.M. Gesù Cifali","lat":37.51230144,"lon":15.078619,"times":["07:03","08:04","09:19","10:34","11:49","13:04","14:19","15:34","16:49","18:04","19:19","20:33"]},{"id":"668","name":"Rapisardi Lavaggi","lat":37.51161016,"lon":15.07434112,"times":["07:04","08:05","09:20","10:35","11:50","13:05","14:20","15:35","16:50","18:05","19:20","20:35"]},{"id":"669","name":"Fava Franchetti","lat":37.51208025,"lon":15.07211247,"times":["07:05","08:06","09:21","10:36","11:51","13:06","14:21","15:36","16:51","18:06","19:21","20:36"]},{"id":"446","name":"Aporti","lat":37.51403555,"lon":15.07318933,"times":["07:06","08:08","09:23","10:38","11:53","13:08","14:23","15:38","16:53","18:08","19:23","20:37"]},{"id":"580","name":"Cifali Vecchi","lat":37.51514374,"lon":15.0739712,"times":["07:06","08:08","09:23","10:38","11:53","13:08","14:23","15:38","16:53","18:08","19:23","20:37"]},{"id":"581","name":"Cifali Chisari","lat":37.51620818,"lon":15.07262566,"times":["07:07","08:09","09:24","10:39","11:54","13:09","14:24","15:39","16:54","18:09","19:24","20:38"]},{"id":"1046","name":"Valdisavoia Chisari","lat":37.51781259,"lon":15.07266116,"times":["07:08","08:10","09:25","10:40","11:55","13:10","14:25","15:40","16:55","18:10","19:25","20:39"]},{"id":"1047","name":"Valdisavoia Bonadies","lat":37.51815715,"lon":15.06926663,"times":["07:08","08:11","09:26","10:41","11:56","13:11","14:26","15:41","16:56","18:11","19:26","20:40"]},{"id":"1541","name":"Santa Sofia Valdisavoia","lat":37.51913973,"lon":15.06909779,"times":["07:09","08:11","09:26","10:41","11:56","13:11","14:26","15:41","16:56","18:11","19:26","20:40"]},{"id":"1048","name":"Santa Sofia Est (1)","lat":37.5209329,"lon":15.07002741,"times":["07:09","08:12","09:27","10:42","11:57","13:12","14:27","15:42","16:57","18:12","19:27","20:41"]},{"id":"1049","name":"Santa Sofia Varese","lat":37.52203265,"lon":15.06987,"times":["07:10","08:13","09:28","10:43","11:58","13:13","14:28","15:43","16:58","18:13","19:28","20:41"]},{"id":"869","name":"Doria Vivaldi","lat":37.52311374,"lon":15.070799,"times":["07:10","08:13","09:28","10:43","11:58","13:13","14:28","15:43","16:58","18:13","19:28","20:42"]},{"id":"589","name":"Usodimare Galermo","lat":37.52244991,"lon":15.06526442,"times":["07:13","08:17","09:32","10:47","12:02","13:17","14:32","15:47","17:02","18:17","19:32","20:45"]},{"id":"590","name":"San Nullo Usodimare Nord","lat":37.52237959,"lon":15.06195984,"times":["07:14","08:18","09:33","10:48","12:03","13:18","14:33","15:48","17:03","18:18","19:33","20:46"]},{"id":"591","name":"San Nullo Lima","lat":37.52297577,"lon":15.05945928,"times":["07:15","08:19","09:34","10:49","12:04","13:19","14:34","15:49","17:04","18:19","19:34","20:47"]},{"id":"592","name":"San Nullo Impastato","lat":37.52301276,"lon":15.05756938,"times":["07:15","08:19","09:34","10:49","12:04","13:19","14:34","15:49","17:04","18:19","19:34","20:47"]},{"id":"593","name":"San Nullo Catania ","lat":37.52326585,"lon":15.05609837,"times":["07:15","08:20","09:35","10:50","12:05","13:20","14:35","15:50","17:05","18:20","19:35","20:48"]},{"id":"1739","name":"Poggio del Lupo ingresso Misterbianco","lat":37.52566216,"lon":15.05062532,"times":["07:17","08:22","09:37","10:52","12:07","13:22","14:37","15:52","17:07","18:22","19:37","20:50"]},{"id":"1740","name":"Poggio del Lupo Aristotele","lat":null,"lon":37.52805275,"times":["07:18","08:23","09:38","10:53","12:08","13:23","14:38","15:53","17:08","18:23","19:38","20:51"]},{"id":"1761","name":"Stesìcoro","lat":null,"lon":37.5297295,"times":["07:19","08:24","09:39","10:54","12:09","13:24","14:39","15:54","17:09","18:24","19:39","20:52"]},{"id":"1742","name":"Nicolosoto","lat":null,"lon":37.53158554,"times":["07:19","08:25","09:40","10:55","12:10","13:25","14:40","15:55","17:10","18:25","19:40","20:52"]},{"id":"1762","name":"Rose","lat":null,"lon":37.53259746,"times":["07:20","08:26","09:41","10:56","12:11","13:26","14:41","15:56","17:11","18:26","19:41","20:53"]},{"id":"1756","name":"Rose","lat":null,"lon":37.53269756,"times":["07:21","08:27","09:42","10:57","12:12","13:27","14:42","15:57","17:12","18:27","19:42","20:54"]},{"id":"1757","name":"Poggio del Lupo","lat":null,"lon":37.53184606,"times":["07:21","08:27","09:42","10:57","12:12","13:27","14:42","15:57","17:12","18:27","19:42","20:54"]},{"id":"1763","name":"Poggio Lupo","lat":37.52940555,"lon":15.04680874,"times":["07:22","08:28","09:43","10:58","12:13","13:28","14:43","15:58","17:13","18:28","19:43","20:55"]},{"id":"1758","name":"Poggio del Lupo Aristotele","lat":null,"lon":37.52818673,"times":["07:23","08:29","09:44","10:59","12:14","13:29","14:44","15:59","17:14","18:29","19:44","20:56"]},{"id":"1760","name":"Poggio del Lupo uscita Misterbianco","lat":37.52560107,"lon":15.05063214,"times":["07:24","08:30","09:45","11:00","12:15","13:30","14:45","16:00","17:15","18:30","19:45","20:57"]},{"id":"1292","name":"Croce Catania","lat":37.52363614,"lon":15.05454821,"times":["07:25","08:32","09:47","11:02","12:17","13:32","14:47","16:02","17:17","18:32","19:47","20:59"]},{"id":"1503","name":"Croce","lat":37.52342951,"lon":15.05304289,"times":["07:25","08:33","09:48","11:03","12:18","13:33","14:48","16:03","17:18","18:33","19:48","20:59"]},{"id":"1504","name":"Cataudella Morano","lat":37.52217645,"lon":15.05340414,"times":["07:26","08:33","09:48","11:03","12:18","13:33","14:48","16:03","17:18","18:33","19:48","21:00"]},{"id":"1505","name":"Cataudella Catania","lat":37.52158933,"lon":15.05606316,"times":["07:27","08:34","09:49","11:04","12:19","13:34","14:49","16:04","17:19","18:34","19:49","21:00"]},{"id":"1170","name":"San Giacomo Catania","lat":37.52043509,"lon":15.05710342,"times":["07:27","08:35","09:50","11:05","12:20","13:35","14:50","16:05","17:20","18:35","19:50","21:01"]},{"id":"1195","name":"San Giacomo (1)","lat":37.51991287,"lon":15.05590347,"times":["07:27","08:35","09:50","11:05","12:20","13:35","14:50","16:05","17:20","18:35","19:50","21:01"]},{"id":"1217","name":"San Giacomo (2)","lat":37.51931031,"lon":15.05296076,"times":["07:28","08:36","09:51","11:06","12:21","13:36","14:51","16:06","17:21","18:36","19:51","21:02"]},{"id":"1219","name":"San Giacomo Selvaggi","lat":37.51843721,"lon":15.05016503,"times":["07:29","08:38","09:53","11:08","12:23","13:38","14:53","16:08","17:23","18:38","19:53","21:03"]},{"id":"1234","name":"Arezzo San Giacomo Est","lat":37.51902392,"lon":15.04819637,"times":["07:30","08:38","09:53","11:08","12:23","13:38","14:53","16:08","17:23","18:38","19:53","21:04"]},{"id":"1834","name":"Ota","lat":37.52137778,"lon":15.04956576,"times":["07:31","08:41","09:56","11:11","12:26","13:41","14:56","16:11","17:26","18:41","19:56","21:06"]},{"id":"1235","name":"Borgese","lat":37.52093503,"lon":15.0476544,"times":["07:32","08:42","09:57","11:12","12:27","13:42","14:57","16:12","17:27","18:42","19:57","21:07"]},{"id":"1254","name":"Arezzo San Giacomo Ovest","lat":37.51913218,"lon":15.04794748,"times":["07:33","08:43","09:58","11:13","12:28","13:43","14:58","16:13","17:28","18:43","19:58","21:08"]},{"id":"1257","name":"San Giacomo Amari","lat":37.51839221,"lon":15.05001788,"times":["07:34","08:43","09:58","11:13","12:28","13:43","14:58","16:13","17:28","18:43","19:58","21:09"]},{"id":"1845","name":"Parcheggio Nesima","lat":37.51702842,"lon":15.04994588,"times":["07:35","08:45","10:00","11:15","12:30","13:45","15:00","16:15","17:30","18:45","20:00","21:10"]}]},"1":{"feriale":[{"id":"1845","name":"Parcheggio Nesima","lat":37.51702842,"lon":15.04994588,"times":["06:35","07:45","09:00","10:00","10:15","11:15","11:30","12:30","12:45","13:45","14:00","15:15","16:30","17:30","17:45","18:45","19:00","20:00","20:10","21:10","21:30","22:40"]},{"id":"864","name":"Bolano Sud","lat":37.51774074,"lon":15.05557369,"times":["06:37","07:48","09:03","10:03","10:18","11:18","11:33","12:33","12:48","13:47","14:03","15:18","16:33","17:33","17:48","18:48","19:03","20:03","20:13","21:12","21:33","22:42"]},{"id":"865","name":"Bolano Catania Sud","lat":37.51853011,"lon":15.05807802,"times":["06:38","07:49","09:04","10:04","10:19","11:19","11:34","12:34","12:49","13:48","14:04","15:19","16:34","17:34","17:49","18:49","19:04","20:04","20:15","21:12","21:34","22:42"]},{"id":"1908","name":"San Nullo Metro Sud","lat":37.51903957,"lon":15.05957115,"times":["06:39","07:49","09:04","10:04","10:19","11:19","11:34","12:34","12:49","13:49","14:04","15:19","16:34","17:34","17:49","18:49","19:04","20:04","20:15","21:13","21:34","22:43"]},{"id":"867","name":"Usodimare Sud","lat":37.52093535,"lon":15.06257447,"times":["06:40","07:51","09:06","10:06","10:21","11:21","11:36","12:36","12:51","13:50","14:06","15:21","16:36","17:36","17:51","18:51","19:06","20:06","20:17","21:14","21:36","22:44"]},{"id":"639","name":"San Nullo La Lumia","lat":37.52119773,"lon":15.06396191,"times":["06:41","07:52","09:07","10:07","10:22","11:22","11:37","12:37","12:52","13:51","14:07","15:22","16:37","17:37","17:52","18:52","19:07","20:07","20:18","21:15","21:37","22:45"]},{"id":"641","name":"Casagrandi Galermo","lat":37.51983561,"lon":15.06589587,"times":["06:42","07:53","09:08","10:08","10:23","11:23","11:38","12:38","12:53","13:52","14:08","15:23","16:38","17:38","17:53","18:53","19:08","20:08","20:20","21:15","21:38","22:45"]},{"id":"566","name":"Merlino Casagrandi","lat":37.51888091,"lon":15.06454839,"times":["06:43","07:54","09:09","10:09","10:24","11:24","11:39","12:39","12:54","13:53","14:09","15:24","16:39","17:39","17:54","18:54","19:09","20:09","20:21","21:16","21:39","22:46"]},{"id":"567","name":"Merlino Torresino","lat":37.51851267,"lon":15.06208112,"times":["06:44","07:55","09:10","10:10","10:25","11:25","11:40","12:40","12:55","13:54","14:10","15:25","16:40","17:40","17:55","18:55","19:10","20:10","20:22","21:17","21:40","22:47"]},{"id":"568","name":"Ballo Monterosso","lat":37.51792785,"lon":15.0600324,"times":["06:44","07:56","09:11","10:11","10:26","11:26","11:41","12:41","12:56","13:54","14:11","15:26","16:41","17:41","17:56","18:56","19:11","20:11","20:23","21:17","21:41","22:47"]},{"id":"1159","name":"Monterosso","lat":37.51742449,"lon":15.05719166,"times":["06:45","07:58","09:13","10:13","10:28","11:28","11:43","12:43","12:58","13:55","14:13","15:28","16:43","17:43","17:58","18:58","19:13","20:13","20:25","21:18","21:43","22:48"]},{"id":"1160","name":"Paradiso Monterosso","lat":37.5165616,"lon":15.05590396,"times":["06:46","07:58","09:13","10:13","10:28","11:28","11:43","12:43","12:58","13:56","14:13","15:28","16:43","17:43","17:58","18:58","19:13","20:13","20:26","21:19","21:43","22:49"]},{"id":"336","name":"Ballo De Sanctis","lat":37.5159553,"lon":15.05748578,"times":["06:47","08:00","09:15","10:15","10:30","11:30","11:45","12:45","13:00","13:57","14:15","15:30","16:45","17:45","18:00","19:00","19:15","20:15","20:27","21:20","21:45","22:50"]},{"id":"337","name":"Ballo Patti Est","lat":37.51657641,"lon":15.05882051,"times":["06:48","08:00","09:15","10:15","10:30","11:30","11:45","12:45","13:00","13:58","14:15","15:30","16:45","17:45","18:00","19:00","19:15","20:15","20:28","21:20","21:45","22:50"]},{"id":"338","name":"Scannapieco","lat":37.51714296,"lon":15.0613897,"times":["06:49","08:02","09:17","10:17","10:32","11:32","11:47","12:47","13:02","13:59","14:17","15:32","16:47","17:47","18:02","19:02","19:17","20:17","20:29","21:21","21:47","22:51"]},{"id":"339","name":"Cibele Maria Ausiliatrice","lat":37.5172954,"lon":15.06289487,"times":["06:49","08:02","09:17","10:17","10:32","11:32","11:47","12:47","13:02","13:59","14:17","15:32","16:47","17:47","18:02","19:02","19:17","20:17","20:30","21:21","21:47","22:51"]},{"id":"340","name":"Cibele Casagrandi","lat":37.51751073,"lon":15.06473958,"times":["06:50","08:03","09:18","10:18","10:33","11:33","11:48","12:48","13:03","14:00","14:18","15:33","16:48","17:48","18:03","19:03","19:18","20:18","20:31","21:22","21:48","22:52"]},{"id":"572","name":"Casagrandi Nuova","lat":37.5165277,"lon":15.06572322,"times":["06:51","08:04","09:19","10:19","10:34","11:34","11:49","12:49","13:04","14:01","14:19","15:34","16:49","17:49","18:04","19:04","19:19","20:19","20:32","21:22","21:49","22:52"]},{"id":"1295","name":"Susanna Medina","lat":37.51537305,"lon":15.06732905,"times":["06:51","08:05","09:20","10:20","10:35","11:35","11:50","12:50","13:05","14:01","14:20","15:35","16:50","17:50","18:05","19:05","19:20","20:20","20:33","21:23","21:50","22:53"]},{"id":"343","name":"Fava Aporti","lat":37.51399176,"lon":15.07108459,"times":["06:53","08:07","09:22","10:22","10:37","11:37","11:52","12:52","13:07","14:03","14:22","15:37","16:52","17:52","18:07","19:07","19:22","20:22","20:35","21:24","21:52","22:54"]},{"id":"705","name":"Fava Teatro Stabile","lat":37.5126393,"lon":15.07177355,"times":["06:54","08:07","09:22","10:22","10:37","11:37","11:52","12:52","13:07","14:04","14:22","15:37","16:52","17:52","18:07","19:07","19:22","20:22","20:36","21:25","21:52","22:55"]},{"id":"706","name":"Franchetti Lavaggi","lat":37.51270986,"lon":15.07427432,"times":["06:55","08:09","09:24","10:24","10:39","11:39","11:54","12:54","13:09","14:05","14:24","15:39","16:54","17:54","18:09","19:09","19:24","20:24","20:38","21:26","21:54","22:56"]},{"id":"346","name":"Cifali Ficarazzi","lat":37.51258175,"lon":15.07727277,"times":["06:56","08:10","09:25","10:25","10:40","11:40","11:55","12:55","13:10","14:06","14:25","15:40","16:55","17:55","18:10","19:10","19:25","20:25","20:39","21:26","21:55","22:56"]},{"id":"974","name":"S.M. Gesù Garibaldi","lat":37.51185984,"lon":15.0785167,"times":["06:56","08:11","09:26","10:26","10:41","11:41","11:56","12:56","13:11","14:06","14:26","15:41","16:56","17:56","18:11","19:11","19:26","20:26","20:40","21:27","21:56","22:57"]},{"id":"975","name":"Androne Ughetti","lat":37.50966746,"lon":15.08155813,"times":["06:58","08:12","09:27","10:27","10:42","11:42","11:57","12:57","13:12","14:08","14:27","15:42","16:57","17:57","18:12","19:12","19:27","20:27","20:42","21:28","21:57","22:58"]},{"id":"711","name":"Santa Maddalena","lat":37.50813423,"lon":15.08286897,"times":["06:59","08:13","09:28","10:28","10:43","11:43","11:58","12:58","13:13","14:09","14:28","15:43","16:58","17:58","18:13","19:13","19:28","20:28","20:43","21:29","21:58","22:59"]},{"id":"307","name":"Terminal Borsa","lat":37.50769098,"lon":15.08508615,"times":["07:00","08:15","09:30","10:30","10:45","11:45","12:00","13:00","13:15","14:10","14:30","15:45","17:00","18:00","18:15","19:15","19:30","20:30","20:45","21:30","22:00","23:00"]}],"sabato":[{"id":"1845","name":"Parcheggio Nesima","lat":37.51702842,"lon":15.04994588,"times":["06:35","07:45","09:00","10:15","11:30","12:45","14:00","15:15","16:30","17:45","19:00","20:10","21:30","22:40"]},{"id":"864","name":"Bolano Sud","lat":37.51774074,"lon":15.05557369,"times":["06:37","07:48","09:03","10:18","11:33","12:48","14:03","15:18","16:33","17:48","19:03","20:13","21:33","22:42"]},{"id":"865","name":"Bolano Catania Sud","lat":37.51853011,"lon":15.05807802,"times":["06:38","07:49","09:04","10:19","11:34","12:49","14:04","15:19","16:34","17:49","19:04","20:15","21:34","22:42"]},{"id":"1908","name":"San Nullo Metro Sud","lat":37.51903957,"lon":15.05957115,"times":["06:39","07:49","09:04","10:19","11:34","12:49","14:04","15:19","16:34","17:49","19:04","20:15","21:34","22:43"]},{"id":"867","name":"Usodimare Sud","lat":37.52093535,"lon":15.06257447,"times":["06:40","07:51","09:06","10:21","11:36","12:51","14:06","15:21","16:36","17:51","19:06","20:17","21:36","22:44"]},{"id":"639","name":"San Nullo La Lumia","lat":37.52119773,"lon":15.06396191,"times":["06:41","07:52","09:07","10:22","11:37","12:52","14:07","15:22","16:37","17:52","19:07","20:18","21:37","22:45"]},{"id":"641","name":"Casagrandi Galermo","lat":37.51983561,"lon":15.06589587,"times":["06:42","07:53","09:08","10:23","11:38","12:53","14:08","15:23","16:38","17:53","19:08","20:20","21:38","22:45"]},{"id":"566","name":"Merlino Casagrandi","lat":37.51888091,"lon":15.06454839,"times":["06:43","07:54","09:09","10:24","11:39","12:54","14:09","15:24","16:39","17:54","19:09","20:21","21:39","22:46"]},{"id":"567","name":"Merlino Torresino","lat":37.51851267,"lon":15.06208112,"times":["06:44","07:55","09:10","10:25","11:40","12:55","14:10","15:25","16:40","17:55","19:10","20:22","21:40","22:47"]},{"id":"568","name":"Ballo Monterosso","lat":37.51792785,"lon":15.0600324,"times":["06:44","07:56","09:11","10:26","11:41","12:56","14:11","15:26","16:41","17:56","19:11","20:23","21:41","22:47"]},{"id":"1159","name":"Monterosso","lat":37.51742449,"lon":15.05719166,"times":["06:45","07:58","09:13","10:28","11:43","12:58","14:13","15:28","16:43","17:58","19:13","20:25","21:43","22:48"]},{"id":"1160","name":"Paradiso Monterosso","lat":37.5165616,"lon":15.05590396,"times":["06:46","07:58","09:13","10:28","11:43","12:58","14:13","15:28","16:43","17:58","19:13","20:26","21:43","22:49"]},{"id":"336","name":"Ballo De Sanctis","lat":37.5159553,"lon":15.05748578,"times":["06:47","08:00","09:15","10:30","11:45","13:00","14:15","15:30","16:45","18:00","19:15","20:27","21:45","22:50"]},{"id":"337","name":"Ballo Patti Est","lat":37.51657641,"lon":15.05882051,"times":["06:48","08:00","09:15","10:30","11:45","13:00","14:15","15:30","16:45","18:00","19:15","20:28","21:45","22:50"]},{"id":"338","name":"Scannapieco","lat":37.51714296,"lon":15.0613897,"times":["06:49","08:02","09:17","10:32","11:47","13:02","14:17","15:32","16:47","18:02","19:17","20:29","21:47","22:51"]},{"id":"339","name":"Cibele Maria Ausiliatrice","lat":37.5172954,"lon":15.06289487,"times":["06:49","08:02","09:17","10:32","11:47","13:02","14:17","15:32","16:47","18:02","19:17","20:30","21:47","22:51"]},{"id":"340","name":"Cibele Casagrandi","lat":37.51751073,"lon":15.06473958,"times":["06:50","08:03","09:18","10:33","11:48","13:03","14:18","15:33","16:48","18:03","19:18","20:31","21:48","22:52"]},{"id":"572","name":"Casagrandi Nuova","lat":37.5165277,"lon":15.06572322,"times":["06:51","08:04","09:19","10:34","11:49","13:04","14:19","15:34","16:49","18:04","19:19","20:32","21:49","22:52"]},{"id":"1295","name":"Susanna Medina","lat":37.51537305,"lon":15.06732905,"times":["06:51","08:05","09:20","10:35","11:50","13:05","14:20","15:35","16:50","18:05","19:20","20:33","21:50","22:53"]},{"id":"343","name":"Fava Aporti","lat":37.51399176,"lon":15.07108459,"times":["06:53","08:07","09:22","10:37","11:52","13:07","14:22","15:37","16:52","18:07","19:22","20:35","21:52","22:54"]},{"id":"705","name":"Fava Teatro Stabile","lat":37.5126393,"lon":15.07177355,"times":["06:54","08:07","09:22","10:37","11:52","13:07","14:22","15:37","16:52","18:07","19:22","20:36","21:52","22:55"]},{"id":"706","name":"Franchetti Lavaggi","lat":37.51270986,"lon":15.07427432,"times":["06:55","08:09","09:24","10:39","11:54","13:09","14:24","15:39","16:54","18:09","19:24","20:38","21:54","22:56"]},{"id":"346","name":"Cifali Ficarazzi","lat":37.51258175,"lon":15.07727277,"times":["06:56","08:10","09:25","10:40","11:55","13:10","14:25","15:40","16:55","18:10","19:25","20:39","21:55","22:56"]},{"id":"974","name":"S.M. Gesù Garibaldi","lat":37.51185984,"lon":15.0785167,"times":["06:56","08:11","09:26","10:41","11:56","13:11","14:26","15:41","16:56","18:11","19:26","20:40","21:56","22:57"]},{"id":"975","name":"Androne Ughetti","lat":37.50966746,"lon":15.08155813,"times":["06:58","08:12","09:27","10:42","11:57","13:12","14:27","15:42","16:57","18:12","19:27","20:42","21:57","22:58"]},{"id":"711","name":"Santa Maddalena","lat":37.50813423,"lon":15.08286897,"times":["06:59","08:13","09:28","10:43","11:58","13:13","14:28","15:43","16:58","18:13","19:28","20:43","21:58","22:59"]},{"id":"307","name":"Terminal Borsa","lat":37.50769098,"lon":15.08508615,"times":["07:00","08:15","09:30","10:45","12:00","13:15","14:30","15:45","17:00","18:15","19:30","20:45","22:00","23:00"]}],"domenica":[{"id":"1845","name":"Parcheggio Nesima","lat":37.51702842,"lon":15.04994588,"times":["07:35","08:45","10:00","11:15","12:30","13:45","15:00","16:15","17:30","18:45","20:00","21:10"]},{"id":"864","name":"Bolano Sud","lat":37.51774074,"lon":15.05557369,"times":["07:37","08:48","10:03","11:18","12:33","13:48","15:03","16:18","17:33","18:48","20:03","21:12"]},{"id":"865","name":"Bolano Catania Sud","lat":37.51853011,"lon":15.05807802,"times":["07:38","08:49","10:04","11:19","12:34","13:49","15:04","16:19","17:34","18:49","20:04","21:12"]},{"id":"1908","name":"San Nullo Metro Sud","lat":37.51903957,"lon":15.05957115,"times":["07:39","08:49","10:04","11:19","12:34","13:49","15:04","16:19","17:34","18:49","20:04","21:13"]},{"id":"867","name":"Usodimare Sud","lat":37.52093535,"lon":15.06257447,"times":["07:40","08:51","10:06","11:21","12:36","13:51","15:06","16:21","17:36","18:51","20:06","21:14"]},{"id":"639","name":"San Nullo La Lumia","lat":37.52119773,"lon":15.06396191,"times":["07:41","08:52","10:07","11:22","12:37","13:52","15:07","16:22","17:37","18:52","20:07","21:15"]},{"id":"641","name":"Casagrandi Galermo","lat":37.51983561,"lon":15.06589587,"times":["07:42","08:53","10:08","11:23","12:38","13:53","15:08","16:23","17:38","18:53","20:08","21:15"]},{"id":"566","name":"Merlino Casagrandi","lat":37.51888091,"lon":15.06454839,"times":["07:43","08:54","10:09","11:24","12:39","13:54","15:09","16:24","17:39","18:54","20:09","21:16"]},{"id":"567","name":"Merlino Torresino","lat":37.51851267,"lon":15.06208112,"times":["07:44","08:55","10:10","11:25","12:40","13:55","15:10","16:25","17:40","18:55","20:10","21:17"]},{"id":"568","name":"Ballo Monterosso","lat":37.51792785,"lon":15.0600324,"times":["07:44","08:56","10:11","11:26","12:41","13:56","15:11","16:26","17:41","18:56","20:11","21:17"]},{"id":"1159","name":"Monterosso","lat":37.51742449,"lon":15.05719166,"times":["07:45","08:58","10:13","11:28","12:43","13:58","15:13","16:28","17:43","18:58","20:13","21:18"]},{"id":"1160","name":"Paradiso Monterosso","lat":37.5165616,"lon":15.05590396,"times":["07:46","08:58","10:13","11:28","12:43","13:58","15:13","16:28","17:43","18:58","20:13","21:19"]},{"id":"336","name":"Ballo De Sanctis","lat":37.5159553,"lon":15.05748578,"times":["07:47","09:00","10:15","11:30","12:45","14:00","15:15","16:30","17:45","19:00","20:15","21:20"]},{"id":"337","name":"Ballo Patti Est","lat":37.51657641,"lon":15.05882051,"times":["07:48","09:00","10:15","11:30","12:45","14:00","15:15","16:30","17:45","19:00","20:15","21:20"]},{"id":"338","name":"Scannapieco","lat":37.51714296,"lon":15.0613897,"times":["07:49","09:02","10:17","11:32","12:47","14:02","15:17","16:32","17:47","19:02","20:17","21:21"]},{"id":"339","name":"Cibele Maria Ausiliatrice","lat":37.5172954,"lon":15.06289487,"times":["07:49","09:02","10:17","11:32","12:47","14:02","15:17","16:32","17:47","19:02","20:17","21:21"]},{"id":"340","name":"Cibele Casagrandi","lat":37.51751073,"lon":15.06473958,"times":["07:50","09:03","10:18","11:33","12:48","14:03","15:18","16:33","17:48","19:03","20:18","21:22"]},{"id":"572","name":"Casagrandi Nuova","lat":37.5165277,"lon":15.06572322,"times":["07:51","09:04","10:19","11:34","12:49","14:04","15:19","16:34","17:49","19:04","20:19","21:22"]},{"id":"1295","name":"Susanna Medina","lat":37.51537305,"lon":15.06732905,"times":["07:51","09:05","10:20","11:35","12:50","14:05","15:20","16:35","17:50","19:05","20:20","21:23"]},{"id":"343","name":"Fava Aporti","lat":37.51399176,"lon":15.07108459,"times":["07:53","09:07","10:22","11:37","12:52","14:07","15:22","16:37","17:52","19:07","20:22","21:24"]},{"id":"705","name":"Fava Teatro Stabile","lat":37.5126393,"lon":15.07177355,"times":["07:54","09:07","10:22","11:37","12:52","14:07","15:22","16:37","17:52","19:07","20:22","21:25"]},{"id":"706","name":"Franchetti Lavaggi","lat":37.51270986,"lon":15.07427432,"times":["07:55","09:09","10:24","11:39","12:54","14:09","15:24","16:39","17:54","19:09","20:24","21:26"]},{"id":"346","name":"Cifali Ficarazzi","lat":37.51258175,"lon":15.07727277,"times":["07:56","09:10","10:25","11:40","12:55","14:10","15:25","16:40","17:55","19:10","20:25","21:26"]},{"id":"974","name":"S.M. Gesù Garibaldi","lat":37.51185984,"lon":15.0785167,"times":["07:56","09:11","10:26","11:41","12:56","14:11","15:26","16:41","17:56","19:11","20:26","21:27"]},{"id":"975","name":"Androne Ughetti","lat":37.50966746,"lon":15.08155813,"times":["07:58","09:12","10:27","11:42","12:57","14:12","15:27","16:42","17:57","19:12","20:27","21:28"]},{"id":"711","name":"Santa Maddalena","lat":37.50813423,"lon":15.08286897,"times":["07:59","09:13","10:28","11:43","12:58","14:13","15:28","16:43","17:58","19:13","20:28","21:29"]},{"id":"307","name":"Terminal Borsa","lat":37.50769098,"lon":15.08508615,"times":["08:00","09:15","10:30","11:45","13:00","14:15","15:30","16:45","18:00","19:15","20:30","21:30"]}]}}}