{"id":"726","directions":{"0":{"feriale":[{"id":"307","name":"Terminal Borsa","lat":37.50769098,"lon":15.08508615,"times":["04:40","05:40","05:50","05:55","06:15","06:40","07:00","07:23","07:46","08:00","08:09","08:27","08:32","08:54","08:55","09:18","09:21","09:41","09:48","10:04","10:15","10:27","10:42","10:50","11:09","11:13","11:36","11:59","12:03","12:22","12:30","12:45","13:00","13:08","13:31","13:54","14:17","14:38","14:58","15:26","15:54","16:22","16:40","16:50","17:18","17:30","17:46","17:55","18:14","18:20","18:42","18:45","19:10","19:35","19:38","20:00","20:06","20:34","20:50","21:00","21:30","22:00","22:10","23:10","00:10"]},{"id":"389","name":"Sant'Euplio Spedalieri","lat":37.50903412,"lon":15.08494058,"times":["04:40","05:40","05:50","05:55","06:15","06:40","07:00","07:23","07:46","08:00","08:09","08:27","08:32","08:54","08:55","09:18","09:21","09:41","09:48","10:04","10:15","10:27","10:42","10:50","11:09","11:13","11:36","11:59","12:03","12:22","12:30","12:45","13:00","13:08","13:31","13:54","14:17","14:38","14:58","15:26","15:54","16:22","16:40","16:50","17:18","17:30","17:46","17:55","18:14","18:20","18:42","18:45","19:10","19:35","19:38","20:00","20:06","20:34","20:50","21:00","21:30","22:00","22:10","23:10","00:10"]},{"id":"664","name":"Ughetti Androne","lat":37.50935198,"lon":15.08155778,"times":["04:41","05:41","05:52","05:57","06:17","06:42","07:02","07:25","07:48","08:02","08:11","08:29","08:34","08:56","08:57","09:20","09:23","09:43","09:50","10:06","10:17","10:29","10:44","10:52","11:11","11:15","11:38","12:01","12:05","12:24","12:32","12:47","13:02","13:10","13:33","13:56","14:19","14:40","15:00","15:28","15:56","16:24","16:42","16:52","17:20","17:32","17:48","17:57","18:16","18:22","18:44","18:47","19:12","19:37","19:40","20:02","20:08","20:36","20:51","21:02","21:32","22:01","22:11","23:11","00:11"]},{"id":"665","name":"Ughetti Adua","lat":37.50914675,"lon":15.07847992,"times":["04:42","05:42","05:53","05:58","06:18","06:43","07:04","07:27","07:50","08:03","08:13","08:30","08:36","08:57","08:59","09:22","09:24","09:45","09:51","10:08","10:18","10:31","10:45","10:54","11:12","11:17","11:39","11:40","12:03","12:06","12:26","12:33","12:49","13:03","13:12","13:35","13:58","14:20","14:41","15:01","15:29","15:57","16:25","16:43","16:53","17:21","17:33","17:49","17:58","18:17","18:23","18:45","18:48","19:13","19:38","19:41","20:03","20:09","20:37","20:52","21:03","21:33","22:02","22:12","23:12","00:12"]},{"id":"666","name":"Ughetti Montessori","lat":37.50897723,"lon":15.07582075,"times":["04:43","05:42","05:54","05:59","06:19","06:44","07:05","07:28","07:51","08:04","08:14","08:31","08:37","08:58","09:00","09:23","09:25","09:46","09:52","10:09","10:19","10:32","10:46","10:55","11:13","11:18","11:40","11:41","12:04","12:07","12:27","12:34","12:50","13:04","13:13","13:36","13:59","14:22","14:43","15:03","15:31","15:59","16:27","16:45","16:55","17:23","17:35","17:51","18:00","18:19","18:25","18:47","18:50","19:15","19:40","19:43","20:05","20:11","20:39","20:53","21:05","21:34","22:03","22:12","23:12","00:13"]},{"id":"667","name":"Filzi Mogadiscio","lat":37.5102215,"lon":15.07522231,"times":["04:44","05:43","05:55","05:59","06:20","06:45","07:06","07:29","07:52","08:05","08:15","08:32","08:38","08:59","09:01","09:24","09:26","09:47","09:53","10:10","10:20","10:33","10:47","10:56","11:14","11:19","11:41","11:42","12:05","12:08","12:28","12:35","12:51","13:05","13:14","13:37","14:00","14:22","14:43","15:03","15:31","15:59","16:27","16:45","16:55","17:23","17:35","17:51","18:00","18:19","18:25","18:47","18:50","19:15","19:40","19:43","20:05","20:11","20:39","20:54","21:05","21:35","22:04","22:13","23:13","00:14"]},{"id":"668","name":"Rapisardi Lavaggi","lat":37.51161016,"lon":15.07434112,"times":["04:44","05:44","05:56","06:00","06:21","06:46","07:07","07:30","07:53","08:06","08:16","08:33","08:39","09:00","09:02","09:25","09:27","09:48","09:54","10:11","10:21","10:34","10:48","10:57","11:15","11:20","11:42","11:43","12:06","12:09","12:29","12:36","12:52","13:06","13:15","13:38","14:01","14:23","14:44","15:04","15:32","16:00","16:28","16:46","16:56","17:24","17:36","17:52","18:01","18:20","18:26","18:48","18:51","19:16","19:41","19:44","20:06","20:12","20:40","20:54","21:06","21:36","22:04","22:14","23:14","00:14"]},{"id":"669","name":"Fava Franchetti","lat":37.51208025,"lon":15.07211247,"times":["04:45","05:44","05:57","06:01","06:22","06:47","07:08","07:31","07:54","08:07","08:17","08:34","08:40","09:01","09:03","09:26","09:28","09:49","09:55","10:12","10:22","10:35","10:49","10:58","11:16","11:21","11:43","11:44","12:07","12:10","12:30","12:37","12:53","13:07","13:16","13:39","14:02","14:24","14:45","15:05","15:33","16:01","16:29","16:47","16:57","17:25","17:37","17:53","18:02","18:21","18:27","18:49","18:52","19:17","19:42","19:45","20:07","20:13","20:41","20:55","21:07","21:37","22:05","22:14","23:14","00:15"]},{"id":"446","name":"Aporti","lat":37.51403555,"lon":15.07318933,"times":["04:46","05:45","05:58","06:02","06:24","06:49","07:10","07:33","07:56","08:09","08:19","08:36","08:42","09:03","09:05","09:28","09:30","09:51","09:57","10:14","10:24","10:37","10:51","11:00","11:18","11:23","11:45","11:46","12:09","12:12","12:32","12:39","12:55","13:09","13:18","13:41","14:04","14:26","14:47","15:07","15:35","16:03","16:31","16:49","16:59","17:27","17:39","17:55","18:04","18:23","18:29","18:51","18:54","19:19","19:44","19:47","20:09","20:15","20:43","20:56","21:09","21:39","22:06","22:15","23:15","00:16"]},{"id":"580","name":"Cifali Vecchi","lat":37.51514374,"lon":15.0739712,"times":["04:47","05:46","05:59","06:03","06:25","06:50","07:11","07:34","07:57","08:10","08:20","08:37","08:43","09:04","09:06","09:29","09:31","09:52","09:58","10:15","10:25","10:38","10:52","11:01","11:19","11:24","11:46","11:47","12:10","12:13","12:33","12:40","12:56","13:10","13:19","13:42","14:05","14:27","14:48","15:08","15:36","16:04","16:32","16:50","17:00","17:28","17:40","17:56","18:05","18:24","18:30","18:52","18:55","19:20","19:45","19:48","20:10","20:16","20:44","20:57","21:10","21:40","22:07","22:16","23:16","00:17"]},{"id":"581","name":"Cifali Chisari","lat":37.51620818,"lon":15.07262566,"times":["04:48","05:46","06:00","06:04","06:25","06:50","07:12","07:35","07:58","08:11","08:21","08:38","08:44","09:05","09:07","09:30","09:32","09:53","09:59","10:16","10:26","10:39","10:53","11:02","11:20","11:25","11:47","11:48","12:11","12:14","12:34","12:41","12:57","13:11","13:20","13:42","14:06","14:28","14:49","15:09","15:37","16:05","16:33","16:51","17:01","17:29","17:41","17:57","18:06","18:25","18:31","18:53","18:56","19:21","19:46","19:49","20:11","20:17","20:45","20:58","21:11","21:40","22:08","22:16","23:16","00:18"]},{"id":"582","name":"Bonadies","lat":37.51791398,"lon":15.06892692,"times":["04:49","05:47","06:02","06:05","06:27","06:52","07:14","07:37","08:00","08:12","08:23","08:39","08:46","09:06","09:09","09:32","09:33","09:55","10:00","10:18","10:27","10:41","10:54","11:04","11:21","11:27","11:48","11:50","12:13","12:15","12:36","12:42","12:59","13:12","13:22","13:44","14:08","14:30","14:51","15:11","15:39","16:07","16:35","16:53","17:03","17:31","17:43","17:59","18:08","18:27","18:33","18:55","18:58","19:23","19:48","19:51","20:13","20:19","20:47","20:59","21:13","21:42","22:09","22:17","23:17","00:19"]},{"id":"587","name":"Galermo Casagrandi","lat":37.51972721,"lon":15.0663258,"times":["04:50","05:48","06:03","06:06","06:28","06:53","07:16","07:39","08:02","08:14","08:25","08:41","08:48","09:08","09:11","09:34","09:35","09:57","10:02","10:20","10:29","10:43","10:56","11:06","11:23","11:29","11:50","11:52","12:15","12:17","12:38","12:44","13:01","13:14","13:24","13:46","14:10","14:31","14:52","15:12","15:40","16:08","16:36","16:54","17:04","17:32","17:44","18:00","18:09","18:28","18:34","18:56","18:59","19:24","19:49","19:52","20:14","20:20","20:48","21:00","21:14","21:43","22:10","22:18","23:18","00:20"]},{"id":"588","name":"Galermo Varese","lat":37.52116042,"lon":15.06624785,"times":["04:51","05:49","06:04","06:07","06:29","06:54","07:16","07:39","08:02","08:15","08:25","08:42","08:48","09:09","09:11","09:34","09:36","09:57","10:03","10:20","10:30","10:43","10:57","11:06","11:24","11:29","11:51","11:52","12:15","12:18","12:38","12:45","13:01","13:15","13:24","13:47","14:10","14:32","14:53","15:13","15:41","16:09","16:37","16:55","17:05","17:33","17:45","18:01","18:10","18:29","18:35","18:57","19:00","19:25","19:50","19:53","20:15","20:21","20:49","21:01","21:15","21:44","22:11","22:19","23:19","00:21"]},{"id":"868","name":"Vivaldi Galermo","lat":37.52250305,"lon":15.06695069,"times":["04:51","05:49","06:05","06:08","06:30","06:55","07:17","07:40","08:03","08:16","08:26","08:43","08:49","09:10","09:12","09:35","09:37","09:58","10:04","10:21","10:31","10:44","10:58","11:07","11:25","11:30","11:52","11:53","12:16","12:19","12:39","12:46","13:02","13:16","13:25","13:48","14:11","14:33","14:54","15:14","15:42","16:10","16:38","16:56","17:06","17:34","17:46","18:02","18:11","18:30","18:36","18:58","19:01","19:26","19:51","19:54","20:16","20:22","20:50","21:01","21:16","21:45","22:11","22:19","23:19","00:21"]},{"id":"869","name":"Doria Vivaldi","lat":37.52311374,"lon":15.070799,"times":["04:52","05:50","06:06","06:09","06:32","06:57","07:19","07:42","08:05","08:17","08:28","08:44","08:51","09:11","09:14","09:37","09:38","10:00","10:05","10:23","10:32","10:46","10:59","11:09","11:26","11:32","11:53","11:55","12:18","12:20","12:41","12:47","13:04","13:17","13:27","13:49","14:13","14:34","14:55","15:15","15:43","16:11","16:39","16:57","17:07","17:35","17:47","18:03","18:12","18:31","18:37","18:59","19:02","19:27","19:52","19:55","20:17","20:23","20:51","21:02","21:17","21:47","22:12","22:20","23:20","00:22"]},{"id":"670","name":"Galermo Peschiera","lat":37.52316153,"lon":15.06609118,"times":["04:55","05:53","06:10","06:13","06:36","07:01","07:24","07:47","08:10","08:21","08:33","08:48","08:56","09:15","09:19","09:42","10:05","10:09","10:28","10:36","10:51","11:03","11:14","11:30","11:37","11:57","12:00","12:23","12:24","12:46","12:51","13:09","13:21","13:32","13:54","14:18","14:39","15:00","15:20","15:48","16:16","16:44","17:02","17:12","17:40","17:52","18:08","18:17","18:36","18:42","19:04","19:07","19:32","19:57","20:00","20:22","20:28","20:56","21:05","21:22","21:51","22:15","22:23","23:23","00:25"]},{"id":"671","name":"Galermo Mantova Est ","lat":37.52423415,"lon":15.06609213,"times":["04:56","05:53","06:11","06:13","06:36","07:01","07:25","07:48","08:11","08:22","08:34","08:49","08:57","09:16","09:20","09:43","10:06","10:10","10:29","10:37","10:52","11:04","11:15","11:31","11:38","11:58","12:01","12:24","12:25","12:47","12:52","13:10","13:22","13:33","13:54","14:19","14:39","15:00","15:20","15:48","16:16","16:44","17:02","17:12","17:40","17:52","18:08","18:17","18:36","18:42","19:04","19:07","19:32","19:57","20:00","20:22","20:28","20:56","21:06","21:22","21:51","22:16","22:23","23:23","00:26"]},{"id":"1114","name":"Galermo Est ","lat":37.52538781,"lon":15.06624027,"times":["04:56","05:53","06:11","06:13","06:37","07:02","07:25","07:48","08:11","08:22","08:34","08:49","08:57","09:16","09:20","09:43","10:06","10:10","10:29","10:37","10:52","11:04","11:15","11:31","11:38","11:58","12:01","12:24","12:25","12:47","12:52","13:10","13:22","13:33","13:55","14:19","14:40","15:01","15:21","15:49","16:17","16:45","17:03","17:13","17:41","17:53","18:09","18:18","18:37","18:43","19:05","19:08","19:33","19:58","20:01","20:23","20:29","20:57","21:06","21:23","21:52","22:16","22:23","23:23","00:26"]},{"id":"672","name":"Galermo (1)","lat":37.52681207,"lon":15.06606045,"times":["04:57","05:54","06:12","06:14","06:38","07:03","07:26","07:49","08:12","08:23","08:35","08:50","08:58","09:17","09:21","09:44","10:07","10:11","10:30","10:38","10:53","11:05","11:16","11:32","11:39","11:59","12:02","12:25","12:26","12:48","12:53","13:11","13:23","13:34","13:56","14:20","14:41","15:02","15:22","15:50","16:18","16:46","17:04","17:14","17:42","17:54","18:10","18:19","18:38","18:44","19:06","19:09","19:34","19:59","20:02","20:24","20:30","20:58","21:07","21:24","21:53","22:17","22:24","23:24","00:27"]},{"id":"673","name":"Galermo Tirreno Est","lat":37.52784087,"lon":15.0637865,"times":["04:58","05:55","06:13","06:15","06:39","07:04","07:27","07:50","08:13","08:24","08:36","08:51","08:59","09:18","09:22","09:45","10:08","10:12","10:31","10:39","10:54","11:06","11:17","11:33","11:40","12:00","12:03","12:26","12:27","12:49","12:54","13:12","13:24","13:35","13:57","14:21","14:42","15:03","15:23","15:51","16:19","16:47","17:05","17:15","17:43","17:55","18:11","18:20","18:39","18:45","19:07","19:10","19:35","20:00","20:03","20:25","20:31","20:59","21:08","21:25","21:54","22:18","22:25","23:25","00:28"]},{"id":"612","name":"Galermo Gualanti Est","lat":37.52901347,"lon":15.06223695,"times":["04:58","05:55","06:14","06:16","06:40","07:05","07:28","07:51","08:14","08:25","08:37","08:52","09:00","09:19","09:23","09:46","10:09","10:13","10:32","10:40","10:55","11:07","11:18","11:34","11:41","12:01","12:04","12:27","12:28","12:50","12:55","13:13","13:25","13:36","13:58","14:22","14:43","15:04","15:24","15:52","16:20","16:48","17:06","17:16","17:44","17:56","18:12","18:21","18:40","18:46","19:08","19:11","19:36","20:01","20:04","20:26","20:32","21:00","21:08","21:26","21:55","22:18","22:25","23:25","00:28"]},{"id":"613","name":"Galermo Don Gnocchi","lat":37.53007774,"lon":15.06097022,"times":["04:59","05:56","06:15","06:16","06:40","07:05","07:29","07:52","08:15","08:26","08:38","08:53","09:01","09:20","09:24","09:47","10:10","10:14","10:33","10:41","10:56","11:08","11:19","11:35","11:42","12:02","12:05","12:28","12:29","12:51","12:56","13:14","13:26","13:37","13:59","14:23","14:44","15:05","15:25","15:53","16:21","16:49","17:07","17:17","17:45","17:57","18:13","18:22","18:41","18:47","19:09","19:12","19:37","20:02","20:05","20:27","20:33","21:01","21:09","21:27","21:55","22:19","22:26","23:26","00:29"]},{"id":"674","name":"Galermo Ustica","lat":37.53170997,"lon":15.05946622,"times":["05:00","05:56","06:16","06:17","06:41","07:06","07:30","07:53","08:16","08:27","08:39","08:54","09:02","09:21","09:25","09:48","10:11","10:15","10:34","10:42","10:57","11:09","11:20","11:36","11:43","12:03","12:06","12:29","12:30","12:52","12:57","13:15","13:27","13:38","14:00","14:24","14:45","15:06","15:26","15:54","16:22","16:50","17:08","17:18","17:46","17:58","18:14","18:23","18:42","18:48","19:10","19:13","19:38","20:03","20:06","20:28","20:34","21:02","21:10","21:28","21:56","22:20","22:26","23:26","00:30"]},{"id":"625","name":"Galermo Vittorini Est","lat":37.53307176,"lon":15.0579959,"times":["05:00","05:57","06:16","06:18","06:42","07:07","07:31","07:54","08:17","08:28","08:40","08:55","09:03","09:22","09:26","09:49","10:12","10:16","10:35","10:43","10:58","11:10","11:21","11:37","11:44","12:04","12:07","12:30","12:31","12:53","12:58","13:16","13:28","13:39","14:01","14:25","14:46","15:07","15:27","15:55","16:23","16:51","17:09","17:19","17:47","17:59","18:15","18:24","18:43","18:49","19:11","19:14","19:39","20:04","20:07","20:29","20:35","21:03","21:10","21:29","21:57","22:20","22:27","23:27","00:30"]},{"id":"675","name":"Galermo Catania Est","lat":37.53478509,"lon":15.05644656,"times":["05:01","05:57","06:17","06:19","06:43","07:08","07:32","07:55","08:18","08:29","08:41","08:56","09:04","09:23","09:27","09:50","10:13","10:17","10:36","10:44","10:59","11:11","11:22","11:38","11:45","12:05","12:08","12:31","12:32","12:54","12:59","13:17","13:29","13:40","14:02","14:26","14:47","15:08","15:28","15:56","16:24","16:52","17:10","17:20","17:48","18:00","18:16","18:25","18:44","18:50","19:12","19:15","19:40","20:05","20:08","20:30","20:36","21:04","21:11","21:30","21:58","22:21","22:27","23:27","00:31"]},{"id":"676","name":"Galermo Naselli Est","lat":37.53558746,"lon":15.05613023,"times":["05:01","05:58","06:18","06:19","06:44","07:09","07:33","07:56","08:19","08:29","08:42","08:56","09:05","09:23","09:28","09:50","09:51","10:14","10:17","10:37","10:44","11:00","11:11","11:23","11:38","11:46","12:05","12:09","12:32","12:55","12:59","13:18","13:29","13:41","14:02","14:27","14:47","15:08","15:28","15:56","16:24","16:52","17:10","17:20","17:48","18:00","18:16","18:25","18:44","18:50","19:12","19:15","19:40","20:05","20:08","20:30","20:36","21:04","21:11","21:30","21:59","22:21","22:28","23:28","00:31"]},{"id":"677","name":"Galermo Brescia","lat":37.53757946,"lon":15.05614304,"times":["05:02","05:58","06:19","06:20","06:45","07:10","07:34","07:57","08:20","08:30","08:43","08:57","09:06","09:24","09:29","09:51","09:52","10:15","10:18","10:38","10:45","11:01","11:12","11:24","11:39","11:47","12:06","12:10","12:33","12:56","13:00","13:19","13:30","13:42","14:04","14:28","14:48","15:09","15:29","15:57","16:25","16:53","17:11","17:21","17:49","18:01","18:17","18:26","18:45","18:51","19:13","19:16","19:41","20:06","20:09","20:31","20:37","21:05","21:12","21:31","22:00","22:22","22:28","23:28","00:32"]},{"id":"678","name":"Galermo Giacinti Est","lat":37.53902157,"lon":15.05626864,"times":["05:03","05:59","06:19","06:21","06:45","07:10","07:35","07:58","08:21","08:31","08:44","08:58","09:07","09:25","09:30","09:52","09:53","10:16","10:19","10:39","10:46","11:02","11:13","11:25","11:40","11:48","12:07","12:11","12:34","12:57","13:01","13:20","13:31","13:43","14:04","14:29","14:49","15:10","15:30","15:58","16:26","16:54","17:12","17:22","17:50","18:02","18:18","18:27","18:46","18:52","19:14","19:17","19:42","20:07","20:10","20:32","20:38","21:06","21:13","21:32","22:00","22:23","22:29","23:29","00:33"]},{"id":"679","name":"Galermo Lilibeo Est","lat":37.54285303,"lon":15.05483388,"times":["05:04","06:00","06:22","06:47","07:12","07:37","08:00","08:23","08:33","08:46","09:00","09:09","09:27","09:32","09:54","09:55","10:18","10:21","10:41","10:48","11:04","11:15","11:27","11:42","11:50","12:09","12:13","12:36","12:59","13:03","13:22","13:33","13:45","14:07","14:31","14:51","15:12","15:32","16:00","16:28","16:56","17:14","17:24","17:52","18:04","18:20","18:29","18:48","18:54","19:16","19:19","19:44","20:09","20:12","20:34","20:40","21:08","21:14","21:34","22:02","22:24","22:30","23:30","00:34"]},{"id":"680","name":"Battista Barriera","lat":37.54462035,"lon":15.05339751,"times":["05:05","06:01","06:23","06:48","07:13","07:39","08:02","08:25","08:34","08:48","09:01","09:11","09:28","09:34","09:55","09:57","10:20","10:22","10:43","10:49","11:06","11:16","11:29","11:43","11:52","12:10","12:15","12:37","12:38","13:01","13:04","13:24","13:34","13:47","14:08","14:33","14:52","15:13","15:33","16:01","16:29","16:57","17:15","17:25","17:53","18:05","18:21","18:30","18:49","18:55","19:17","19:20","19:45","20:10","20:13","20:35","20:41","21:09","21:15","21:35","22:03","22:25","22:31","23:31","00:35"]},{"id":"681","name":"Battista Dell'Alloro","lat":37.54672081,"lon":15.05275374,"times":["05:06","06:01","06:24","06:49","07:14","07:40","08:03","08:26","08:35","08:49","09:02","09:12","09:29","09:35","09:56","09:58","10:21","10:23","10:44","10:50","11:07","11:17","11:30","11:44","11:53","12:11","12:16","12:38","12:39","13:02","13:05","13:25","13:35","13:48","14:09","14:34","14:53","15:14","15:34","16:02","16:30","16:58","17:16","17:26","17:54","18:06","18:22","18:31","18:50","18:56","19:18","19:21","19:46","20:11","20:14","20:36","20:42","21:10","21:16","21:36","22:04","22:26","22:31","23:31","00:36"]},{"id":"682","name":"Battista Fasano","lat":37.54826236,"lon":15.05225671,"times":["05:06","06:02","06:24","06:25","06:50","07:15","07:41","08:04","08:27","08:36","08:50","09:03","09:13","09:30","09:36","09:57","09:59","10:22","10:24","10:45","10:51","11:08","11:18","11:31","11:45","11:54","12:12","12:17","12:39","12:40","13:03","13:06","13:26","13:36","13:49","14:10","14:35","14:54","15:15","15:35","16:03","16:31","16:59","17:17","17:27","17:55","18:07","18:23","18:32","18:51","18:57","19:19","19:22","19:47","20:12","20:15","20:37","20:43","21:11","21:16","21:37","22:05","22:26","22:32","23:32","00:36"]},{"id":"683","name":"Grande","lat":37.55054332,"lon":15.05104694,"times":["05:07","06:03","06:26","06:51","07:16","07:42","08:05","08:28","08:37","08:51","09:04","09:14","09:31","09:37","09:58","10:00","10:23","10:25","10:46","10:52","11:09","11:19","11:32","11:46","11:55","12:13","12:18","12:40","12:41","13:04","13:07","13:27","13:37","13:50","14:11","14:36","14:55","15:16","15:36","16:04","16:32","17:00","17:18","17:28","17:56","18:08","18:24","18:33","18:52","18:58","19:20","19:23","19:48","20:13","20:16","20:38","20:44","21:12","21:17","21:38","22:06","22:27","22:33","23:33","00:37"]},{"id":"684","name":"Chiesa Madre Mariani","lat":37.55180565,"lon":15.05006285,"times":["05:08","06:03","06:26","06:27","06:52","07:17","07:43","08:06","08:29","08:38","08:52","09:05","09:15","09:32","09:38","09:59","10:01","10:24","10:26","10:47","10:53","11:10","11:20","11:33","11:47","11:56","12:14","12:19","12:41","12:42","13:05","13:08","13:28","13:38","13:51","14:12","14:37","14:56","15:17","15:37","16:05","16:33","17:01","17:19","17:29","17:57","18:09","18:25","18:34","18:53","18:59","19:21","19:24","19:49","20:14","20:17","20:39","20:45","21:13","21:18","21:39","22:07","22:28","22:33","23:33","00:38"]},{"id":"685","name":"Clarenza","lat":37.55232983,"lon":15.04666678,"times":["05:09","06:04","06:28","06:54","07:19","07:44","08:07","08:30","08:40","08:53","09:07","09:16","09:34","09:39","10:01","10:02","10:25","10:28","10:48","10:55","11:11","11:22","11:34","11:49","11:57","12:16","12:20","12:43","13:06","13:10","13:29","13:40","13:52","14:13","14:38","14:57","15:18","15:38","16:06","16:34","17:02","17:20","17:30","17:58","18:10","18:26","18:35","18:54","19:00","19:22","19:25","19:50","20:15","20:18","20:40","20:46","21:14","21:19","21:40","22:09","22:29","22:34","23:34","00:39"]},{"id":"686","name":"Meli","lat":37.55308979,"lon":15.04459433,"times":["05:10","06:05","06:29","06:55","07:20","07:46","08:09","08:32","08:41","08:55","09:08","09:18","09:35","09:41","10:02","10:04","10:27","10:29","10:50","10:56","11:13","11:23","11:36","11:50","11:59","12:17","12:22","12:44","12:45","13:08","13:11","13:31","13:41","13:54","14:15","14:40","14:59","15:20","15:40","16:08","16:36","17:04","17:22","17:32","18:00","18:12","18:28","18:37","18:56","19:02","19:24","19:27","19:52","20:17","20:20","20:42","20:48","21:16","21:20","21:42","22:10","22:30","22:35","23:35","00:40"]}],"sabato":[{"id":"307","name":"Terminal Borsa","lat":37.50769098,"lon":15.08508615,"times":["04:40","05:40","05:50","05:55","06:15","06:40","07:00","07:23","07:46","08:09","08:32","08:55","09:18","09:41","10:04","10:27","10:50","11:13","11:36","11:59","12:22","12:45","13:08","13:31","13:54","14:17","14:38","14:58","15:26","15:54","16:22","16:50","17:18","17:46","18:14","18:42","19:10","19:38","20:06","20:34","21:00","21:30","22:10","23:10","00:10"]},{"id":"389","name":"Sant'Euplio Spedalieri","lat":37.50903412,"lon":15.08494058,"times":["04:40","05:40","05:50","05:55","06:15","06:40","07:00","07:23","07:46","08:09","08:32","08:55","09:18","09:41","10:04","10:27","10:50","11:13","11:36","11:59","12:22","12:45","13:08","13:31","13:54","14:17","14:38","14:58","15:26","15:54","16:22","16:50","17:18","17:46","18:14","18:42","19:10","19:38","20:06","20:34","21:00","21:30","22:10","23:10","00:10"]},{"id":"664","name":"Ughetti Androne","lat":37.50935198,"lon":15.08155778,"times":["04:41","05:41","05:52","05:57","06:17","06:42","07:02","07:25","07:48","08:11","08:34","08:57","09:20","09:43","10:06","10:29","10:52","11:15","11:38","12:01","12:24","12:47","13:10","13:33","13:56","14:19","14:40","15:00","15:28","15:56","16:24","16:52","17:20","17:48","18:16","18:44","19:12","19:40","20:08","20:36","21:02","21:32","22:11","23:11","00:11"]},{"id":"665","name":"Ughetti Adua","lat":37.50914675,"lon":15.07847992,"times":["04:42","05:42","05:53","05:58","06:18","06:43","07:04","07:27","07:50","08:13","08:36","08:59","09:22","09:45","10:08","10:31","10:54","11:17","11:40","12:03","12:26","12:49","13:12","13:35","13:58","14:20","14:41","15:01","15:29","15:57","16:25","16:53","17:21","17:49","18:17","18:45","19:13","19:41","20:09","20:37","21:03","21:33","22:12","23:12","00:12"]},{"id":"666","name":"Ughetti Montessori","lat":37.50897723,"lon":15.07582075,"times":["04:43","05:42","05:54","05:59","06:19","06:44","07:05","07:28","07:51","08:14","08:37","09:00","09:23","09:46","10:09","10:32","10:55","11:18","11:41","12:04","12:27","12:50","13:13","13:36","13:59","14:22","14:43","15:03","15:31","15:59","16:27","16:55","17:23","17:51","18:19","18:47","19:15","19:43","20:11","20:39","21:05","21:34","22:12","23:12","00:13"]},{"id":"667","name":"Filzi Mogadiscio","lat":37.5102215,"lon":15.07522231,"times":["04:44","05:43","05:55","05:59","06:20","06:45","07:06","07:29","07:52","08:15","08:38","09:01","09:24","09:47","10:10","10:33","10:56","11:19","11:42","12:05","12:28","12:51","13:14","13:37","14:00","14:22","14:43","15:03","15:31","15:59","16:27","16:55","17:23","17:51","18:19","18:47","19:15","19:43","20:11","20:39","21:05","21:35","22:13","23:13","00:14"]},{"id":"668","name":"Rapisardi Lavaggi","lat":37.51161016,"lon":15.07434112,"times":["04:44","05:44","05:56","06:00","06:21","06:46","07:07","07:30","07:53","08:16","08:39","09:02","09:25","09:48","10:11","10:34","10:57","11:20","11:43","12:06","12:29","12:52","13:15","13:38","14:01","14:23","14:44","15:04","15:32","16:00","16:28","16:56","17:24","17:52","18:20","18:48","19:16","19:44","20:12","20:40","21:06","21:36","22:14","23:14","00:14"]},{"id":"669","name":"Fava Franchetti","lat":37.51208025,"lon":15.07211247,"times":["04:45","05:44","05:57","06:01","06:22","06:47","07:08","07:31","07:54","08:17","08:40","09:03","09:26","09:49","10:12","10:35","10:58","11:21","11:44","12:07","12:30","12:53","13:16","13:39","14:02","14:24","14:45","15:05","15:33","16:01","16:29","16:57","17:25","17:53","18:21","18:49","19:17","19:45","20:13","20:41","21:07","21:37","22:14","23:14","00:15"]},{"id":"446","name":"Aporti","lat":37.51403555,"lon":15.07318933,"times":["04:46","05:45","05:58","06:02","06:24","06:49","07:10","07:33","07:56","08:19","08:42","09:05","09:28","09:51","10:14","10:37","11:00","11:23","11:46","12:09","12:32","12:55","13:18","13:41","14:04","14:26","14:47","15:07","15:35","16:03","16:31","16:59","17:27","17:55","18:23","18:51","19:19","19:47","20:15","20:43","21:09","21:39","22:15","23:15","00:16"]},{"id":"580","name":"Cifali Vecchi","lat":37.51514374,"lon":15.0739712,"times":["04:47","05:46","05:59","06:03","06:25","06:50","07:11","07:34","07:57","08:20","08:43","09:06","09:29","09:52","10:15","10:38","11:01","11:24","11:47","12:10","12:33","12:56","13:19","13:42","14:05","14:27","14:48","15:08","15:36","16:04","16:32","17:00","17:28","17:56","18:24","18:52","19:20","19:48","20:16","20:44","21:10","21:40","22:16","23:16","00:17"]},{"id":"581","name":"Cifali Chisari","lat":37.51620818,"lon":15.07262566,"times":["04:48","05:46","06:00","06:04","06:25","06:50","07:12","07:35","07:58","08:21","08:44","09:07","09:30","09:53","10:16","10:39","11:02","11:25","11:48","12:11","12:34","12:57","13:20","13:42","14:06","14:28","14:49","15:09","15:37","16:05","16:33","17:01","17:29","17:57","18:25","18:53","19:21","19:49","20:17","20:45","21:11","21:40","22:16","23:16","00:18"]},{"id":"582","name":"Bonadies","lat":37.51791398,"lon":15.06892692,"times":["04:49","05:47","06:02","06:05","06:27","06:52","07:14","07:37","08:00","08:23","08:46","09:09","09:32","09:55","10:18","10:41","11:04","11:27","11:50","12:13","12:36","12:59","13:22","13:44","14:08","14:30","14:51","15:11","15:39","16:07","16:35","17:03","17:31","17:59","18:27","18:55","19:23","19:51","20:19","20:47","21:13","21:42","22:17","23:17","00:19"]},{"id":"587","name":"Galermo Casagrandi","lat":37.51972721,"lon":15.0663258,"times":["04:50","05:48","06:03","06:06","06:28","06:53","07:16","07:39","08:02","08:25","08:48","09:11","09:34","09:57","10:20","10:43","11:06","11:29","11:52","12:15","12:38","13:01","13:24","13:46","14:10","14:31","14:52","15:12","15:40","16:08","16:36","17:04","17:32","18:00","18:28","18:56","19:24","19:52","20:20","20:48","21:14","21:43","22:18","23:18","00:20"]},{"id":"588","name":"Galermo Varese","lat":37.52116042,"lon":15.06624785,"times":["04:51","05:49","06:04","06:07","06:29","06:54","07:16","07:39","08:02","08:25","08:48","09:11","09:34","09:57","10:20","10:43","11:06","11:29","11:52","12:15","12:38","13:01","13:24","13:47","14:10","14:32","14:53","15:13","15:41","16:09","16:37","17:05","17:33","18:01","18:29","18:57","19:25","19:53","20:21","20:49","21:15","21:44","22:19","23:19","00:21"]},{"id":"868","name":"Vivaldi Galermo","lat":37.52250305,"lon":15.06695069,"times":["04:51","05:49","06:05","06:08","06:30","06:55","07:17","07:40","08:03","08:26","08:49","09:12","09:35","09:58","10:21","10:44","11:07","11:30","11:53","12:16","12:39","13:02","13:25","13:48","14:11","14:33","14:54","15:14","15:42","16:10","16:38","17:06","17:34","18:02","18:30","18:58","19:26","19:54","20:22","20:50","21:16","21:45","22:19","23:19","00:21"]},{"id":"869","name":"Doria Vivaldi","lat":37.52311374,"lon":15.070799,"times":["04:52","05:50","06:06","06:09","06:32","06:57","07:19","07:42","08:05","08:28","08:51","09:14","09:37","10:00","10:23","10:46","11:09","11:32","11:55","12:18","12:41","13:04","13:27","13:49","14:13","14:34","14:55","15:15","15:43","16:11","16:39","17:07","17:35","18:03","18:31","18:59","19:27","19:55","20:23","20:51","21:17","21:47","22:20","23:20","00:22"]},{"id":"670","name":"Galermo Peschiera","lat":37.52316153,"lon":15.06609118,"times":["04:55","05:53","06:10","06:13","06:36","07:01","07:24","07:47","08:10","08:33","08:56","09:19","09:42","10:05","10:28","10:51","11:14","11:37","12:00","12:23","12:46","13:09","13:32","13:54","14:18","14:39","15:00","15:20","15:48","16:16","16:44","17:12","17:40","18:08","18:36","19:04","19:32","20:00","20:28","20:56","21:22","21:51","22:23","23:23","00:25"]},{"id":"671","name":"Galermo Mantova Est ","lat":37.52423415,"lon":15.06609213,"times":["04:56","05:53","06:11","06:13","06:36","07:01","07:25","07:48","08:11","08:34","08:57","09:20","09:43","10:06","10:29","10:52","11:15","11:38","12:01","12:24","12:47","13:10","13:33","13:54","14:19","14:39","15:00","15:20","15:48","16:16","16:44","17:12","17:40","18:08","18:36","19:04","19:32","20:00","20:28","20:56","21:22","21:51","22:23","23:23","00:26"]},{"id":"1114","name":"Galermo Est ","lat":37.52538781,"lon":15.06624027,"times":["04:56","05:53","06:11","06:13","06:37","07:02","07:25","07:48","08:11","08:34","08:57","09:20","09:43","10:06","10:29","10:52","11:15","11:38","12:01","12:24","12:47","13:10","13:33","13:55","14:19","14:40","15:01","15:21","15:49","16:17","16:45","17:13","17:41","18:09","18:37","19:05","19:33","20:01","20:29","20:57","21:23","21:52","22:23","23:23","00:26"]},{"id":"672","name":"Galermo (1)","lat":37.52681207,"lon":15.06606045,"times":["04:57","05:54","06:12","06:14","06:38","07:03","07:26","07:49","08:12","08:35","08:58","09:21","09:44","10:07","10:30","10:53","11:16","11:39","12:02","12:25","12:48","13:11","13:34","13:56","14:20","14:41","15:02","15:22","15:50","16:18","16:46","17:14","17:42","18:10","18:38","19:06","19:34","20:02","20:30","20:58","21:24","21:53","22:24","23:24","00:27"]},{"id":"673","name":"Galermo Tirreno Est","lat":37.52784087,"lon":15.0637865,"times":["04:58","05:55","06:13","06:15","06:39","07:04","07:27","07:50","08:13","08:36","08:59","09:22","09:45","10:08","10:31","10:54","11:17","11:40","12:03","12:26","12:49","13:12","13:35","13:57","14:21","14:42","15:03","15:23","15:51","16:19","16:47","17:15","17:43","18:11","18:39","19:07","19:35","20:03","20:31","20:59","21:25","21:54","22:25","23:25","00:28"]},{"id":"612","name":"Galermo Gualanti Est","lat":37.52901347,"lon":15.06223695,"times":["04:58","05:55","06:14","06:16","06:40","07:05","07:28","07:51","08:14","08:37","09:00","09:23","09:46","10:09","10:32","10:55","11:18","11:41","12:04","12:27","12:50","13:13","13:36","13:58","14:22","14:43","15:04","15:24","15:52","16:20","16:48","17:16","17:44","18:12","18:40","19:08","19:36","20:04","20:32","21:00","21:26","21:55","22:25","23:25","00:28"]},{"id":"613","name":"Galermo Don Gnocchi","lat":37.53007774,"lon":15.06097022,"times":["04:59","05:56","06:15","06:16","06:40","07:05","07:29","07:52","08:15","08:38","09:01","09:24","09:47","10:10","10:33","10:56","11:19","11:42","12:05","12:28","12:51","13:14","13:37","13:59","14:23","14:44","15:05","15:25","15:53","16:21","16:49","17:17","17:45","18:13","18:41","19:09","19:37","20:05","20:33","21:01","21:27","21:55","22:26","23:26","00:29"]},{"id":"674","name":"Galermo Ustica","lat":37.53170997,"lon":15.05946622,"times":["05:00","05:56","06:16","06:17","06:41","07:06","07:30","07:53","08:16","08:39","09:02","09:25","09:48","10:11","10:34","10:57","11:20","11:43","12:06","12:29","12:52","13:15","13:38","14:00","14:24","14:45","15:06","15:26","15:54","16:22","16:50","17:18","17:46","18:14","18:42","19:10","19:38","20:06","20:34","21:02","21:28","21:56","22:26","23:26","00:30"]},{"id":"625","name":"Galermo Vittorini Est","lat":37.53307176,"lon":15.0579959,"times":["05:00","05:57","06:16","06:18","06:42","07:07","07:31","07:54","08:17","08:40","09:03","09:26","09:49","10:12","10:35","10:58","11:21","11:44","12:07","12:30","12:53","13:16","13:39","14:01","14:25","14:46","15:07","15:27","15:55","16:23","16:51","17:19","17:47","18:15","18:43","19:11","19:39","20:07","20:35","21:03","21:29","21:57","22:27","23:27","00:30"]},{"id":"675","name":"Galermo Catania Est","lat":37.53478509,"lon":15.05644656,"times":["05:01","05:57","06:17","06:19","06:43","07:08","07:32","07:55","08:18","08:41","09:04","09:27","09:50","10:13","10:36","10:59","11:22","11:45","12:08","12:31","12:54","13:17","13:40","14:02","14:26","14:47","15:08","15:28","15:56","16:24","16:52","17:20","17:48","18:16","18:44","19:12","19:40","20:08","20:36","21:04","21:30","21:58","22:27","23:27","00:31"]},{"id":"676","name":"Galermo Naselli Est","lat":37.53558746,"lon":15.05613023,"times":["05:01","05:58","06:18","06:19","06:44","07:09","07:33","07:56","08:19","08:42","09:05","09:28","09:51","10:14","10:37","11:00","11:23","11:46","12:09","12:32","12:55","13:18","13:41","14:02","14:27","14:47","15:08","15:28","15:56","16:24","16:52","17:20","17:48","18:16","18:44","19:12","19:40","20:08","20:36","21:04","21:30","21:59","22:28","23:28","00:31"]},{"id":"677","name":"Galermo Brescia","lat":37.53757946,"lon":15.05614304,"times":["05:02","05:58","06:19","06:20","06:45","07:10","07:34","07:57","08:20","08:43","09:06","09:29","09:52","10:15","10:38","11:01","11:24","11:47","12:10","12:33","12:56","13:19","13:42","14:04","14:28","14:48","15:09","15:29","15:57","16:25","16:53","17:21","17:49","18:17","18:45","19:13","19:41","20:09","20:37","21:05","21:31","22:00","22:28","23:28","00:32"]},{"id":"678","name":"Galermo Giacinti Est","lat":37.53902157,"lon":15.05626864,"times":["05:03","05:59","06:19","06:21","06:45","07:10","07:35","07:58","08:21","08:44","09:07","09:30","09:53","10:16","10:39","11:02","11:25","11:48","12:11","12:34","12:57","13:20","13:43","14:04","14:29","14:49","15:10","15:30","15:58","16:26","16:54","17:22","17:50","18:18","18:46","19:14","19:42","20:10","20:38","21:06","21:32","22:00","22:29","23:29","00:33"]},{"id":"679","name":"Galermo Lilibeo Est","lat":37.54285303,"lon":15.05483388,"times":["05:04","06:00","06:22","06:47","07:12","07:37","08:00","08:23","08:46","09:09","09:32","09:55","10:18","10:41","11:04","11:27","11:50","12:13","12:36","12:59","13:22","13:45","14:07","14:31","14:51","15:12","15:32","16:00","16:28","16:56","17:24","17:52","18:20","18:48","19:16","19:44","20:12","20:40","21:08","21:34","22:02","22:30","23:30","00:34"]},{"id":"680","name":"Battista Barriera","lat":37.54462035,"lon":15.05339751,"times":["05:05","06:01","06:23","06:48","07:13","07:39","08:02","08:25","08:48","09:11","09:34","09:57","10:20","10:43","11:06","11:29","11:52","12:15","12:38","13:01","13:24","13:47","14:08","14:33","14:52","15:13","15:33","16:01","16:29","16:57","17:25","17:53","18:21","18:49","19:17","19:45","20:13","20:41","21:09","21:35","22:03","22:31","23:31","00:35"]},{"id":"681","name":"Battista Dell'Alloro","lat":37.54672081,"lon":15.05275374,"times":["05:06","06:01","06:24","06:49","07:14","07:40","08:03","08:26","08:49","09:12","09:35","09:58","10:21","10:44","11:07","11:30","11:53","12:16","12:39","13:02","13:25","13:48","14:09","14:34","14:53","15:14","15:34","16:02","16:30","16:58","17:26","17:54","18:22","18:50","19:18","19:46","20:14","20:42","21:10","21:36","22:04","22:31","23:31","00:36"]},{"id":"682","name":"Battista Fasano","lat":37.54826236,"lon":15.05225671,"times":["05:06","06:02","06:24","06:25","06:50","07:15","07:41","08:04","08:27","08:50","09:13","09:36","09:59","10:22","10:45","11:08","11:31","11:54","12:17","12:40","13:03","13:26","13:49","14:10","14:35","14:54","15:15","15:35","16:03","16:31","16:59","17:27","17:55","18:23","18:51","19:19","19:47","20:15","20:43","21:11","21:37","22:05","22:32","23:32","00:36"]},{"id":"683","name":"Grande","lat":37.55054332,"lon":15.05104694,"times":["05:07","06:03","06:26","06:51","07:16","07:42","08:05","08:28","08:51","09:14","09:37","10:00","10:23","10:46","11:09","11:32","11:55","12:18","12:41","13:04","13:27","13:50","14:11","14:36","14:55","15:16","15:36","16:04","16:32","17:00","17:28","17:56","18:24","18:52","19:20","19:48","20:16","20:44","21:12","21:38","22:06","22:33","23:33","00:37"]},{"id":"684","name":"Chiesa Madre Mariani","lat":37.55180565,"lon":15.05006285,"times":["05:08","06:03","06:26","06:27","06:52","07:17","07:43","08:06","08:29","08:52","09:15","09:38","10:01","10:24","10:47","11:10","11:33","11:56","12:19","12:42","13:05","13:28","13:51","14:12","14:37","14:56","15:17","15:37","16:05","16:33","17:01","17:29","17:57","18:25","18:53","19:21","19:49","20:17","20:45","21:13","21:39","22:07","22:33","23:33","00:38"]},{"id":"685","name":"Clarenza","lat":37.55232983,"lon":15.04666678,"times":["05:09","06:04","06:28","06:54","07:19","07:44","08:07","08:30","08:53","09:16","09:39","10:02","10:25","10:48","11:11","11:34","11:57","12:20","12:43","13:06","13:29","13:52","14:13","14:38","14:57","15:18","15:38","16:06","16:34","17:02","17:30","17:58","18:26","18:54","19:22","19:50","20:18","20:46","21:14","21:40","22:09","22:34","23:34","00:39"]},{"id":"686","name":"Meli","lat":37.55308979,"lon":15.04459433,"times":["05:10","06:05","06:29","06:55","07:20","07:46","08:09","08:32","08:55","09:18","09:41","10:04","10:27","10:50","11:13","11:36","11:59","12:22","12:45","13:08","13:31","13:54","14:15","14:40","14:59","15:20","15:40","16:08","16:36","17:04","17:32","18:00","18:28","18:56","19:24","19:52","20:20","20:48","21:16","21:42","22:10","22:35","23:35","00:40"]}],"domenica":[{"id":"307","name":"Terminal Borsa","lat":37.50769098,"lon":15.08508615,"times":["06:00","07:00","08:00","08:27","08:54","09:21","09:48","10:15","10:42","11:09","11:36","12:03","12:30","13:00","14:15","15:00","15:25","15:50","16:15","16:40","17:05","17:30","17:55","18:20","18:45","19:10","19:35","20:00","20:50","22:00"]},{"id":"389","name":"Sant'Euplio Spedalieri","lat":37.50903412,"lon":15.08494058,"times":["06:00","07:00","08:00","08:27","08:54","09:21","09:48","10:15","10:42","11:09","11:36","12:03","12:30","13:00","14:15","15:00","15:25","15:50","16:15","16:40","17:05","17:30","17:55","18:20","18:45","19:10","19:35","20:00","20:50","22:00"]},{"id":"664","name":"Ughetti Androne","lat":37.50935198,"lon":15.08155778,"times":["06:01","07:01","08:02","08:29","08:56","09:23","09:50","10:17","10:44","11:11","11:38","12:05","12:32","13:02","14:17","15:02","15:27","15:52","16:17","16:42","17:07","17:32","17:57","18:22","18:47","19:12","19:37","20:02","20:52","22:01"]},{"id":"665","name":"Ughetti Adua","lat":37.50914675,"lon":15.07847992,"times":["06:02","07:02","08:03","08:30","08:57","09:24","09:51","10:18","10:45","11:12","11:39","12:06","12:33","13:03","14:18","15:03","15:28","15:53","16:18","16:43","17:08","17:33","17:58","18:23","18:48","19:13","19:38","20:03","20:53","22:02"]},{"id":"666","name":"Ughetti Montessori","lat":37.50897723,"lon":15.07582075,"times":["06:03","07:03","08:04","08:31","08:58","09:25","09:52","10:19","10:46","11:13","11:40","12:07","12:34","13:04","14:19","15:05","15:30","15:55","16:20","16:45","17:10","17:35","18:00","18:25","18:50","19:15","19:40","20:05","20:54","22:03"]},{"id":"667","name":"Filzi Mogadiscio","lat":37.5102215,"lon":15.07522231,"times":["06:04","07:04","08:05","08:32","08:59","09:26","09:53","10:20","10:47","11:14","11:41","12:08","12:35","13:05","14:19","15:05","15:30","15:55","16:20","16:45","17:10","17:35","18:00","18:25","18:50","19:15","19:40","20:05","20:54","22:04"]},{"id":"668","name":"Rapisardi Lavaggi","lat":37.51161016,"lon":15.07434112,"times":["06:04","07:04","08:06","08:33","09:00","09:27","09:54","10:21","10:48","11:15","11:42","12:09","12:36","13:06","14:20","15:06","15:31","15:56","16:21","16:46","17:11","17:36","18:01","18:26","18:51","19:16","19:41","20:06","20:55","22:04"]},{"id":"669","name":"Fava Franchetti","lat":37.51208025,"lon":15.07211247,"times":["06:05","07:05","08:07","08:34","09:01","09:28","09:55","10:22","10:49","11:16","11:43","12:10","12:37","13:07","14:21","15:07","15:32","15:57","16:22","16:47","17:12","17:37","18:02","18:27","18:52","19:17","19:42","20:07","20:56","22:05"]},{"id":"446","name":"Aporti","lat":37.51403555,"lon":15.07318933,"times":["06:06","07:06","08:09","08:36","09:03","09:30","09:57","10:24","10:51","11:18","11:45","12:12","12:39","13:09","14:22","15:09","15:34","15:59","16:24","16:49","17:14","17:39","18:04","18:29","18:54","19:19","19:44","20:09","20:57","22:06"]},{"id":"580","name":"Cifali Vecchi","lat":37.51514374,"lon":15.0739712,"times":["06:07","07:07","08:10","08:37","09:04","09:31","09:58","10:25","10:52","11:19","11:46","12:13","12:40","13:10","14:23","15:10","15:35","16:00","16:25","16:50","17:15","17:40","18:05","18:30","18:55","19:20","19:45","20:10","20:58","22:07"]},{"id":"581","name":"Cifali Chisari","lat":37.51620818,"lon":15.07262566,"times":["06:07","07:08","08:11","08:38","09:05","09:32","09:59","10:26","10:53","11:20","11:47","12:14","12:41","13:11","14:24","15:11","15:36","16:01","16:26","16:51","17:16","17:41","18:06","18:31","18:56","19:21","19:46","20:11","20:59","22:08"]},{"id":"582","name":"Bonadies","lat":37.51791398,"lon":15.06892692,"times":["06:09","07:09","08:12","08:39","09:06","09:33","10:00","10:27","10:54","11:21","11:48","12:15","12:42","13:12","14:25","15:13","15:38","16:03","16:28","16:53","17:18","17:43","18:08","18:33","18:58","19:23","19:48","20:13","21:00","22:09"]},{"id":"587","name":"Galermo Casagrandi","lat":37.51972721,"lon":15.0663258,"times":["06:10","07:10","08:14","08:41","09:08","09:35","10:02","10:29","10:56","11:23","11:50","12:17","12:44","13:14","14:27","15:14","15:39","16:04","16:29","16:54","17:19","17:44","18:09","18:34","18:59","19:24","19:49","20:14","21:02","22:10"]},{"id":"588","name":"Galermo Varese","lat":37.52116042,"lon":15.06624785,"times":["06:10","07:11","08:15","08:42","09:09","09:36","10:03","10:30","10:57","11:24","11:51","12:18","12:45","13:15","14:27","15:15","15:40","16:05","16:30","16:55","17:20","17:45","18:10","18:35","19:00","19:25","19:50","20:15","21:02","22:11"]},{"id":"868","name":"Vivaldi Galermo","lat":37.52250305,"lon":15.06695069,"times":["06:11","07:11","08:16","08:43","09:10","09:37","10:04","10:31","10:58","11:25","11:52","12:19","12:46","13:16","14:28","15:16","15:41","16:06","16:31","16:56","17:21","17:46","18:11","18:36","19:01","19:26","19:51","20:16","21:03","22:11"]},{"id":"869","name":"Doria Vivaldi","lat":37.52311374,"lon":15.070799,"times":["06:12","07:12","08:17","08:44","09:11","09:38","10:05","10:32","10:59","11:26","11:53","12:20","12:47","13:17","14:29","15:17","15:42","16:07","16:32","16:57","17:22","17:47","18:12","18:37","19:02","19:27","19:52","20:17","21:04","22:12"]},{"id":"670","name":"Galermo Peschiera","lat":37.52316153,"lon":15.06609118,"times":["06:15","07:15","08:21","08:48","09:15","09:42","10:09","10:36","11:03","11:30","11:57","12:24","12:51","13:21","14:33","15:22","15:47","16:12","16:37","17:02","17:27","17:52","18:17","18:42","19:07","19:32","19:57","20:22","21:08","22:15"]},{"id":"671","name":"Galermo Mantova Est ","lat":37.52423415,"lon":15.06609213,"times":["06:15","07:16","08:22","08:49","09:16","09:43","10:10","10:37","11:04","11:31","11:58","12:25","12:52","13:22","14:34","15:22","15:47","16:12","16:37","17:02","17:27","17:52","18:17","18:42","19:07","19:32","19:57","20:22","21:09","22:16"]},{"id":"1114","name":"Galermo Est ","lat":37.52538781,"lon":15.06624027,"times":["06:16","07:16","08:22","08:49","09:16","09:43","10:10","10:37","11:04","11:31","11:58","12:25","12:52","13:22","14:34","15:23","15:48","16:13","16:38","17:03","17:28","17:53","18:18","18:43","19:08","19:33","19:58","20:23","21:09","22:16"]},{"id":"672","name":"Galermo (1)","lat":37.52681207,"lon":15.06606045,"times":["06:16","07:17","08:23","08:50","09:17","09:44","10:11","10:38","11:05","11:32","11:59","12:26","12:53","13:23","14:35","15:24","15:49","16:14","16:39","17:04","17:29","17:54","18:19","18:44","19:09","19:34","19:59","20:24","21:10","22:17"]},{"id":"673","name":"Galermo Tirreno Est","lat":37.52784087,"lon":15.0637865,"times":["06:17","07:18","08:24","08:51","09:18","09:45","10:12","10:39","11:06","11:33","12:00","12:27","12:54","13:24","14:36","15:25","15:50","16:15","16:40","17:05","17:30","17:55","18:20","18:45","19:10","19:35","20:00","20:25","21:11","22:18"]},{"id":"612","name":"Galermo Gualanti Est","lat":37.52901347,"lon":15.06223695,"times":["06:18","07:18","08:25","08:52","09:19","09:46","10:13","10:40","11:07","11:34","12:01","12:28","12:55","13:25","14:36","15:26","15:51","16:16","16:41","17:06","17:31","17:56","18:21","18:46","19:11","19:36","20:01","20:26","21:11","22:18"]},{"id":"613","name":"Galermo Don Gnocchi","lat":37.53007774,"lon":15.06097022,"times":["06:18","07:19","08:26","08:53","09:20","09:47","10:14","10:41","11:08","11:35","12:02","12:29","12:56","13:26","14:37","15:27","15:52","16:17","16:42","17:07","17:32","17:57","18:22","18:47","19:12","19:37","20:02","20:27","21:12","22:19"]},{"id":"674","name":"Galermo Ustica","lat":37.53170997,"lon":15.05946622,"times":["06:19","07:20","08:27","08:54","09:21","09:48","10:15","10:42","11:09","11:36","12:03","12:30","12:57","13:27","14:38","15:28","15:53","16:18","16:43","17:08","17:33","17:58","18:23","18:48","19:13","19:38","20:03","20:28","21:13","22:20"]},{"id":"625","name":"Galermo Vittorini Est","lat":37.53307176,"lon":15.0579959,"times":["06:20","07:20","08:28","08:55","09:22","09:49","10:16","10:43","11:10","11:37","12:04","12:31","12:58","13:28","14:39","15:29","15:54","16:19","16:44","17:09","17:34","17:59","18:24","18:49","19:14","19:39","20:04","20:29","21:14","22:20"]},{"id":"675","name":"Galermo Catania Est","lat":37.53478509,"lon":15.05644656,"times":["06:20","07:21","08:29","08:56","09:23","09:50","10:17","10:44","11:11","11:38","12:05","12:32","12:59","13:29","14:40","15:30","15:55","16:20","16:45","17:10","17:35","18:00","18:25","18:50","19:15","19:40","20:05","20:30","21:15","22:21"]},{"id":"676","name":"Galermo Naselli Est","lat":37.53558746,"lon":15.05613023,"times":["06:21","07:21","08:29","08:56","09:23","09:50","10:17","10:44","11:11","11:38","12:05","12:32","12:59","13:29","14:40","15:30","15:55","16:20","16:45","17:10","17:35","18:00","18:25","18:50","19:15","19:40","20:05","20:30","21:15","22:21"]},{"id":"677","name":"Galermo Brescia","lat":37.53757946,"lon":15.05614304,"times":["06:21","07:22","08:30","08:57","09:24","09:51","10:18","10:45","11:12","11:39","12:06","12:33","13:00","13:30","14:41","15:31","15:56","16:21","16:46","17:11","17:36","18:01","18:26","18:51","19:16","19:41","20:06","20:31","21:16","22:22"]},{"id":"678","name":"Galermo Giacinti Est","lat":37.53902157,"lon":15.05626864,"times":["06:22","07:23","08:31","08:58","09:25","09:52","10:19","10:46","11:13","11:40","12:07","12:34","13:01","13:31","14:41","15:32","15:57","16:22","16:47","17:12","17:37","18:02","18:27","18:52","19:17","19:42","20:07","20:32","21:16","22:23"]},{"id":"679","name":"Galermo Lilibeo Est","lat":37.54285303,"lon":15.05483388,"times":["06:23","07:24","08:33","09:00","09:27","09:54","10:21","10:48","11:15","11:42","12:09","12:36","13:03","13:33","14:43","15:34","15:59","16:24","16:49","17:14","17:39","18:04","18:29","18:54","19:19","19:44","20:09","20:34","21:18","22:24"]},{"id":"680","name":"Battista Barriera","lat":37.54462035,"lon":15.05339751,"times":["06:24","07:25","08:34","09:01","09:28","09:55","10:22","10:49","11:16","11:43","12:10","12:37","13:04","13:34","14:44","15:35","16:00","16:25","16:50","17:15","17:40","18:05","18:30","18:55","19:20","19:45","20:10","20:35","21:19","22:25"]},{"id":"681","name":"Battista Dell'Alloro","lat":37.54672081,"lon":15.05275374,"times":["06:25","07:26","08:35","09:02","09:29","09:56","10:23","10:50","11:17","11:44","12:11","12:38","13:05","13:35","14:45","15:36","16:01","16:26","16:51","17:16","17:41","18:06","18:31","18:56","19:21","19:46","20:11","20:36","21:20","22:26"]},{"id":"682","name":"Battista Fasano","lat":37.54826236,"lon":15.05225671,"times":["06:25","07:26","08:36","09:03","09:30","09:57","10:24","10:51","11:18","11:45","12:12","12:39","13:06","13:36","14:46","15:37","16:02","16:27","16:52","17:17","17:42","18:07","18:32","18:57","19:22","19:47","20:12","20:37","21:21","22:26"]},{"id":"683","name":"Grande","lat":37.55054332,"lon":15.05104694,"times":["06:26","07:27","08:37","09:04","09:31","09:58","10:25","10:52","11:19","11:46","12:13","12:40","13:07","13:37","14:47","15:38","16:03","16:28","16:53","17:18","17:43","18:08","18:33","18:58","19:23","19:48","20:13","20:38","21:22","22:27"]},{"id":"684","name":"Chiesa Madre Mariani","lat":37.55180565,"lon":15.05006285,"times":["06:27","07:28","08:38","09:05","09:32","09:59","10:26","10:53","11:20","11:47","12:14","12:41","13:08","13:38","14:48","15:39","16:04","16:29","16:54","17:19","17:44","18:09","18:34","18:59","19:24","19:49","20:14","20:39","21:23","22:28"]},{"id":"685","name":"Clarenza","lat":37.55232983,"lon":15.04666678,"times":["06:28","07:29","08:40","09:07","09:34","10:01","10:28","10:55","11:22","11:49","12:16","12:43","13:10","13:40","14:49","15:40","16:05","16:30","16:55","17:20","17:45","18:10","18:35","19:00","19:25","19:50","20:15","20:40","21:24","22:29"]},{"id":"686","name":"Meli","lat":37.55308979,"lon":15.04459433,"times":["06:29","07:30","08:41","09:08","09:35","10:02","10:29","10:56","11:23","11:50","12:17","12:44","13:11","13:41","14:50","15:42","16:07","16:32","16:57","17:22","17:47","18:12","18:37","19:02","19:27","19:52","20:17","20:42","21:25","22:30"]}]},"1":{"feriale":[{"id":"686","name":"Meli","lat":37.55308979,"lon":15.04459433,"times":["05:10","06:05","06:29","06:55","07:20","07:46","08:09","08:32","08:41","08:55","09:08","09:18","09:35","09:41","10:02","10:04","10:27","10:29","10:50","10:56","11:13","11:23","11:36","11:50","11:59","12:17","12:22","12:44","12:45","13:08","13:11","13:31","13:41","13:54","14:15","14:40","14:59","15:20","15:40","16:08","16:36","17:04","17:22","17:32","18:00","18:12","18:28","18:37","18:56","19:02","19:24","19:27","19:52","20:17","20:20","20:42","20:48","21:16","21:20","21:42","22:10","22:30","22:35","23:35","00:40"]},{"id":"687","name":"Clarenza Sant'Andrea ","lat":37.55306197,"lon":15.04245555,"times":["05:10","06:05","06:29","06:56","07:21","07:47","08:10","08:33","08:42","08:56","09:09","09:19","09:36","09:42","10:03","10:05","10:28","10:30","10:51","10:57","11:14","11:24","11:37","11:51","12:00","12:18","12:23","12:45","12:46","13:09","13:11","13:32","13:41","13:55","14:16","14:41","15:00","15:20","15:41","16:09","16:37","17:05","17:22","17:33","18:01","18:12","18:29","18:37","18:57","19:02","19:25","19:27","19:52","19:53","20:17","20:21","20:42","20:49","21:16","21:21","21:42","22:10","22:30","22:35","23:35","00:40"]},{"id":"688","name":"Vigne Nuove Andromeda","lat":37.55206077,"lon":15.04310039,"times":["05:11","06:06","06:30","06:57","07:22","07:47","08:10","08:33","08:42","08:56","09:09","09:19","09:36","09:42","10:03","10:05","10:28","10:30","10:51","10:57","11:14","11:24","11:37","11:51","12:00","12:18","12:23","12:45","12:46","13:09","13:12","13:32","13:42","13:55","14:16","14:41","15:00","15:21","15:41","16:09","16:37","17:05","17:23","17:33","18:01","18:13","18:29","18:38","18:57","19:03","19:25","19:28","19:53","20:18","20:21","20:42","20:49","21:17","21:21","21:43","22:10","22:31","22:36","23:36","00:41"]},{"id":"1765","name":"Capricorno","lat":37.55076491,"lon":15.0420791,"times":["05:11","06:07","06:30","06:58","07:23","07:48","08:11","08:34","08:43","08:57","09:10","09:20","09:37","09:43","10:04","10:06","10:29","10:31","10:52","10:58","11:15","11:25","11:38","11:52","12:01","12:19","12:24","12:46","12:47","13:10","13:13","13:33","13:42","13:56","14:17","14:42","15:01","15:22","15:42","16:10","16:38","17:06","17:24","17:34","18:02","18:14","18:30","18:39","18:58","19:04","19:26","19:29","19:53","19:54","20:19","20:22","20:43","20:50","21:18","21:22","21:43","22:10","22:31","22:37","23:37","00:41"]},{"id":"1766","name":"Bello Flaminia","lat":37.54985239,"lon":15.04325761,"times":["05:12","06:07","06:31","06:59","07:24","07:49","08:12","08:35","08:44","08:58","09:11","09:21","09:38","09:44","10:05","10:07","10:30","10:32","10:53","10:59","11:16","11:26","11:39","11:53","12:02","12:20","12:25","12:46","12:48","13:11","13:13","13:34","13:43","13:57","14:18","14:43","15:02","15:22","15:43","16:11","16:39","17:07","17:24","17:35","18:03","18:14","18:31","18:39","18:59","19:04","19:27","19:29","19:54","19:55","20:19","20:23","20:43","20:51","21:18","21:23","21:44","22:11","22:32","22:37","23:37","00:42"]},{"id":"723","name":"Minzoni Bello","lat":37.54853556,"lon":15.04549837,"times":["05:13","06:09","06:32","07:00","07:25","07:51","08:14","08:37","08:45","09:00","09:12","09:23","09:39","09:46","10:06","10:09","10:32","10:33","10:55","11:00","11:18","11:27","11:41","11:54","12:04","12:21","12:27","12:48","12:50","13:13","13:14","13:36","13:44","13:59","14:19","14:45","15:03","15:23","15:44","16:12","16:40","17:08","17:25","17:36","18:04","18:15","18:32","18:40","19:00","19:05","19:28","19:30","19:55","19:56","20:20","20:24","20:44","20:52","21:19","21:24","21:45","22:11","22:33","22:39","23:39","00:42"]},{"id":"724","name":"Minzoni (1)","lat":37.54717418,"lon":15.04633527,"times":["05:14","06:09","06:33","07:01","07:26","07:52","08:15","08:38","08:46","09:01","09:13","09:24","09:40","09:47","10:07","10:10","10:33","10:34","10:56","11:01","11:19","11:28","11:42","11:55","12:05","12:22","12:28","12:48","12:51","13:14","13:15","13:37","13:44","13:59","14:20","14:46","15:04","15:24","15:45","16:13","16:41","17:09","17:26","17:37","18:05","18:16","18:33","18:41","19:01","19:06","19:29","19:31","19:55","19:57","20:21","20:25","20:44","20:53","21:20","21:25","21:45","22:12","22:34","22:39","23:39","00:43"]},{"id":"725","name":"Minzoni (2)","lat":37.54616394,"lon":15.04814592,"times":["05:14","06:10","06:33","07:02","07:27","07:53","08:16","08:39","08:47","09:02","09:14","09:25","09:41","09:48","10:08","10:11","10:34","10:35","10:57","11:02","11:20","11:29","11:43","11:56","12:06","12:23","12:29","12:49","12:52","13:15","13:16","13:38","13:45","14:00","14:21","14:47","15:04","15:25","15:46","16:14","16:42","17:10","17:27","17:38","18:06","18:17","18:34","18:42","19:02","19:07","19:30","19:32","19:56","19:58","20:22","20:26","20:44","20:54","21:21","21:26","21:46","22:12","22:34","22:40","23:40","00:43"]},{"id":"726","name":"Minzoni San Luca","lat":37.5459738,"lon":15.05019479,"times":["05:15","06:11","06:34","07:04","07:28","07:54","08:17","08:40","08:48","09:03","09:15","09:26","09:42","09:49","10:09","10:12","10:35","10:36","10:58","11:03","11:21","11:30","11:44","11:57","12:07","12:24","12:30","12:50","12:53","13:16","13:17","13:39","13:46","14:01","14:22","14:48","15:05","15:26","15:47","16:15","16:43","17:11","17:27","17:39","18:07","18:17","18:35","18:42","19:03","19:07","19:31","19:32","19:56","19:59","20:22","20:27","20:45","20:55","21:22","21:27","21:46","22:12","22:35","22:41","23:41","00:44"]},{"id":"727","name":"San Luca","lat":37.54472089,"lon":15.05022791,"times":["05:15","06:11","06:35","07:05","07:29","07:55","08:18","08:41","08:48","09:04","09:15","09:27","09:42","09:50","10:09","10:13","10:36","10:59","11:03","11:22","11:30","11:45","11:57","12:08","12:25","12:31","12:51","12:54","13:17","13:40","13:46","14:02","14:23","14:49","15:06","15:26","15:48","16:16","16:44","17:12","17:28","17:40","18:08","18:18","18:36","18:43","19:04","19:08","19:32","19:33","19:57","20:00","20:23","20:27","20:45","20:56","21:22","21:27","21:47","22:12","22:35","22:41","23:41","00:44"]},{"id":"1321","name":"Misericordia San Luca","lat":37.5441614,"lon":15.05174444,"times":["05:16","06:12","06:35","07:06","07:30","07:56","08:19","08:42","08:49","09:05","09:16","09:28","09:43","09:51","10:10","10:14","10:37","11:00","11:04","11:23","11:31","11:46","11:58","12:09","12:26","12:32","12:51","12:55","13:18","13:41","13:47","14:03","14:24","14:50","15:07","15:27","15:49","16:17","16:45","17:13","17:29","17:41","18:09","18:19","18:37","18:44","19:05","19:09","19:33","19:34","19:58","20:01","20:24","20:28","20:46","20:57","21:23","21:28","21:48","22:13","22:36","22:42","23:42","00:45"]},{"id":"728","name":"Misericordia Galermo","lat":37.54392643,"lon":15.05312533,"times":["05:17","06:13","06:36","07:07","07:31","07:56","08:19","08:42","08:50","09:05","09:17","09:28","09:44","09:51","10:11","10:14","10:37","10:38","11:00","11:05","11:23","11:32","11:46","11:59","12:09","12:27","12:32","12:52","12:55","13:18","13:19","13:41","13:47","14:04","14:25","14:50","15:07","15:28","15:49","16:17","16:45","17:13","17:29","17:41","18:09","18:19","18:37","18:44","19:05","19:09","19:33","19:34","19:58","20:01","20:24","20:29","20:46","20:57","21:24","21:29","21:48","22:13","22:37","22:43","23:43","00:45"]},{"id":"695","name":"Galermo Lilibeo Ovest","lat":37.54201461,"lon":15.05516154,"times":["05:18","06:14","06:37","07:08","07:33","07:58","08:21","08:44","08:51","09:07","09:18","09:30","09:45","09:53","10:12","10:16","10:39","11:02","11:06","11:25","11:33","11:48","12:00","12:11","12:28","12:34","12:53","12:57","13:20","13:43","13:48","14:05","14:26","14:52","15:09","15:29","15:51","16:19","16:47","17:15","17:30","17:43","18:11","18:20","18:39","18:45","19:07","19:10","19:35","19:59","20:03","20:25","20:30","20:46","20:59","21:25","21:30","21:49","22:14","22:38","22:44","23:44","00:46"]},{"id":"696","name":"Galermo Giacinti Ovest","lat":37.53925598,"lon":15.05616694,"times":["05:19","06:16","06:38","07:11","07:35","08:00","08:23","08:46","08:53","09:09","09:20","09:32","09:47","09:55","10:14","10:18","10:41","11:04","11:08","11:27","11:35","11:50","12:02","12:13","12:30","12:36","12:55","12:59","13:21","13:22","13:45","13:50","14:07","14:28","14:54","15:10","15:30","15:53","16:21","16:49","17:17","17:32","17:45","18:13","18:22","18:41","18:47","19:09","19:12","19:37","20:00","20:05","20:27","20:32","20:47","21:01","21:26","21:32","21:50","22:14","22:39","22:46","23:46","00:47"]},{"id":"697","name":"Galermo Zagara","lat":37.5367413,"lon":15.05591604,"times":["05:20","06:17","06:39","07:12","07:37","08:01","08:24","08:47","08:54","09:10","09:21","09:33","09:48","09:56","10:15","10:19","10:42","11:05","11:09","11:28","11:36","11:51","12:03","12:14","12:31","12:37","12:56","13:00","13:22","13:23","13:46","13:51","14:09","14:29","14:55","15:12","15:31","15:54","16:22","16:50","17:18","17:33","17:46","18:14","18:23","18:42","18:48","19:10","19:13","19:38","20:01","20:06","20:28","20:33","20:48","21:02","21:27","21:33","21:51","22:15","22:40","22:47","23:47","00:48"]},{"id":"698","name":"Galermo Naselli Ovest","lat":37.53538013,"lon":15.05616403,"times":["05:20","06:17","06:40","07:13","07:37","08:02","08:25","08:48","08:55","09:11","09:22","09:34","09:49","09:57","10:16","10:20","10:43","11:06","11:10","11:29","11:37","11:52","12:04","12:15","12:32","12:38","12:57","13:01","13:23","13:24","13:47","13:51","14:10","14:30","14:56","15:12","15:32","15:55","16:23","16:51","17:19","17:34","17:47","18:15","18:24","18:43","18:49","19:11","19:14","19:39","20:02","20:07","20:29","20:34","20:48","21:03","21:28","21:34","21:52","22:15","22:40","22:47","23:47","00:49"]},{"id":"699","name":"Galermo Catania Ovest","lat":37.53446957,"lon":15.05653687,"times":["05:21","06:18","06:40","07:14","07:38","08:03","08:26","08:49","08:56","09:12","09:23","09:35","09:50","09:58","10:17","10:21","10:44","11:07","11:11","11:30","11:38","11:53","12:05","12:16","12:33","12:39","12:57","13:02","13:23","13:25","13:48","13:51","14:10","14:31","14:57","15:13","15:32","15:55","16:23","16:51","17:19","17:34","17:47","18:15","18:24","18:43","18:49","19:11","19:14","19:39","20:02","20:07","20:29","20:35","20:48","21:03","21:28","21:35","21:52","22:15","22:41","22:48","23:48","00:49"]},{"id":"601","name":"Galermo Vittorini Ovest","lat":37.53300865,"lon":15.05801848,"times":["05:22","06:19","06:41","07:15","07:39","08:04","08:27","08:50","08:57","09:13","09:24","09:36","09:51","09:59","10:18","10:22","10:45","11:08","11:12","11:31","11:39","11:54","12:06","12:17","12:34","12:40","12:58","13:03","13:24","13:26","13:49","13:52","14:11","14:32","14:58","15:14","15:33","15:56","16:24","16:52","17:20","17:35","17:48","18:16","18:25","18:44","18:50","19:12","19:15","19:40","20:03","20:08","20:30","20:36","20:49","21:04","21:29","21:36","21:53","22:16","22:42","22:49","23:49","00:50"]},{"id":"700","name":"Galermo Montana","lat":37.53103375,"lon":15.0598505,"times":["05:22","06:20","06:42","07:17","07:41","08:05","08:28","08:51","08:58","09:14","09:25","09:37","09:52","10:00","10:19","10:23","10:46","11:09","11:13","11:32","11:40","11:55","12:07","12:18","12:35","12:41","12:59","13:04","13:25","13:27","13:50","13:53","14:13","14:33","14:59","15:15","15:34","15:58","16:26","16:54","17:22","17:36","17:50","18:18","18:26","18:46","18:51","19:14","19:16","19:41","19:42","20:04","20:10","20:31","20:37","20:49","21:06","21:30","21:37","21:54","22:16","22:42","22:50","23:50","00:50"]},{"id":"614","name":"Galermo Silvestri","lat":37.52978905,"lon":15.06144534,"times":["05:23","06:20","06:43","07:18","07:42","08:06","08:29","08:52","08:59","09:15","09:26","09:38","09:53","10:01","10:20","10:24","10:47","11:10","11:14","11:33","11:41","11:56","12:08","12:19","12:36","12:42","13:00","13:05","13:26","13:28","13:51","13:54","14:14","14:34","15:00","15:16","15:35","15:59","16:27","16:55","17:23","17:37","17:51","18:19","18:27","18:47","18:52","19:15","19:17","19:42","19:43","20:04","20:11","20:32","20:38","20:50","21:07","21:31","21:38","21:54","22:16","22:43","22:50","23:50","00:51"]},{"id":"615","name":"Galermo Gualandi Ovest","lat":37.52880611,"lon":15.06231601,"times":["05:24","06:21","06:43","07:18","07:43","08:07","08:30","08:53","08:59","09:16","09:26","09:39","09:53","10:02","10:20","10:25","10:47","10:48","11:11","11:14","11:34","11:41","11:57","12:08","12:20","12:37","12:43","13:00","13:06","13:26","13:29","13:52","13:54","14:14","14:35","15:01","15:16","15:35","15:59","16:27","16:55","17:23","17:37","17:51","18:19","18:27","18:47","18:52","19:15","19:17","19:42","19:43","20:05","20:11","20:32","20:38","20:50","21:07","21:31","21:38","21:55","22:17","22:44","22:51","23:51","00:51"]},{"id":"701","name":"Galermo Tirreno Ovest","lat":37.52766059,"lon":15.06379767,"times":["05:24","06:22","06:44","07:20","07:44","08:08","08:31","08:54","09:00","09:17","09:27","09:40","09:54","10:03","10:21","10:26","10:48","10:49","11:12","11:15","11:35","11:42","11:58","12:09","12:21","12:38","12:44","13:01","13:07","13:27","13:30","13:53","13:55","14:15","14:36","15:02","15:17","15:36","16:00","16:28","16:56","17:24","17:38","17:52","18:20","18:28","18:48","18:53","19:16","19:18","19:43","19:44","20:05","20:12","20:33","20:39","20:50","21:08","21:32","21:39","21:55","22:17","22:44","22:52","23:52","00:52"]},{"id":"702","name":"Galermo (2)","lat":37.52699302,"lon":15.06522241,"times":["05:25","06:22","06:44","07:21","07:44","08:09","08:32","08:55","09:01","09:18","09:28","09:41","09:55","10:04","10:22","10:27","10:49","10:50","11:13","11:16","11:36","11:43","11:59","12:10","12:22","12:38","12:45","13:02","13:08","13:28","13:31","13:54","13:55","14:16","14:36","15:03","15:18","15:37","16:01","16:29","16:57","17:25","17:38","17:53","18:21","18:28","18:49","18:53","19:17","19:18","19:43","19:45","20:06","20:13","20:33","20:40","20:51","21:09","21:33","21:40","21:56","22:17","22:45","22:52","23:52","00:52"]},{"id":"703","name":"Galermo Mantova Ovest","lat":37.52421614,"lon":15.06606948,"times":["05:26","06:24","06:46","07:23","07:47","08:11","08:34","08:57","09:03","09:20","09:30","09:43","09:57","10:06","10:24","10:29","10:51","10:52","11:15","11:18","11:38","11:45","12:01","12:12","12:24","12:40","12:47","13:03","13:10","13:29","13:33","13:56","13:57","14:18","14:38","15:05","15:20","15:38","16:03","16:31","16:59","17:27","17:40","17:55","18:23","18:30","18:51","18:55","19:19","19:20","19:45","19:47","20:07","20:15","20:35","20:42","20:51","21:11","21:34","21:42","21:57","22:18","22:46","22:54","23:54","00:53"]},{"id":"589","name":"Usodimare Galermo","lat":37.52244991,"lon":15.06526442,"times":["05:27","06:25","06:47","07:24","07:48","08:12","08:35","08:58","09:04","09:21","09:31","09:44","09:58","10:07","10:25","10:30","10:52","10:53","11:16","11:19","11:39","11:46","12:02","12:13","12:25","12:42","12:48","13:04","13:11","13:30","13:34","13:57","14:19","14:40","15:06","15:21","15:39","16:04","16:32","17:00","17:28","17:41","17:56","18:24","18:31","18:52","18:56","19:20","19:21","19:46","19:48","20:08","20:16","20:36","20:43","20:52","21:12","21:35","21:43","21:58","22:18","22:47","22:55","23:55","00:54"]},{"id":"639","name":"San Nullo La Lumia","lat":37.52119773,"lon":15.06396191,"times":["05:28","06:27","06:48","07:27","07:50","08:14","08:37","09:00","09:06","09:23","09:33","09:46","10:00","10:09","10:27","10:32","10:54","10:55","11:18","11:21","11:41","11:48","12:04","12:15","12:27","12:44","12:50","13:06","13:13","13:32","13:36","13:59","14:21","14:42","15:08","15:22","15:41","16:06","16:34","17:02","17:30","17:42","17:58","18:26","18:32","18:54","18:57","19:22","19:47","19:50","20:09","20:18","20:37","20:45","20:53","21:14","21:37","21:45","21:59","22:19","22:48","22:57","23:57","00:55"]},{"id":"641","name":"Casagrandi Galermo","lat":37.51983561,"lon":15.06589587,"times":["05:29","06:28","06:49","07:28","07:52","08:16","08:39","09:02","09:07","09:25","09:34","09:48","10:01","10:11","10:28","10:34","10:55","10:57","11:20","11:22","11:43","11:49","12:06","12:16","12:29","12:45","12:52","13:07","13:15","13:33","13:38","14:00","14:01","14:23","14:43","15:10","15:24","15:42","16:07","16:35","17:03","17:31","17:43","17:59","18:27","18:33","18:55","18:58","19:23","19:48","19:51","20:10","20:19","20:38","20:46","20:53","21:15","21:38","21:46","22:00","22:19","22:49","22:58","23:58","00:56"]},{"id":"704","name":"Casagrandi Cibele Ovest","lat":37.51780779,"lon":15.06545276,"times":["05:30","06:29","06:50","07:30","07:53","08:17","08:40","09:03","09:08","09:26","09:35","09:49","10:02","10:12","10:29","10:35","10:56","10:58","11:21","11:23","11:44","11:50","12:07","12:17","12:30","12:46","12:53","13:08","13:16","13:34","13:39","14:01","14:02","14:24","14:44","15:11","15:25","15:43","16:09","16:37","17:05","17:33","17:44","18:01","18:29","18:34","18:57","18:59","19:24","19:25","19:49","19:53","20:11","20:21","20:39","20:47","20:54","21:17","21:39","21:47","22:01","22:20","22:50","22:59","23:59","00:57"]},{"id":"341","name":"Cibele Bonadies","lat":37.51795021,"lon":15.06862141,"times":["05:31","06:30","06:51","07:32","07:55","08:19","08:42","09:05","09:10","09:28","09:37","09:51","10:04","10:14","10:31","10:37","10:58","11:00","11:23","11:25","11:46","11:52","12:09","12:19","12:32","12:48","12:55","13:10","13:18","13:35","13:41","14:02","14:04","14:25","14:46","15:13","15:26","15:44","16:10","16:38","17:06","17:34","17:45","18:02","18:30","18:35","18:58","19:00","19:25","19:26","19:50","19:54","20:12","20:22","20:40","20:49","20:55","21:18","21:40","21:49","22:02","22:20","22:51","23:00","00:00","00:58"]},{"id":"342","name":"Cantone Spedini ","lat":37.51543467,"lon":15.06987517,"times":["05:32","06:31","06:52","07:33","07:57","08:21","08:44","09:07","09:11","09:30","09:38","09:53","10:05","10:16","10:32","10:39","10:59","11:02","11:25","11:26","11:48","11:53","12:11","12:20","12:34","12:49","12:57","13:11","13:20","13:36","13:43","14:03","14:06","14:27","14:47","15:15","15:27","15:45","16:11","16:39","17:07","17:35","17:47","18:03","18:31","18:37","18:59","19:02","19:27","19:52","19:55","20:13","20:23","20:42","20:50","20:55","21:19","21:41","21:50","22:03","22:21","22:52","23:01","00:01","00:59"]},{"id":"343","name":"Fava Aporti","lat":37.51399176,"lon":15.07108459,"times":["05:33","06:32","06:53","07:35","07:58","08:22","08:45","09:08","09:12","09:31","09:39","09:54","10:06","10:17","10:33","10:40","11:00","11:03","11:26","11:27","11:49","11:54","12:12","12:21","12:35","12:50","12:58","13:12","13:21","13:37","13:44","14:03","14:07","14:28","14:48","15:16","15:28","15:46","16:13","16:41","17:09","17:37","17:47","18:05","18:33","18:37","19:01","19:02","19:27","19:29","19:52","19:57","20:14","20:25","20:42","20:51","20:56","21:21","21:42","21:51","22:04","22:21","22:53","23:02","00:02","00:59"]},{"id":"705","name":"Fava Teatro Stabile","lat":37.5126393,"lon":15.07177355,"times":["05:34","06:33","06:53","07:36","07:59","08:23","08:46","09:09","09:13","09:32","09:40","09:55","10:07","10:18","10:34","10:41","11:01","11:04","11:27","11:28","11:50","11:55","12:13","12:22","12:36","12:51","12:59","13:12","13:22","13:38","13:45","14:04","14:08","14:29","14:49","15:17","15:29","15:47","16:13","16:41","17:09","17:37","17:48","18:05","18:33","18:38","19:01","19:03","19:28","19:29","19:53","19:57","20:14","20:25","20:43","20:52","20:56","21:21","21:43","21:52","22:04","22:22","22:54","23:03","00:03","01:00"]},{"id":"706","name":"Franchetti Lavaggi","lat":37.51270986,"lon":15.07427432,"times":["05:34","06:34","06:54","07:37","08:00","08:24","08:47","09:10","09:14","09:33","09:41","09:56","10:08","10:19","10:35","10:42","11:02","11:05","11:28","11:29","11:51","11:56","12:14","12:23","12:37","12:52","13:00","13:13","13:23","13:39","13:46","14:05","14:09","14:30","14:50","15:18","15:30","15:48","16:14","16:42","17:10","17:38","17:49","18:06","18:34","18:39","19:02","19:04","19:29","19:30","19:54","19:58","20:15","20:26","20:44","20:53","20:56","21:22","21:44","21:53","22:05","22:22","22:54","23:04","00:04","01:00"]},{"id":"707","name":"Filzi Rapisardi","lat":37.51128531,"lon":15.07490656,"times":["05:35","06:34","06:55","07:38","08:01","08:25","08:48","09:11","09:15","09:34","09:42","09:57","10:09","10:20","10:36","10:43","11:03","11:06","11:29","11:30","11:52","11:57","12:15","12:24","12:38","12:53","13:01","13:14","13:24","13:40","13:47","14:05","14:10","14:31","14:51","15:19","15:31","15:49","16:15","16:43","17:11","17:39","17:50","18:07","18:35","18:40","19:03","19:05","19:30","19:31","19:55","19:59","20:15","20:27","20:45","20:54","20:57","21:23","21:45","21:54","22:05","22:22","22:55","23:04","00:04","01:01"]},{"id":"708","name":"Filzi Montessori","lat":37.5092479,"lon":15.07541369,"times":["05:36","06:35","06:56","07:39","08:03","08:26","08:49","09:12","09:16","09:35","09:43","09:58","10:10","10:21","10:37","10:44","11:04","11:07","11:30","11:31","11:53","11:58","12:16","12:25","12:39","12:54","13:02","13:15","13:25","13:40","13:48","14:06","14:11","14:32","14:52","15:20","15:32","15:49","16:16","16:44","17:12","17:40","17:51","18:08","18:36","18:41","19:04","19:06","19:31","19:32","19:56","20:00","20:16","20:28","20:46","20:55","20:57","21:24","21:45","21:55","22:06","22:23","22:56","23:05","00:05","01:02"]},{"id":"709","name":"Roccaromana Lago di Nicito","lat":37.50866874,"lon":15.07892069,"times":["05:37","06:37","06:57","07:42","08:05","08:28","08:51","09:14","09:17","09:37","09:44","10:00","10:11","10:23","10:38","10:46","11:05","11:09","11:32","11:55","11:59","12:18","12:26","12:41","12:56","13:04","13:17","13:27","13:42","13:50","14:07","14:13","14:34","14:54","15:22","15:34","15:51","16:18","16:46","17:14","17:42","17:52","18:10","18:38","18:42","19:06","19:07","19:32","19:34","19:57","20:02","20:17","20:30","20:47","20:56","20:58","21:26","21:47","21:56","22:07","22:23","22:57","23:07","00:07","01:03"]},{"id":"710","name":"Roccaromana Santa Maddalena","lat":37.508847,"lon":15.08187405,"times":["05:38","06:38","06:58","07:43","08:06","08:29","08:52","09:15","09:19","09:38","09:46","10:01","10:13","10:24","10:40","10:47","11:07","11:10","11:33","11:34","11:56","12:01","12:19","12:28","12:42","12:58","13:05","13:18","13:28","13:43","13:51","14:08","14:14","14:35","14:56","15:23","15:35","15:52","16:20","16:48","17:16","17:44","17:53","18:12","18:40","18:43","19:08","19:33","19:36","19:58","20:04","20:18","20:32","20:48","20:58","20:59","21:28","21:48","21:58","22:08","22:24","22:58","23:08","00:08","01:03"]},{"id":"711","name":"Santa Maddalena","lat":37.50813423,"lon":15.08286897,"times":["05:39","06:38","06:59","07:44","08:07","08:30","08:53","09:16","09:19","09:39","09:46","10:02","10:13","10:25","10:40","10:48","11:07","11:11","11:34","11:57","12:01","12:20","12:28","12:43","12:58","13:06","13:18","13:29","13:44","13:52","14:09","14:15","14:36","14:56","15:24","15:35","15:53","16:20","16:48","17:16","17:44","17:54","18:12","18:40","18:44","19:08","19:09","19:34","19:36","19:59","20:04","20:19","20:32","20:49","20:58","20:59","21:28","21:49","21:58","22:09","22:24","22:59","23:08","00:08","01:04"]},{"id":"307","name":"Terminal Borsa","lat":37.50769098,"lon":15.08508615,"times":["05:40","06:40","07:00","07:46","08:09","08:32","08:55","09:18","09:21","09:41","09:48","10:04","10:15","10:27","10:42","10:50","11:09","11:13","11:36","11:59","12:03","12:22","12:30","12:45","13:00","13:08","13:20","13:31","13:45","13:54","14:10","14:17","14:38","14:58","15:26","15:37","15:54","16:22","16:50","17:18","17:46","17:55","18:14","18:42","18:45","19:10","19:35","19:38","20:00","20:06","20:20","20:34","20:50","21:00","21:30","21:50","22:00","22:10","22:25","23:00","23:10","00:10","01:05"]}],"sabato":[{"id":"686","name":"Meli","lat":37.55308979,"lon":15.04459433,"times":["05:10","06:05","06:29","06:55","07:20","07:46","08:09","08:32","08:55","09:18","09:41","10:04","10:27","10:50","11:13","11:36","11:59","12:22","12:45","13:08","13:31","13:54","14:15","14:40","14:59","15:20","15:40","16:08","16:36","17:04","17:32","18:00","18:28","18:56","19:24","19:52","20:20","20:48","21:16","21:42","22:10","22:35","23:35","00:40"]},{"id":"687","name":"Clarenza Sant'Andrea ","lat":37.55306197,"lon":15.04245555,"times":["05:10","06:05","06:29","06:56","07:21","07:47","08:10","08:33","08:56","09:19","09:42","10:05","10:28","10:51","11:14","11:37","12:00","12:23","12:46","13:09","13:32","13:55","14:16","14:41","15:00","15:20","15:41","16:09","16:37","17:05","17:33","18:01","18:29","18:57","19:25","19:53","20:21","20:49","21:16","21:42","22:10","22:35","23:35","00:40"]},{"id":"688","name":"Vigne Nuove Andromeda","lat":37.55206077,"lon":15.04310039,"times":["05:11","06:06","06:30","06:57","07:22","07:47","08:10","08:33","08:56","09:19","09:42","10:05","10:28","10:51","11:14","11:37","12:00","12:23","12:46","13:09","13:32","13:55","14:16","14:41","15:00","15:21","15:41","16:09","16:37","17:05","17:33","18:01","18:29","18:57","19:25","19:53","20:21","20:49","21:17","21:43","22:10","22:36","23:36","00:41"]},{"id":"1765","name":"Capricorno","lat":37.55076491,"lon":15.0420791,"times":["05:11","06:07","06:30","06:58","07:23","07:48","08:11","08:34","08:57","09:20","09:43","10:06","10:29","10:52","11:15","11:38","12:01","12:24","12:47","13:10","13:33","13:56","14:17","14:42","15:01","15:22","15:42","16:10","16:38","17:06","17:34","18:02","18:30","18:58","19:26","19:54","20:22","20:50","21:18","21:43","22:10","22:37","23:37","00:41"]},{"id":"1766","name":"Bello Flaminia","lat":37.54985239,"lon":15.04325761,"times":["05:12","06:07","06:31","06:59","07:24","07:49","08:12","08:35","08:58","09:21","09:44","10:07","10:30","10:53","11:16","11:39","12:02","12:25","12:48","13:11","13:34","13:57","14:18","14:43","15:02","15:22","15:43","16:11","16:39","17:07","17:35","18:03","18:31","18:59","19:27","19:55","20:23","20:51","21:18","21:44","22:11","22:37","23:37","00:42"]},{"id":"723","name":"Minzoni Bello","lat":37.54853556,"lon":15.04549837,"times":["05:13","06:09","06:32","07:00","07:25","07:51","08:14","08:37","09:00","09:23","09:46","10:09","10:32","10:55","11:18","11:41","12:04","12:27","12:50","13:13","13:36","13:59","14:19","14:45","15:03","15:23","15:44","16:12","16:40","17:08","17:36","18:04","18:32","19:00","19:28","19:56","20:24","20:52","21:19","21:45","22:11","22:39","23:39","00:42"]},{"id":"724","name":"Minzoni (1)","lat":37.54717418,"lon":15.04633527,"times":["05:14","06:09","06:33","07:01","07:26","07:52","08:15","08:38","09:01","09:24","09:47","10:10","10:33","10:56","11:19","11:42","12:05","12:28","12:51","13:14","13:37","13:59","14:20","14:46","15:04","15:24","15:45","16:13","16:41","17:09","17:37","18:05","18:33","19:01","19:29","19:57","20:25","20:53","21:20","21:45","22:12","22:39","23:39","00:43"]},{"id":"725","name":"Minzoni (2)","lat":37.54616394,"lon":15.04814592,"times":["05:14","06:10","06:33","07:02","07:27","07:53","08:16","08:39","09:02","09:25","09:48","10:11","10:34","10:57","11:20","11:43","12:06","12:29","12:52","13:15","13:38","14:00","14:21","14:47","15:04","15:25","15:46","16:14","16:42","17:10","17:38","18:06","18:34","19:02","19:30","19:58","20:26","20:54","21:21","21:46","22:12","22:40","23:40","00:43"]},{"id":"726","name":"Minzoni San Luca","lat":37.5459738,"lon":15.05019479,"times":["05:15","06:11","06:34","07:04","07:28","07:54","08:17","08:40","09:03","09:26","09:49","10:12","10:35","10:58","11:21","11:44","12:07","12:30","12:53","13:16","13:39","14:01","14:22","14:48","15:05","15:26","15:47","16:15","16:43","17:11","17:39","18:07","18:35","19:03","19:31","19:59","20:27","20:55","21:22","21:46","22:12","22:41","23:41","00:44"]},{"id":"727","name":"San Luca","lat":37.54472089,"lon":15.05022791,"times":["05:15","06:11","06:35","07:05","07:29","07:55","08:18","08:41","09:04","09:27","09:50","10:13","10:36","10:59","11:22","11:45","12:08","12:31","12:54","13:17","13:40","14:02","14:23","14:49","15:06","15:26","15:48","16:16","16:44","17:12","17:40","18:08","18:36","19:04","19:32","20:00","20:27","20:56","21:22","21:47","22:12","22:41","23:41","00:44"]},{"id":"1321","name":"Misericordia San Luca","lat":37.5441614,"lon":15.05174444,"times":["05:16","06:12","06:35","07:06","07:30","07:56","08:19","08:42","09:05","09:28","09:51","10:14","10:37","11:00","11:23","11:46","12:09","12:32","12:55","13:18","13:41","14:03","14:24","14:50","15:07","15:27","15:49","16:17","16:45","17:13","17:41","18:09","18:37","19:05","19:33","20:01","20:28","20:57","21:23","21:48","22:13","22:42","23:42","00:45"]},{"id":"728","name":"Misericordia Galermo","lat":37.54392643,"lon":15.05312533,"times":["05:17","06:13","06:36","07:07","07:31","07:56","08:19","08:42","09:05","09:28","09:51","10:14","10:37","11:00","11:23","11:46","12:09","12:32","12:55","13:18","13:41","14:04","14:25","14:50","15:07","15:28","15:49","16:17","16:45","17:13","17:41","18:09","18:37","19:05","19:33","20:01","20:29","20:57","21:24","21:48","22:13","22:43","23:43","00:45"]},{"id":"695","name":"Galermo Lilibeo Ovest","lat":37.54201461,"lon":15.05516154,"times":["05:18","06:14","06:37","07:08","07:33","07:58","08:21","08:44","09:07","09:30","09:53","10:16","10:39","11:02","11:25","11:48","12:11","12:34","12:57","13:20","13:43","14:05","14:26","14:52","15:09","15:29","15:51","16:19","16:47","17:15","17:43","18:11","18:39","19:07","19:35","20:03","20:30","20:59","21:25","21:49","22:14","22:44","23:44","00:46"]},{"id":"696","name":"Galermo Giacinti Ovest","lat":37.53925598,"lon":15.05616694,"times":["05:19","06:16","06:38","07:11","07:35","08:00","08:23","08:46","09:09","09:32","09:55","10:18","10:41","11:04","11:27","11:50","12:13","12:36","12:59","13:22","13:45","14:07","14:28","14:54","15:10","15:30","15:53","16:21","16:49","17:17","17:45","18:13","18:41","19:09","19:37","20:05","20:32","21:01","21:26","21:50","22:14","22:46","23:46","00:47"]},{"id":"697","name":"Galermo Zagara","lat":37.5367413,"lon":15.05591604,"times":["05:20","06:17","06:39","07:12","07:37","08:01","08:24","08:47","09:10","09:33","09:56","10:19","10:42","11:05","11:28","11:51","12:14","12:37","13:00","13:23","13:46","14:09","14:29","14:55","15:12","15:31","15:54","16:22","16:50","17:18","17:46","18:14","18:42","19:10","19:38","20:06","20:33","21:02","21:27","21:51","22:15","22:47","23:47","00:48"]},{"id":"698","name":"Galermo Naselli Ovest","lat":37.53538013,"lon":15.05616403,"times":["05:20","06:17","06:40","07:13","07:37","08:02","08:25","08:48","09:11","09:34","09:57","10:20","10:43","11:06","11:29","11:52","12:15","12:38","13:01","13:24","13:47","14:10","14:30","14:56","15:12","15:32","15:55","16:23","16:51","17:19","17:47","18:15","18:43","19:11","19:39","20:07","20:34","21:03","21:28","21:52","22:15","22:47","23:47","00:49"]},{"id":"699","name":"Galermo Catania Ovest","lat":37.53446957,"lon":15.05653687,"times":["05:21","06:18","06:40","07:14","07:38","08:03","08:26","08:49","09:12","09:35","09:58","10:21","10:44","11:07","11:30","11:53","12:16","12:39","13:02","13:25","13:48","14:10","14:31","14:57","15:13","15:32","15:55","16:23","16:51","17:19","17:47","18:15","18:43","19:11","19:39","20:07","20:35","21:03","21:28","21:52","22:15","22:48","23:48","00:49"]},{"id":"601","name":"Galermo Vittorini Ovest","lat":37.53300865,"lon":15.05801848,"times":["05:22","06:19","06:41","07:15","07:39","08:04","08:27","08:50","09:13","09:36","09:59","10:22","10:45","11:08","11:31","11:54","12:17","12:40","13:03","13:26","13:49","14:11","14:32","14:58","15:14","15:33","15:56","16:24","16:52","17:20","17:48","18:16","18:44","19:12","19:40","20:08","20:36","21:04","21:29","21:53","22:16","22:49","23:49","00:50"]},{"id":"700","name":"Galermo Montana","lat":37.53103375,"lon":15.0598505,"times":["05:22","06:20","06:42","07:17","07:41","08:05","08:28","08:51","09:14","09:37","10:00","10:23","10:46","11:09","11:32","11:55","12:18","12:41","13:04","13:27","13:50","14:13","14:33","14:59","15:15","15:34","15:58","16:26","16:54","17:22","17:50","18:18","18:46","19:14","19:42","20:10","20:37","21:06","21:30","21:54","22:16","22:50","23:50","00:50"]},{"id":"614","name":"Galermo Silvestri","lat":37.52978905,"lon":15.06144534,"times":["05:23","06:20","06:43","07:18","07:42","08:06","08:29","08:52","09:15","09:38","10:01","10:24","10:47","11:10","11:33","11:56","12:19","12:42","13:05","13:28","13:51","14:14","14:34","15:00","15:16","15:35","15:59","16:27","16:55","17:23","17:51","18:19","18:47","19:15","19:43","20:11","20:38","21:07","21:31","21:54","22:16","22:50","23:50","00:51"]},{"id":"615","name":"Galermo Gualandi Ovest","lat":37.52880611,"lon":15.06231601,"times":["05:24","06:21","06:43","07:18","07:43","08:07","08:30","08:53","09:16","09:39","10:02","10:25","10:48","11:11","11:34","11:57","12:20","12:43","13:06","13:29","13:52","14:14","14:35","15:01","15:16","15:35","15:59","16:27","16:55","17:23","17:51","18:19","18:47","19:15","19:43","20:11","20:38","21:07","21:31","21:55","22:17","22:51","23:51","00:51"]},{"id":"701","name":"Galermo Tirreno Ovest","lat":37.52766059,"lon":15.06379767,"times":["05:24","06:22","06:44","07:20","07:44","08:08","08:31","08:54","09:17","09:40","10:03","10:26","10:49","11:12","11:35","11:58","12:21","12:44","13:07","13:30","13:53","14:15","14:36","15:02","15:17","15:36","16:00","16:28","16:56","17:24","17:52","18:20","18:48","19:16","19:44","20:12","20:39","21:08","21:32","21:55","22:17","22:52","23:52","00:52"]},{"id":"702","name":"Galermo (2)","lat":37.52699302,"lon":15.06522241,"times":["05:25","06:22","06:44","07:21","07:44","08:09","08:32","08:55","09:18","09:41","10:04","10:27","10:50","11:13","11:36","11:59","12:22","12:45","13:08","13:31","13:54","14:16","14:36","15:03","15:18","15:37","16:01","16:29","16:57","17:25","17:53","18:21","18:49","19:17","19:45","20:13","20:40","21:09","21:33","21:56","22:17","22:52","23:52","00:52"]},{"id":"703","name":"Galermo Mantova Ovest","lat":37.52421614,"lon":15.06606948,"times":["05:26","06:24","06:46","07:23","07:47","08:11","08:34","08:57","09:20","09:43","10:06","10:29","10:52","11:15","11:38","12:01","12:24","12:47","13:10","13:33","13:56","14:18","14:38","15:05","15:20","15:38","16:03","16:31","16:59","17:27","17:55","18:23","18:51","19:19","19:47","20:15","20:42","21:11","21:34","21:57","22:18","22:54","23:54","00:53"]},{"id":"589","name":"Usodimare Galermo","lat":37.52244991,"lon":15.06526442,"times":["05:27","06:25","06:47","07:24","07:48","08:12","08:35","08:58","09:21","09:44","10:07","10:30","10:53","11:16","11:39","12:02","12:25","12:48","13:11","13:34","13:57","14:19","14:40","15:06","15:21","15:39","16:04","16:32","17:00","17:28","17:56","18:24","18:52","19:20","19:48","20:16","20:43","21:12","21:35","21:58","22:18","22:55","23:55","00:54"]},{"id":"639","name":"San Nullo La Lumia","lat":37.52119773,"lon":15.06396191,"times":["05:28","06:27","06:48","07:27","07:50","08:14","08:37","09:00","09:23","09:46","10:09","10:32","10:55","11:18","11:41","12:04","12:27","12:50","13:13","13:36","13:59","14:21","14:42","15:08","15:22","15:41","16:06","16:34","17:02","17:30","17:58","18:26","18:54","19:22","19:50","20:18","20:45","21:14","21:37","21:59","22:19","22:57","23:57","00:55"]},{"id":"641","name":"Casagrandi Galermo","lat":37.51983561,"lon":15.06589587,"times":["05:29","06:28","06:49","07:28","07:52","08:16","08:39","09:02","09:25","09:48","10:11","10:34","10:57","11:20","11:43","12:06","12:29","12:52","13:15","13:38","14:01","14:23","14:43","15:10","15:24","15:42","16:07","16:35","17:03","17:31","17:59","18:27","18:55","19:23","19:51","20:19","20:46","21:15","21:38","22:00","22:19","22:58","23:58","00:56"]},{"id":"704","name":"Casagrandi Cibele Ovest","lat":37.51780779,"lon":15.06545276,"times":["05:30","06:29","06:50","07:30","07:53","08:17","08:40","09:03","09:26","09:49","10:12","10:35","10:58","11:21","11:44","12:07","12:30","12:53","13:16","13:39","14:02","14:24","14:44","15:11","15:25","15:43","16:09","16:37","17:05","17:33","18:01","18:29","18:57","19:25","19:53","20:21","20:47","21:17","21:39","22:01","22:20","22:59","23:59","00:57"]},{"id":"341","name":"Cibele Bonadies","lat":37.51795021,"lon":15.06862141,"times":["05:31","06:30","06:51","07:32","07:55","08:19","08:42","09:05","09:28","09:51","10:14","10:37","11:00","11:23","11:46","12:09","12:32","12:55","13:18","13:41","14:04","14:25","14:46","15:13","15:26","15:44","16:10","16:38","17:06","17:34","18:02","18:30","18:58","19:26","19:54","20:22","20:49","21:18","21:40","22:02","22:20","23:00","00:00","00:58"]},{"id":"342","name":"Cantone Spedini ","lat":37.51543467,"lon":15.06987517,"times":["05:32","06:31","06:52","07:33","07:57","08:21","08:44","09:07","09:30","09:53","10:16","10:39","11:02","11:25","11:48","12:11","12:34","12:57","13:20","13:43","14:06","14:27","14:47","15:15","15:27","15:45","16:11","16:39","17:07","17:35","18:03","18:31","18:59","19:27","19:55","20:23","20:50","21:19","21:41","22:03","22:21","23:01","00:01","00:59"]},{"id":"343","name":"Fava Aporti","lat":37.51399176,"lon":15.07108459,"times":["05:33","06:32","06:53","07:35","07:58","08:22","08:45","09:08","09:31","09:54","10:17","10:40","11:03","11:26","11:49","12:12","12:35","12:58","13:21","13:44","14:07","14:28","14:48","15:16","15:28","15:46","16:13","16:41","17:09","17:37","18:05","18:33","19:01","19:29","19:57","20:25","20:51","21:21","21:42","22:04","22:21","23:02","00:02","00:59"]},{"id":"705","name":"Fava Teatro Stabile","lat":37.5126393,"lon":15.07177355,"times":["05:34","06:33","06:53","07:36","07:59","08:23","08:46","09:09","09:32","09:55","10:18","10:41","11:04","11:27","11:50","12:13","12:36","12:59","13:22","13:45","14:08","14:29","14:49","15:17","15:29","15:47","16:13","16:41","17:09","17:37","18:05","18:33","19:01","19:29","19:57","20:25","20:52","21:21","21:43","22:04","22:22","23:03","00:03","01:00"]},{"id":"706","name":"Franchetti Lavaggi","lat":37.51270986,"lon":15.07427432,"times":["05:34","06:34","06:54","07:37","08:00","08:24","08:47","09:10","09:33","09:56","10:19","10:42","11:05","11:28","11:51","12:14","12:37","13:00","13:23","13:46","14:09","14:30","14:50","15:18","15:30","15:48","16:14","16:42","17:10","17:38","18:06","18:34","19:02","19:30","19:58","20:26","20:53","21:22","21:44","22:05","22:22","23:04","00:04","01:00"]},{"id":"707","name":"Filzi Rapisardi","lat":37.51128531,"lon":15.07490656,"times":["05:35","06:34","06:55","07:38","08:01","08:25","08:48","09:11","09:34","09:57","10:20","10:43","11:06","11:29","11:52","12:15","12:38","13:01","13:24","13:47","14:10","14:31","14:51","15:19","15:31","15:49","16:15","16:43","17:11","17:39","18:07","18:35","19:03","19:31","19:59","20:27","20:54","21:23","21:45","22:05","22:22","23:04","00:04","01:01"]},{"id":"708","name":"Filzi Montessori","lat":37.5092479,"lon":15.07541369,"times":["05:36","06:35","06:56","07:39","08:03","08:26","08:49","09:12","09:35","09:58","10:21","10:44","11:07","11:30","11:53","12:16","12:39","13:02","13:25","13:48","14:11","14:32","14:52","15:20","15:32","15:49","16:16","16:44","17:12","17:40","18:08","18:36","19:04","19:32","20:00","20:28","20:55","21:24","21:45","22:06","22:23","23:05","00:05","01:02"]},{"id":"709","name":"Roccaromana Lago di Nicito","lat":37.50866874,"lon":15.07892069,"times":["05:37","06:37","06:57","07:42","08:05","08:28","08:51","09:14","09:37","10:00","10:23","10:46","11:09","11:32","11:55","12:18","12:41","13:04","13:27","13:50","14:13","14:34","14:54","15:22","15:34","15:51","16:18","16:46","17:14","17:42","18:10","18:38","19:06","19:34","20:02","20:30","20:56","21:26","21:47","22:07","22:23","23:07","00:07","01:03"]},{"id":"710","name":"Roccaromana Santa Maddalena","lat":37.508847,"lon":15.08187405,"times":["05:38","06:38","06:58","07:43","08:06","08:29","08:52","09:15","09:38","10:01","10:24","10:47","11:10","11:33","11:56","12:19","12:42","13:05","13:28","13:51","14:14","14:35","14:56","15:23","15:35","15:52","16:20","16:48","17:16","17:44","18:12","18:40","19:08","19:36","20:04","20:32","20:58","21:28","21:48","22:08","22:24","23:08","00:08","01:03"]},{"id":"711","name":"Santa Maddalena","lat":37.50813423,"lon":15.08286897,"times":["05:39","06:38","06:59","07:44","08:07","08:30","08:53","09:16","09:39","10:02","10:25","10:48","11:11","11:34","11:57","12:20","12:43","13:06","13:29","13:52","14:15","14:36","14:56","15:24","15:35","15:53","16:20","16:48","17:16","17:44","18:12","18:40","19:08","19:36","20:04","20:32","20:58","21:28","21:49","22:09","22:24","23:08","00:08","01:04"]},{"id":"307","name":"Terminal Borsa","lat":37.50769098,"lon":15.08508615,"times":["05:40","06:40","07:00","07:46","08:09","08:32","08:55","09:18","09:41","10:04","10:27","10:50","11:13","11:36","11:59","12:22","12:45","13:08","13:31","13:54","14:17","14:38","14:58","15:26","15:37","15:54","16:22","16:50","17:18","17:46","18:14","18:42","19:10","19:38","20:06","20:34","21:00","21:30","21:50","22:10","22:25","23:10","00:10","01:05"]}],"domenica":[{"id":"686","name":"Meli","lat":37.55308979,"lon":15.04459433,"times":["06:29","07:30","08:41","09:08","09:35","10:02","10:29","10:56","11:23","11:50","12:17","12:44","13:11","13:41","14:50","15:42","16:07","16:32","16:57","17:22","17:47","18:12","18:37","19:02","19:27","19:52","20:17","20:42","21:25","22:30"]},{"id":"687","name":"Clarenza Sant'Andrea ","lat":37.55306197,"lon":15.04245555,"times":["06:29","07:30","08:42","09:09","09:36","10:03","10:30","10:57","11:24","11:51","12:18","12:45","13:11","13:41","14:50","15:42","16:07","16:32","16:57","17:22","17:47","18:12","18:37","19:02","19:27","19:52","20:17","20:42","21:25","22:30"]},{"id":"688","name":"Vigne Nuove Andromeda","lat":37.55206077,"lon":15.04310039,"times":["06:30","07:31","08:42","09:09","09:36","10:03","10:30","10:57","11:24","11:51","12:18","12:45","13:12","13:42","14:51","15:43","16:08","16:33","16:58","17:23","17:48","18:13","18:38","19:03","19:28","19:53","20:18","20:42","21:26","22:31"]},{"id":"1765","name":"Capricorno","lat":37.55076491,"lon":15.0420791,"times":["06:30","07:31","08:43","09:10","09:37","10:04","10:31","10:58","11:25","11:52","12:19","12:46","13:13","13:43","14:52","15:44","16:09","16:34","16:59","17:24","17:49","18:14","18:39","19:04","19:29","19:53","20:19","20:43","21:27","22:31"]},{"id":"1766","name":"Bello Flaminia","lat":37.54985239,"lon":15.04325761,"times":["06:31","07:32","08:44","09:11","09:38","10:05","10:32","10:59","11:26","11:53","12:20","12:46","13:13","13:43","14:52","15:44","16:09","16:34","16:59","17:24","17:49","18:14","18:39","19:04","19:29","19:54","20:19","20:43","21:27","22:32"]},{"id":"723","name":"Minzoni Bello","lat":37.54853556,"lon":15.04549837,"times":["06:32","07:33","08:45","09:12","09:39","10:06","10:33","11:00","11:27","11:54","12:21","12:48","13:14","13:44","14:54","15:45","16:10","16:35","17:00","17:25","17:50","18:15","18:40","19:05","19:30","19:55","20:20","20:44","21:29","22:33"]},{"id":"724","name":"Minzoni (1)","lat":37.54717418,"lon":15.04633527,"times":["06:33","07:34","08:46","09:13","09:40","10:07","10:34","11:01","11:28","11:55","12:22","12:48","13:15","13:45","14:54","15:46","16:11","16:36","17:01","17:26","17:51","18:16","18:41","19:06","19:31","19:55","20:21","20:44","21:29","22:34"]},{"id":"725","name":"Minzoni (2)","lat":37.54616394,"lon":15.04814592,"times":["06:33","07:34","08:47","09:14","09:41","10:08","10:35","11:02","11:29","11:56","12:23","12:49","13:16","13:46","14:55","15:47","16:12","16:37","17:02","17:27","17:52","18:17","18:42","19:07","19:32","19:56","20:22","20:44","21:30","22:34"]},{"id":"726","name":"Minzoni San Luca","lat":37.5459738,"lon":15.05019479,"times":["06:34","07:35","08:48","09:15","09:42","10:09","10:36","11:03","11:30","11:57","12:24","12:50","13:17","13:47","14:56","15:47","16:12","16:37","17:02","17:27","17:52","18:17","18:42","19:07","19:32","19:56","20:22","20:45","21:31","22:35"]},{"id":"727","name":"San Luca","lat":37.54472089,"lon":15.05022791,"times":["06:35","07:35","08:48","09:15","09:42","10:09","10:36","11:03","11:30","11:57","12:25","12:51","13:17","13:47","14:56","15:48","16:13","16:38","17:03","17:28","17:53","18:18","18:43","19:08","19:33","19:57","20:23","20:45","21:31","22:35"]},{"id":"1321","name":"Misericordia San Luca","lat":37.5441614,"lon":15.05174444,"times":["06:35","07:36","08:49","09:16","09:43","10:10","10:37","11:04","11:31","11:58","12:26","12:51","13:18","13:48","14:57","15:49","16:14","16:39","17:04","17:29","17:54","18:19","18:44","19:09","19:34","19:58","20:24","20:46","21:32","22:36"]},{"id":"728","name":"Misericordia Galermo","lat":37.54392643,"lon":15.05312533,"times":["06:36","07:37","08:50","09:17","09:44","10:11","10:38","11:05","11:32","11:59","12:27","12:52","13:19","13:49","14:58","15:49","16:14","16:39","17:04","17:29","17:54","18:19","18:44","19:09","19:34","19:58","20:24","20:46","21:33","22:37"]},{"id":"695","name":"Galermo Lilibeo Ovest","lat":37.54201461,"lon":15.05516154,"times":["06:37","07:38","08:51","09:18","09:45","10:12","10:39","11:06","11:33","12:00","12:28","12:53","13:20","13:50","14:59","15:50","16:15","16:40","17:05","17:30","17:55","18:20","18:45","19:10","19:35","19:59","20:25","20:46","21:34","22:38"]},{"id":"696","name":"Galermo Giacinti Ovest","lat":37.53925598,"lon":15.05616694,"times":["06:38","07:39","08:53","09:20","09:47","10:14","10:41","11:08","11:35","12:02","12:30","12:55","13:21","13:51","15:01","15:52","16:17","16:42","17:07","17:32","17:57","18:22","18:47","19:12","19:37","20:00","20:27","20:47","21:36","22:39"]},{"id":"697","name":"Galermo Zagara","lat":37.5367413,"lon":15.05591604,"times":["06:39","07:40","08:54","09:21","09:48","10:15","10:42","11:09","11:36","12:03","12:31","12:56","13:22","13:52","15:02","15:53","16:18","16:43","17:08","17:33","17:58","18:23","18:48","19:13","19:38","20:01","20:28","20:48","21:37","22:40"]},{"id":"698","name":"Galermo Naselli Ovest","lat":37.53538013,"lon":15.05616403,"times":["06:40","07:40","08:55","09:22","09:49","10:16","10:43","11:10","11:37","12:04","12:32","12:57","13:23","13:53","15:02","15:54","16:19","16:44","17:09","17:34","17:59","18:24","18:49","19:14","19:39","20:02","20:29","20:48","21:37","22:40"]},{"id":"699","name":"Galermo Catania Ovest","lat":37.53446957,"lon":15.05653687,"times":["06:40","07:41","08:56","09:23","09:50","10:17","10:44","11:11","11:38","12:05","12:33","12:57","13:23","13:53","15:03","15:54","16:19","16:44","17:09","17:34","17:59","18:24","18:49","19:14","19:39","20:02","20:29","20:48","21:38","22:41"]},{"id":"601","name":"Galermo Vittorini Ovest","lat":37.53300865,"lon":15.05801848,"times":["06:41","07:42","08:57","09:24","09:51","10:18","10:45","11:12","11:39","12:06","12:34","12:58","13:24","13:54","15:04","15:55","16:20","16:45","17:10","17:35","18:00","18:25","18:50","19:15","19:40","20:03","20:30","20:49","21:39","22:42"]},{"id":"700","name":"Galermo Montana","lat":37.53103375,"lon":15.0598505,"times":["06:42","07:42","08:58","09:25","09:52","10:19","10:46","11:13","11:40","12:07","12:35","12:59","13:25","13:55","15:05","15:56","16:21","16:46","17:11","17:36","18:01","18:26","18:51","19:16","19:41","20:04","20:31","20:49","21:40","22:42"]},{"id":"614","name":"Galermo Silvestri","lat":37.52978905,"lon":15.06144534,"times":["06:43","07:43","08:59","09:26","09:53","10:20","10:47","11:14","11:41","12:08","12:36","13:00","13:26","13:56","15:05","15:57","16:22","16:47","17:12","17:37","18:02","18:27","18:52","19:17","19:42","20:04","20:32","20:50","21:40","22:43"]},{"id":"615","name":"Galermo Gualandi Ovest","lat":37.52880611,"lon":15.06231601,"times":["06:43","07:44","08:59","09:26","09:53","10:20","10:47","11:14","11:41","12:08","12:37","13:00","13:26","13:56","15:06","15:57","16:22","16:47","17:12","17:37","18:02","18:27","18:52","19:17","19:42","20:05","20:32","20:50","21:41","22:44"]},{"id":"701","name":"Galermo Tirreno Ovest","lat":37.52766059,"lon":15.06379767,"times":["06:44","07:44","09:00","09:27","09:54","10:21","10:48","11:15","11:42","12:09","12:38","13:01","13:27","13:57","15:07","15:58","16:23","16:48","17:13","17:38","18:03","18:28","18:53","19:18","19:43","20:05","20:33","20:50","21:42","22:44"]},{"id":"702","name":"Galermo (2)","lat":37.52699302,"lon":15.06522241,"times":["06:44","07:45","09:01","09:28","09:55","10:22","10:49","11:16","11:43","12:10","12:38","13:02","13:28","13:58","15:07","15:58","16:23","16:48","17:13","17:38","18:03","18:28","18:53","19:18","19:43","20:06","20:33","20:51","21:42","22:45"]},{"id":"703","name":"Galermo Mantova Ovest","lat":37.52421614,"lon":15.06606948,"times":["06:46","07:46","09:03","09:30","09:57","10:24","10:51","11:18","11:45","12:12","12:40","13:03","13:29","13:59","15:09","16:00","16:25","16:50","17:15","17:40","18:05","18:30","18:55","19:20","19:45","20:07","20:35","20:51","21:44","22:46"]},{"id":"589","name":"Usodimare Galermo","lat":37.52244991,"lon":15.06526442,"times":["06:47","07:47","09:04","09:31","09:58","10:25","10:52","11:19","11:46","12:13","12:42","13:04","13:30","14:00","15:10","16:01","16:26","16:51","17:16","17:41","18:06","18:31","18:56","19:21","19:46","20:08","20:36","20:52","21:45","22:47"]},