{"id":"744","directions":{"0":{"feriale":[{"id":"307","name":"Terminal Borsa","lat":37.50769098,"lon":15.08508615,"times":["05:55","06:50","07:30","08:00","08:40","08:50","09:15","09:50","09:55","10:30","10:50","11:10","11:45","11:55","12:25","13:00","13:40","14:15","15:20","16:30","16:45","17:40","17:50","18:50","18:55","20:00","21:00","22:00"]},{"id":"389","name":"Sant'Euplio Spedalieri","lat":37.50903412,"lon":15.08494058,"times":["05:55","06:50","07:30","08:00","08:40","08:50","09:15","09:50","09:55","10:30","10:50","11:10","11:45","11:55","12:25","13:00","13:40","14:15","15:20","16:30","16:45","17:40","17:50","18:50","18:55","20:00","21:00","22:00"]},{"id":"148","name":"VILLA BELLINI","lat":37.51142248,"lon":15.08529406,"times":["05:56","06:51","07:31","08:01","08:41","08:51","09:16","09:51","09:56","10:31","10:51","11:11","11:46","11:56","12:26","13:01","13:41","14:16","15:21","16:31","16:46","17:41","17:51","18:51","18:56","20:01","21:01","22:01"]},{"id":"149","name":"Etnea XX Settembre","lat":37.51424426,"lon":15.0845957,"times":["05:57","06:52","07:32","08:02","08:42","08:52","09:17","09:52","09:57","10:32","10:52","11:12","11:47","11:57","12:27","13:02","13:42","14:17","15:22","16:32","16:47","17:42","17:52","18:52","18:57","20:02","21:02","22:02"]},{"id":"150","name":"Etnea Cordaro","lat":37.51526299,"lon":15.08432527,"times":["05:58","06:53","07:33","08:03","08:43","08:53","09:18","09:53","09:58","10:33","10:53","11:13","11:48","11:58","12:28","13:03","13:43","14:18","15:23","16:33","16:48","17:43","17:53","18:53","18:58","20:02","21:03","22:02"]},{"id":"151","name":"Cavour Est","lat":37.51761595,"lon":15.08376211,"times":["05:58","06:53","07:33","08:03","08:43","08:53","09:18","09:53","09:58","10:33","10:53","11:13","11:48","11:58","12:28","13:03","13:43","14:18","15:23","16:33","16:48","17:43","17:53","18:53","18:58","20:03","21:03","22:03"]},{"id":"1495","name":"Etnea Empedocle","lat":37.51943703,"lon":15.08330017,"times":["05:59","06:54","07:34","08:04","08:44","08:54","09:19","09:54","09:59","10:34","10:54","11:14","11:49","11:59","12:29","13:04","13:44","14:19","15:24","16:34","16:49","17:44","17:54","18:54","18:59","20:03","20:04","21:04","22:04"]},{"id":"152","name":"Etnea Passo Gravina","lat":37.52091553,"lon":15.08292837,"times":["06:00","06:55","07:35","08:05","08:45","08:55","09:20","09:55","10:00","10:35","10:55","11:15","11:50","12:00","12:30","13:05","13:45","14:20","15:25","16:35","16:50","17:45","17:55","18:55","19:00","20:04","21:05","22:04"]},{"id":"1500","name":"Borgo Metro Est","lat":37.52176294,"lon":15.08274824,"times":["06:00","06:55","07:35","08:05","08:45","08:55","09:20","09:55","10:00","10:35","10:55","11:15","11:50","12:00","12:30","13:05","13:45","14:20","15:25","16:35","16:50","17:45","17:55","18:55","19:00","20:04","21:05","22:04"]},{"id":"1463","name":"Etnea Ingegnere Est","lat":37.52303407,"lon":15.08244408,"times":["06:00","06:55","07:35","08:05","08:45","08:55","09:20","09:55","10:00","10:35","10:55","11:15","11:50","12:00","12:30","13:05","13:45","14:20","15:25","16:35","16:50","17:45","17:55","18:55","19:00","20:05","21:05","22:05"]},{"id":"153","name":"Etnea Fimia","lat":37.52455763,"lon":15.08207229,"times":["06:01","06:56","07:36","08:06","08:46","08:56","09:21","09:56","10:01","10:36","10:56","11:16","11:51","12:01","12:31","13:06","13:46","14:21","15:26","16:36","16:51","17:46","17:56","18:56","19:01","20:05","21:06","22:05"]},{"id":"273","name":"Etnea Gioeni","lat":37.52576567,"lon":15.08176804,"times":["06:01","06:56","07:36","08:06","08:46","08:56","09:21","09:56","10:01","10:36","10:56","11:16","11:51","12:01","12:31","13:06","13:46","14:21","15:26","16:36","16:51","17:46","17:56","18:56","19:01","20:05","20:06","21:06","22:06"]},{"id":"883","name":"Pordenone Grassi","lat":37.52748573,"lon":15.08396554,"times":["06:04","06:59","07:39","08:09","08:49","08:59","09:24","09:59","10:04","10:39","10:59","11:19","11:54","12:04","12:34","13:09","13:49","14:24","15:29","16:39","16:54","17:49","17:59","18:59","19:04","20:07","21:09","22:08"]},{"id":"155","name":"Bosco Petraro","lat":37.52769595,"lon":15.07976692,"times":["06:05","07:00","07:40","08:10","08:50","09:00","09:25","10:00","10:05","10:40","11:00","11:20","11:55","12:05","12:35","13:10","13:50","14:25","15:30","16:40","16:55","17:50","18:00","19:00","19:05","20:08","20:09","21:10","22:09"]},{"id":"156","name":"Bosco Est","lat":37.52949938,"lon":15.07872759,"times":["06:06","07:01","07:41","08:11","08:51","09:01","09:26","10:01","10:06","10:41","11:01","11:21","11:56","12:06","12:36","13:11","13:51","14:26","15:31","16:41","16:56","17:51","18:01","19:01","19:06","20:09","20:10","21:11","22:10"]},{"id":"1484","name":"Bosco Castelluccio","lat":37.53052648,"lon":15.07939644,"times":["06:07","07:02","07:42","08:12","08:52","09:02","09:27","10:02","10:07","10:42","11:02","11:22","11:57","12:07","12:37","13:12","13:52","14:27","15:32","16:42","16:57","17:52","18:02","19:02","19:07","20:10","21:12","22:11"]},{"id":"157","name":"Bosco Nava","lat":37.53136409,"lon":15.0803707,"times":["06:07","07:02","07:42","08:12","08:52","09:02","09:27","10:02","10:07","10:42","11:02","11:22","11:57","12:07","12:37","13:12","13:52","14:27","15:32","16:42","16:57","17:52","18:02","19:02","19:07","20:10","20:11","21:12","22:11"]},{"id":"436","name":"Nava Musco","lat":37.53148018,"lon":15.08194406,"times":["06:08","07:03","07:43","08:13","08:53","09:03","09:28","10:03","10:08","10:43","11:03","11:23","11:58","12:08","12:38","13:13","13:53","14:28","15:33","16:43","16:58","17:53","18:03","19:03","19:08","20:11","21:13","22:11"]},{"id":"203","name":"Nava Dell'Ova","lat":37.53141483,"lon":15.08513572,"times":["06:08","07:03","07:43","08:13","08:53","09:03","09:28","10:03","10:08","10:43","11:03","11:23","11:58","12:08","12:38","13:13","13:53","14:28","15:33","16:43","16:58","17:53","18:03","19:03","19:08","20:11","20:12","21:13","22:12"]},{"id":"204","name":"Bormida Nava","lat":37.53119733,"lon":15.08675398,"times":["06:09","07:04","07:44","08:14","08:54","09:04","09:29","10:04","10:09","10:44","11:04","11:24","11:59","12:09","12:39","13:14","13:54","14:29","15:34","16:44","16:59","17:54","18:04","19:04","19:09","20:12","21:14","22:13"]},{"id":"437","name":"Bormida Braille Sud","lat":37.53053808,"lon":15.08843961,"times":["06:10","07:05","07:45","08:15","08:55","09:05","09:30","10:05","10:10","10:45","11:05","11:25","12:00","12:10","12:40","13:15","13:55","14:30","15:35","16:45","17:00","17:55","18:05","19:05","19:10","20:12","20:13","21:15","22:13"]},{"id":"438","name":"Bormida Caneva Sud","lat":37.52992393,"lon":15.09006868,"times":["06:10","07:05","07:45","08:15","08:55","09:05","09:30","10:05","10:10","10:45","11:05","11:25","12:00","12:10","12:40","13:15","13:55","14:30","15:35","16:45","17:00","17:55","18:05","19:05","19:10","20:13","21:15","22:14"]},{"id":"439","name":"Millo","lat":37.53114923,"lon":15.0907832,"times":["06:11","07:06","07:46","08:16","08:56","09:06","09:31","10:06","10:11","10:46","11:06","11:26","12:01","12:11","12:41","13:16","13:56","14:31","15:36","16:46","17:01","17:56","18:06","19:06","19:11","20:13","20:14","21:16","22:14"]},{"id":"440","name":"La Salle Est","lat":37.53278955,"lon":15.09098892,"times":["06:12","07:07","07:47","08:17","08:57","09:07","09:32","10:07","10:12","10:47","11:07","11:27","12:02","12:12","12:42","13:17","13:57","14:32","15:37","16:47","17:02","17:57","18:07","19:07","19:12","20:14","21:17","22:15"]},{"id":"441","name":"Costituzione Cristallo Est","lat":37.53487799,"lon":15.09445499,"times":["06:13","07:08","07:48","08:18","08:58","09:08","09:33","10:08","10:13","10:48","11:08","11:28","12:03","12:13","12:43","13:18","13:58","14:33","15:38","16:48","17:03","17:58","18:08","19:08","19:13","20:15","20:16","21:18","22:16"]},{"id":"442","name":"Costituzione Nord","lat":37.53618539,"lon":15.09391333,"times":["06:13","07:08","07:48","08:18","08:58","09:08","09:33","10:08","10:13","10:48","11:08","11:28","12:03","12:13","12:43","13:18","13:58","14:33","15:38","16:48","17:03","17:58","18:08","19:08","19:13","20:16","21:18","22:17"]},{"id":"444","name":"Morelli Nord","lat":37.53438569,"lon":15.09004009,"times":["06:16","07:11","07:51","08:21","09:01","09:11","09:36","10:11","10:16","10:51","11:11","11:31","12:06","12:16","12:46","13:21","14:01","14:36","15:41","16:51","17:06","18:01","18:11","19:11","19:16","20:17","20:18","21:21","22:19"]},{"id":"445","name":"Morelli Dell'Ova Nord","lat":37.53502708,"lon":15.08815062,"times":["06:16","07:11","07:51","08:21","09:01","09:11","09:36","10:11","10:16","10:51","11:11","11:31","12:06","12:16","12:46","13:21","14:01","14:36","15:41","16:51","17:06","18:01","18:11","19:11","19:16","20:18","20:19","21:21","22:19"]},{"id":"193","name":"Dell'Ova Morelli","lat":37.53542407,"lon":15.08761911,"times":["06:16","07:11","07:51","08:21","09:01","09:11","09:36","10:11","10:16","10:51","11:11","11:31","12:06","12:16","12:46","13:21","14:01","14:36","15:41","16:51","17:06","18:01","18:11","19:11","19:16","20:18","20:19","21:21","22:19"]},{"id":"167","name":"Ferro Fabiani Pedara","lat":37.53654082,"lon":15.08887682,"times":["06:17","07:12","07:52","08:22","09:02","09:12","09:37","10:12","10:17","10:52","11:12","11:32","12:07","12:17","12:47","13:22","14:02","14:37","15:42","16:52","17:07","18:02","18:12","19:12","19:17","20:19","21:22","22:20"]},{"id":"194","name":"Ferro Fabiani Cirinnà","lat":37.53760378,"lon":15.08972702,"times":["06:18","07:13","07:53","08:23","09:03","09:13","09:38","10:13","10:18","10:53","11:13","11:33","12:08","12:18","12:48","13:23","14:03","14:38","15:43","16:53","17:08","18:03","18:13","19:13","19:18","20:19","20:20","21:23","22:20"]},{"id":"461","name":"Canalicchio Sud","lat":37.53756497,"lon":15.09329251,"times":["06:19","07:14","07:54","08:24","09:04","09:14","09:39","10:14","10:19","10:54","11:14","11:34","12:09","12:19","12:49","13:24","14:04","14:39","15:44","16:54","17:09","18:04","18:14","19:14","19:19","20:20","20:21","21:24","22:22"]},{"id":"1253","name":"Canalicchio Nord","lat":37.53827801,"lon":15.0920596,"times":["06:19","07:14","07:54","08:24","09:04","09:14","09:39","10:14","10:19","10:54","11:14","11:34","12:09","12:19","12:49","13:24","14:04","14:39","15:44","16:54","17:09","18:04","18:14","19:14","19:19","20:21","21:24","22:22"]},{"id":"463","name":"Canalicchio Fabiani","lat":37.53873004,"lon":15.09030566,"times":["06:20","07:15","07:55","08:25","09:05","09:15","09:40","10:15","10:20","10:55","11:15","11:35","12:10","12:20","12:50","13:25","14:05","14:40","15:45","16:55","17:10","18:05","18:15","19:15","19:20","20:21","20:22","21:25","22:23"]},{"id":"407","name":"Nuovaluce Dell'Ova","lat":37.53971142,"lon":15.09214877,"times":["06:21","07:16","07:56","08:26","09:06","09:16","09:41","10:16","10:21","10:56","11:16","11:36","12:11","12:21","12:51","13:26","14:06","14:41","15:46","16:56","17:11","18:06","18:16","19:16","19:21","20:22","20:23","21:26","22:23"]},{"id":"408","name":"Nuovaluce","lat":37.53975499,"lon":15.09364614,"times":["06:21","07:16","07:56","08:26","09:06","09:16","09:41","10:16","10:21","10:56","11:16","11:36","12:11","12:21","12:51","13:26","14:06","14:41","15:46","16:56","17:11","18:06","18:16","19:16","19:21","20:22","20:23","21:26","22:24"]},{"id":"195","name":"Montelauro","lat":37.53997029,"lon":15.09493684,"times":["06:22","07:17","07:57","08:27","09:07","09:17","09:42","10:17","10:22","10:57","11:17","11:37","12:12","12:22","12:52","13:27","14:07","14:42","15:47","16:57","17:12","18:07","18:17","19:17","19:22","20:23","20:24","21:27","22:24"]},{"id":"413","name":"Carnazza Iblei","lat":37.54192602,"lon":15.09521099,"times":["06:23","07:18","07:58","08:28","09:08","09:18","09:43","10:18","10:23","10:58","11:18","11:38","12:13","12:23","12:53","13:28","14:08","14:43","15:48","16:58","17:13","18:08","18:18","19:18","19:23","20:24","20:25","21:28","22:25"]},{"id":"414","name":"Carnazza Sicani","lat":37.5412873,"lon":15.09364806,"times":["06:23","07:18","07:58","08:28","09:08","09:18","09:43","10:18","10:23","10:58","11:18","11:38","12:13","12:23","12:53","13:28","14:08","14:43","15:48","16:58","17:13","18:08","18:18","19:18","19:23","20:24","20:25","21:28","22:26"]},{"id":"415","name":"Carnazza","lat":37.5404502,"lon":15.09217546,"times":["06:24","07:19","07:59","08:29","09:09","09:19","09:44","10:19","10:24","10:59","11:19","11:39","12:14","12:24","12:54","13:29","14:09","14:44","15:49","16:59","17:14","18:09","18:19","19:19","19:24","20:25","21:29","22:26"]},{"id":"409","name":"Dell'Ova Est (1)","lat":37.54093824,"lon":15.09047812,"times":["06:25","07:20","08:00","08:30","09:10","09:20","09:45","10:20","10:25","11:00","11:20","11:40","12:15","12:25","12:55","13:30","14:10","14:45","15:50","17:00","17:15","18:10","18:20","19:20","19:25","20:25","20:26","21:30","22:27"]},{"id":"410","name":"Dell'Ova San Gregorio","lat":37.54333592,"lon":15.09040177,"times":["06:26","07:21","08:01","08:31","09:11","09:21","09:46","10:21","10:26","11:01","11:21","11:41","12:16","12:26","12:56","13:31","14:11","14:46","15:51","17:01","17:16","18:11","18:21","19:21","19:26","20:26","20:27","21:31","22:28"]},{"id":"1746","name":"Dell'Ova Nebrodi","lat":37.54511942,"lon":15.09194349,"times":["06:27","07:22","08:02","08:32","09:12","09:22","09:47","10:22","10:27","11:02","11:22","11:42","12:17","12:27","12:57","13:32","14:12","14:47","15:52","17:02","17:17","18:12","18:22","19:22","19:27","20:27","20:28","21:32","22:29"]},{"id":"1194","name":"Dell'Ova Est (2)","lat":37.54575841,"lon":15.09318952,"times":["06:27","07:22","08:02","08:32","09:12","09:22","09:47","10:22","10:27","11:02","11:22","11:42","12:17","12:27","12:57","13:32","14:12","14:47","15:52","17:02","17:17","18:12","18:22","19:22","19:27","20:27","20:28","21:32","22:29"]},{"id":"1731","name":"Dell'Ova Copernico","lat":37.54670397,"lon":15.09427746,"times":["06:28","07:23","08:03","08:33","09:13","09:23","09:48","10:23","10:28","11:03","11:23","11:43","12:18","12:28","12:58","13:33","14:13","14:48","15:53","17:03","17:18","18:13","18:23","19:23","19:28","20:28","20:29","21:33","22:30"]}],"sabato":[{"id":"307","name":"Terminal Borsa","lat":37.50769098,"lon":15.08508615,"times":["05:55","06:50","07:30","08:00","08:40","09:15","09:55","10:30","11:10","11:45","12:25","13:00","13:40","14:15","15:20","16:30","17:40","18:50","20:00","21:00","22:00"]},{"id":"389","name":"Sant'Euplio Spedalieri","lat":37.50903412,"lon":15.08494058,"times":["05:55","06:50","07:30","08:00","08:40","09:15","09:55","10:30","11:10","11:45","12:25","13:00","13:40","14:15","15:20","16:30","17:40","18:50","20:00","21:00","22:00"]},{"id":"148","name":"VILLA BELLINI","lat":37.51142248,"lon":15.08529406,"times":["05:56","06:51","07:31","08:01","08:41","09:16","09:56","10:31","11:11","11:46","12:26","13:01","13:41","14:16","15:21","16:31","17:41","18:51","20:01","21:01","22:01"]},{"id":"149","name":"Etnea XX Settembre","lat":37.51424426,"lon":15.0845957,"times":["05:57","06:52","07:32","08:02","08:42","09:17","09:57","10:32","11:12","11:47","12:27","13:02","13:42","14:17","15:22","16:32","17:42","18:52","20:02","21:02","22:02"]},{"id":"150","name":"Etnea Cordaro","lat":37.51526299,"lon":15.08432527,"times":["05:58","06:53","07:33","08:03","08:43","09:18","09:58","10:33","11:13","11:48","12:28","13:03","13:43","14:18","15:23","16:33","17:43","18:53","20:02","21:03","22:02"]},{"id":"151","name":"Cavour Est","lat":37.51761595,"lon":15.08376211,"times":["05:58","06:53","07:33","08:03","08:43","09:18","09:58","10:33","11:13","11:48","12:28","13:03","13:43","14:18","15:23","16:33","17:43","18:53","20:03","21:03","22:03"]},{"id":"1495","name":"Etnea Empedocle","lat":37.51943703,"lon":15.08330017,"times":["05:59","06:54","07:34","08:04","08:44","09:19","09:59","10:34","11:14","11:49","12:29","13:04","13:44","14:19","15:24","16:34","17:44","18:54","20:03","21:04","22:04"]},{"id":"152","name":"Etnea Passo Gravina","lat":37.52091553,"lon":15.08292837,"times":["06:00","06:55","07:35","08:05","08:45","09:20","10:00","10:35","11:15","11:50","12:30","13:05","13:45","14:20","15:25","16:35","17:45","18:55","20:04","21:05","22:04"]},{"id":"1500","name":"Borgo Metro Est","lat":37.52176294,"lon":15.08274824,"times":["06:00","06:55","07:35","08:05","08:45","09:20","10:00","10:35","11:15","11:50","12:30","13:05","13:45","14:20","15:25","16:35","17:45","18:55","20:04","21:05","22:04"]},{"id":"1463","name":"Etnea Ingegnere Est","lat":37.52303407,"lon":15.08244408,"times":["06:00","06:55","07:35","08:05","08:45","09:20","10:00","10:35","11:15","11:50","12:30","13:05","13:45","14:20","15:25","16:35","17:45","18:55","20:05","21:05","22:05"]},{"id":"153","name":"Etnea Fimia","lat":37.52455763,"lon":15.08207229,"times":["06:01","06:56","07:36","08:06","08:46","09:21","10:01","10:36","11:16","11:51","12:31","13:06","13:46","14:21","15:26","16:36","17:46","18:56","20:05","21:06","22:05"]},{"id":"273","name":"Etnea Gioeni","lat":37.52576567,"lon":15.08176804,"times":["06:01","06:56","07:36","08:06","08:46","09:21","10:01","10:36","11:16","11:51","12:31","13:06","13:46","14:21","15:26","16:36","17:46","18:56","20:05","21:06","22:06"]},{"id":"883","name":"Pordenone Grassi","lat":37.52748573,"lon":15.08396554,"times":["06:04","06:59","07:39","08:09","08:49","09:24","10:04","10:39","11:19","11:54","12:34","13:09","13:49","14:24","15:29","16:39","17:49","18:59","20:07","21:09","22:08"]},{"id":"155","name":"Bosco Petraro","lat":37.52769595,"lon":15.07976692,"times":["06:05","07:00","07:40","08:10","08:50","09:25","10:05","10:40","11:20","11:55","12:35","13:10","13:50","14:25","15:30","16:40","17:50","19:00","20:08","21:10","22:09"]},{"id":"156","name":"Bosco Est","lat":37.52949938,"lon":15.07872759,"times":["06:06","07:01","07:41","08:11","08:51","09:26","10:06","10:41","11:21","11:56","12:36","13:11","13:51","14:26","15:31","16:41","17:51","19:01","20:09","21:11","22:10"]},{"id":"1484","name":"Bosco Castelluccio","lat":37.53052648,"lon":15.07939644,"times":["06:07","07:02","07:42","08:12","08:52","09:27","10:07","10:42","11:22","11:57","12:37","13:12","13:52","14:27","15:32","16:42","17:52","19:02","20:10","21:12","22:11"]},{"id":"157","name":"Bosco Nava","lat":37.53136409,"lon":15.0803707,"times":["06:07","07:02","07:42","08:12","08:52","09:27","10:07","10:42","11:22","11:57","12:37","13:12","13:52","14:27","15:32","16:42","17:52","19:02","20:10","21:12","22:11"]},{"id":"436","name":"Nava Musco","lat":37.53148018,"lon":15.08194406,"times":["06:08","07:03","07:43","08:13","08:53","09:28","10:08","10:43","11:23","11:58","12:38","13:13","13:53","14:28","15:33","16:43","17:53","19:03","20:11","21:13","22:11"]},{"id":"203","name":"Nava Dell'Ova","lat":37.53141483,"lon":15.08513572,"times":["06:08","07:03","07:43","08:13","08:53","09:28","10:08","10:43","11:23","11:58","12:38","13:13","13:53","14:28","15:33","16:43","17:53","19:03","20:11","21:13","22:12"]},{"id":"204","name":"Bormida Nava","lat":37.53119733,"lon":15.08675398,"times":["06:09","07:04","07:44","08:14","08:54","09:29","10:09","10:44","11:24","11:59","12:39","13:14","13:54","14:29","15:34","16:44","17:54","19:04","20:12","21:14","22:13"]},{"id":"437","name":"Bormida Braille Sud","lat":37.53053808,"lon":15.08843961,"times":["06:10","07:05","07:45","08:15","08:55","09:30","10:10","10:45","11:25","12:00","12:40","13:15","13:55","14:30","15:35","16:45","17:55","19:05","20:12","21:15","22:13"]},{"id":"438","name":"Bormida Caneva Sud","lat":37.52992393,"lon":15.09006868,"times":["06:10","07:05","07:45","08:15","08:55","09:30","10:10","10:45","11:25","12:00","12:40","13:15","13:55","14:30","15:35","16:45","17:55","19:05","20:13","21:15","22:14"]},{"id":"439","name":"Millo","lat":37.53114923,"lon":15.0907832,"times":["06:11","07:06","07:46","08:16","08:56","09:31","10:11","10:46","11:26","12:01","12:41","13:16","13:56","14:31","15:36","16:46","17:56","19:06","20:13","21:16","22:14"]},{"id":"440","name":"La Salle Est","lat":37.53278955,"lon":15.09098892,"times":["06:12","07:07","07:47","08:17","08:57","09:32","10:12","10:47","11:27","12:02","12:42","13:17","13:57","14:32","15:37","16:47","17:57","19:07","20:14","21:17","22:15"]},{"id":"441","name":"Costituzione Cristallo Est","lat":37.53487799,"lon":15.09445499,"times":["06:13","07:08","07:48","08:18","08:58","09:33","10:13","10:48","11:28","12:03","12:43","13:18","13:58","14:33","15:38","16:48","17:58","19:08","20:15","21:18","22:16"]},{"id":"442","name":"Costituzione Nord","lat":37.53618539,"lon":15.09391333,"times":["06:13","07:08","07:48","08:18","08:58","09:33","10:13","10:48","11:28","12:03","12:43","13:18","13:58","14:33","15:38","16:48","17:58","19:08","20:16","21:18","22:17"]},{"id":"444","name":"Morelli Nord","lat":37.53438569,"lon":15.09004009,"times":["06:16","07:11","07:51","08:21","09:01","09:36","10:16","10:51","11:31","12:06","12:46","13:21","14:01","14:36","15:41","16:51","18:01","19:11","20:17","21:21","22:19"]},{"id":"445","name":"Morelli Dell'Ova Nord","lat":37.53502708,"lon":15.08815062,"times":["06:16","07:11","07:51","08:21","09:01","09:36","10:16","10:51","11:31","12:06","12:46","13:21","14:01","14:36","15:41","16:51","18:01","19:11","20:18","21:21","22:19"]},{"id":"193","name":"Dell'Ova Morelli","lat":37.53542407,"lon":15.08761911,"times":["06:16","07:11","07:51","08:21","09:01","09:36","10:16","10:51","11:31","12:06","12:46","13:21","14:01","14:36","15:41","16:51","18:01","19:11","20:18","21:21","22:19"]},{"id":"167","name":"Ferro Fabiani Pedara","lat":37.53654082,"lon":15.08887682,"times":["06:17","07:12","07:52","08:22","09:02","09:37","10:17","10:52","11:32","12:07","12:47","13:22","14:02","14:37","15:42","16:52","18:02","19:12","20:19","21:22","22:20"]},{"id":"194","name":"Ferro Fabiani Cirinnà","lat":37.53760378,"lon":15.08972702,"times":["06:18","07:13","07:53","08:23","09:03","09:38","10:18","10:53","11:33","12:08","12:48","13:23","14:03","14:38","15:43","16:53","18:03","19:13","20:19","21:23","22:20"]},{"id":"461","name":"Canalicchio Sud","lat":37.53756497,"lon":15.09329251,"times":["06:19","07:14","07:54","08:24","09:04","09:39","10:19","10:54","11:34","12:09","12:49","13:24","14:04","14:39","15:44","16:54","18:04","19:14","20:20","21:24","22:22"]},{"id":"1253","name":"Canalicchio Nord","lat":37.53827801,"lon":15.0920596,"times":["06:19","07:14","07:54","08:24","09:04","09:39","10:19","10:54","11:34","12:09","12:49","13:24","14:04","14:39","15:44","16:54","18:04","19:14","20:21","21:24","22:22"]},{"id":"463","name":"Canalicchio Fabiani","lat":37.53873004,"lon":15.09030566,"times":["06:20","07:15","07:55","08:25","09:05","09:40","10:20","10:55","11:35","12:10","12:50","13:25","14:05","14:40","15:45","16:55","18:05","19:15","20:21","21:25","22:23"]},{"id":"407","name":"Nuovaluce Dell'Ova","lat":37.53971142,"lon":15.09214877,"times":["06:21","07:16","07:56","08:26","09:06","09:41","10:21","10:56","11:36","12:11","12:51","13:26","14:06","14:41","15:46","16:56","18:06","19:16","20:22","21:26","22:23"]},{"id":"408","name":"Nuovaluce","lat":37.53975499,"lon":15.09364614,"times":["06:21","07:16","07:56","08:26","09:06","09:41","10:21","10:56","11:36","12:11","12:51","13:26","14:06","14:41","15:46","16:56","18:06","19:16","20:22","21:26","22:24"]},{"id":"195","name":"Montelauro","lat":37.53997029,"lon":15.09493684,"times":["06:22","07:17","07:57","08:27","09:07","09:42","10:22","10:57","11:37","12:12","12:52","13:27","14:07","14:42","15:47","16:57","18:07","19:17","20:23","21:27","22:24"]},{"id":"413","name":"Carnazza Iblei","lat":37.54192602,"lon":15.09521099,"times":["06:23","07:18","07:58","08:28","09:08","09:43","10:23","10:58","11:38","12:13","12:53","13:28","14:08","14:43","15:48","16:58","18:08","19:18","20:24","21:28","22:25"]},{"id":"414","name":"Carnazza Sicani","lat":37.5412873,"lon":15.09364806,"times":["06:23","07:18","07:58","08:28","09:08","09:43","10:23","10:58","11:38","12:13","12:53","13:28","14:08","14:43","15:48","16:58","18:08","19:18","20:24","21:28","22:26"]},{"id":"415","name":"Carnazza","lat":37.5404502,"lon":15.09217546,"times":["06:24","07:19","07:59","08:29","09:09","09:44","10:24","10:59","11:39","12:14","12:54","13:29","14:09","14:44","15:49","16:59","18:09","19:19","20:25","21:29","22:26"]},{"id":"409","name":"Dell'Ova Est (1)","lat":37.54093824,"lon":15.09047812,"times":["06:25","07:20","08:00","08:30","09:10","09:45","10:25","11:00","11:40","12:15","12:55","13:30","14:10","14:45","15:50","17:00","18:10","19:20","20:25","21:30","22:27"]},{"id":"410","name":"Dell'Ova San Gregorio","lat":37.54333592,"lon":15.09040177,"times":["06:26","07:21","08:01","08:31","09:11","09:46","10:26","11:01","11:41","12:16","12:56","13:31","14:11","14:46","15:51","17:01","18:11","19:21","20:26","21:31","22:28"]},{"id":"1746","name":"Dell'Ova Nebrodi","lat":37.54511942,"lon":15.09194349,"times":["06:27","07:22","08:02","08:32","09:12","09:47","10:27","11:02","11:42","12:17","12:57","13:32","14:12","14:47","15:52","17:02","18:12","19:22","20:27","21:32","22:29"]},{"id":"1194","name":"Dell'Ova Est (2)","lat":37.54575841,"lon":15.09318952,"times":["06:27","07:22","08:02","08:32","09:12","09:47","10:27","11:02","11:42","12:17","12:57","13:32","14:12","14:47","15:52","17:02","18:12","19:22","20:27","21:32","22:29"]},{"id":"1731","name":"Dell'Ova Copernico","lat":37.54670397,"lon":15.09427746,"times":["06:28","07:23","08:03","08:33","09:13","09:48","10:28","11:03","11:43","12:18","12:58","13:33","14:13","14:48","15:53","17:03","18:13","19:23","20:28","21:33","22:30"]}],"domenica":[{"id":"307","name":"Terminal Borsa","lat":37.50769098,"lon":15.08508615,"times":["06:55","07:50","08:50","09:50","10:50","11:55","13:00","14:30","15:40","16:45","17:50","18:55","20:00"]},{"id":"389","name":"Sant'Euplio Spedalieri","lat":37.50903412,"lon":15.08494058,"times":["06:55","07:50","08:50","09:50","10:50","11:55","13:00","14:30","15:40","16:45","17:50","18:55","20:00"]},{"id":"148","name":"VILLA BELLINI","lat":37.51142248,"lon":15.08529406,"times":["06:56","07:51","08:51","09:51","10:51","11:56","13:01","14:31","15:41","16:46","17:51","18:56","20:01"]},{"id":"149","name":"Etnea XX Settembre","lat":37.51424426,"lon":15.0845957,"times":["06:57","07:52","08:52","09:52","10:52","11:57","13:02","14:32","15:42","16:47","17:52","18:57","20:02"]},{"id":"150","name":"Etnea Cordaro","lat":37.51526299,"lon":15.08432527,"times":["06:58","07:53","08:53","09:53","10:53","11:58","13:03","14:33","15:43","16:48","17:53","18:58","20:02"]},{"id":"151","name":"Cavour Est","lat":37.51761595,"lon":15.08376211,"times":["06:58","07:53","08:53","09:53","10:53","11:58","13:03","14:33","15:43","16:48","17:53","18:58","20:03"]},{"id":"1495","name":"Etnea Empedocle","lat":37.51943703,"lon":15.08330017,"times":["06:59","07:54","08:54","09:54","10:54","11:59","13:04","14:34","15:44","16:49","17:54","18:59","20:04"]},{"id":"152","name":"Etnea Passo Gravina","lat":37.52091553,"lon":15.08292837,"times":["07:00","07:55","08:55","09:55","10:55","12:00","13:05","14:35","15:45","16:50","17:55","19:00","20:04"]},{"id":"1500","name":"Borgo Metro Est","lat":37.52176294,"lon":15.08274824,"times":["07:00","07:55","08:55","09:55","10:55","12:00","13:05","14:35","15:45","16:50","17:55","19:00","20:04"]},{"id":"1463","name":"Etnea Ingegnere Est","lat":37.52303407,"lon":15.08244408,"times":["07:00","07:55","08:55","09:55","10:55","12:00","13:05","14:35","15:45","16:50","17:55","19:00","20:05"]},{"id":"153","name":"Etnea Fimia","lat":37.52455763,"lon":15.08207229,"times":["07:01","07:56","08:56","09:56","10:56","12:01","13:06","14:36","15:46","16:51","17:56","19:01","20:05"]},{"id":"273","name":"Etnea Gioeni","lat":37.52576567,"lon":15.08176804,"times":["07:01","07:56","08:56","09:56","10:56","12:01","13:06","14:36","15:46","16:51","17:56","19:01","20:06"]},{"id":"883","name":"Pordenone Grassi","lat":37.52748573,"lon":15.08396554,"times":["07:04","07:59","08:59","09:59","10:59","12:04","13:09","14:39","15:49","16:54","17:59","19:04","20:07"]},{"id":"155","name":"Bosco Petraro","lat":37.52769595,"lon":15.07976692,"times":["07:05","08:00","09:00","10:00","11:00","12:05","13:10","14:40","15:50","16:55","18:00","19:05","20:09"]},{"id":"156","name":"Bosco Est","lat":37.52949938,"lon":15.07872759,"times":["07:06","08:01","09:01","10:01","11:01","12:06","13:11","14:41","15:51","16:56","18:01","19:06","20:10"]},{"id":"1484","name":"Bosco Castelluccio","lat":37.53052648,"lon":15.07939644,"times":["07:07","08:02","09:02","10:02","11:02","12:07","13:12","14:42","15:52","16:57","18:02","19:07","20:10"]},{"id":"157","name":"Bosco Nava","lat":37.53136409,"lon":15.0803707,"times":["07:07","08:02","09:02","10:02","11:02","12:07","13:12","14:42","15:52","16:57","18:02","19:07","20:11"]},{"id":"436","name":"Nava Musco","lat":37.53148018,"lon":15.08194406,"times":["07:08","08:03","09:03","10:03","11:03","12:08","13:13","14:43","15:53","16:58","18:03","19:08","20:11"]},{"id":"203","name":"Nava Dell'Ova","lat":37.53141483,"lon":15.08513572,"times":["07:08","08:03","09:03","10:03","11:03","12:08","13:13","14:43","15:53","16:58","18:03","19:08","20:12"]},{"id":"204","name":"Bormida Nava","lat":37.53119733,"lon":15.08675398,"times":["07:09","08:04","09:04","10:04","11:04","12:09","13:14","14:44","15:54","16:59","18:04","19:09","20:12"]},{"id":"437","name":"Bormida Braille Sud","lat":37.53053808,"lon":15.08843961,"times":["07:10","08:05","09:05","10:05","11:05","12:10","13:15","14:45","15:55","17:00","18:05","19:10","20:13"]},{"id":"438","name":"Bormida Caneva Sud","lat":37.52992393,"lon":15.09006868,"times":["07:10","08:05","09:05","10:05","11:05","12:10","13:15","14:45","15:55","17:00","18:05","19:10","20:13"]},{"id":"439","name":"Millo","lat":37.53114923,"lon":15.0907832,"times":["07:11","08:06","09:06","10:06","11:06","12:11","13:16","14:46","15:56","17:01","18:06","19:11","20:14"]},{"id":"440","name":"La Salle Est","lat":37.53278955,"lon":15.09098892,"times":["07:12","08:07","09:07","10:07","11:07","12:12","13:17","14:47","15:57","17:02","18:07","19:12","20:14"]},{"id":"441","name":"Costituzione Cristallo Est","lat":37.53487799,"lon":15.09445499,"times":["07:13","08:08","09:08","10:08","11:08","12:13","13:18","14:48","15:58","17:03","18:08","19:13","20:16"]},{"id":"442","name":"Costituzione Nord","lat":37.53618539,"lon":15.09391333,"times":["07:13","08:08","09:08","10:08","11:08","12:13","13:18","14:48","15:58","17:03","18:08","19:13","20:16"]},{"id":"444","name":"Morelli Nord","lat":37.53438569,"lon":15.09004009,"times":["07:16","08:11","09:11","10:11","11:11","12:16","13:21","14:51","16:01","17:06","18:11","19:16","20:18"]},{"id":"445","name":"Morelli Dell'Ova Nord","lat":37.53502708,"lon":15.08815062,"times":["07:16","08:11","09:11","10:11","11:11","12:16","13:21","14:51","16:01","17:06","18:11","19:16","20:19"]},{"id":"193","name":"Dell'Ova Morelli","lat":37.53542407,"lon":15.08761911,"times":["07:16","08:11","09:11","10:11","11:11","12:16","13:21","14:51","16:01","17:06","18:11","19:16","20:19"]},{"id":"167","name":"Ferro Fabiani Pedara","lat":37.53654082,"lon":15.08887682,"times":["07:17","08:12","09:12","10:12","11:12","12:17","13:22","14:52","16:02","17:07","18:12","19:17","20:19"]},{"id":"194","name":"Ferro Fabiani Cirinnà","lat":37.53760378,"lon":15.08972702,"times":["07:18","08:13","09:13","10:13","11:13","12:18","13:23","14:53","16:03","17:08","18:13","19:18","20:20"]},{"id":"461","name":"Canalicchio Sud","lat":37.53756497,"lon":15.09329251,"times":["07:19","08:14","09:14","10:14","11:14","12:19","13:24","14:54","16:04","17:09","18:14","19:19","20:21"]},{"id":"1253","name":"Canalicchio Nord","lat":37.53827801,"lon":15.0920596,"times":["07:19","08:14","09:14","10:14","11:14","12:19","13:24","14:54","16:04","17:09","18:14","19:19","20:21"]},{"id":"463","name":"Canalicchio Fabiani","lat":37.53873004,"lon":15.09030566,"times":["07:20","08:15","09:15","10:15","11:15","12:20","13:25","14:55","16:05","17:10","18:15","19:20","20:22"]},{"id":"407","name":"Nuovaluce Dell'Ova","lat":37.53971142,"lon":15.09214877,"times":["07:21","08:16","09:16","10:16","11:16","12:21","13:26","14:56","16:06","17:11","18:16","19:21","20:23"]},{"id":"408","name":"Nuovaluce","lat":37.53975499,"lon":15.09364614,"times":["07:21","08:16","09:16","10:16","11:16","12:21","13:26","14:56","16:06","17:11","18:16","19:21","20:23"]},{"id":"195","name":"Montelauro","lat":37.53997029,"lon":15.09493684,"times":["07:22","08:17","09:17","10:17","11:17","12:22","13:27","14:57","16:07","17:12","18:17","19:22","20:24"]},{"id":"413","name":"Carnazza Iblei","lat":37.54192602,"lon":15.09521099,"times":["07:23","08:18","09:18","10:18","11:18","12:23","13:28","14:58","16:08","17:13","18:18","19:23","20:25"]},{"id":"414","name":"Carnazza Sicani","lat":37.5412873,"lon":15.09364806,"times":["07:23","08:18","09:18","10:18","11:18","12:23","13:28","14:58","16:08","17:13","18:18","19:23","20:25"]},{"id":"415","name":"Carnazza","lat":37.5404502,"lon":15.09217546,"times":["07:24","08:19","09:19","10:19","11:19","12:24","13:29","14:59","16:09","17:14","18:19","19:24","20:25"]},{"id":"409","name":"Dell'Ova Est (1)","lat":37.54093824,"lon":15.09047812,"times":["07:25","08:20","09:20","10:20","11:20","12:25","13:30","15:00","16:10","17:15","18:20","19:25","20:26"]},{"id":"410","name":"Dell'Ova San Gregorio","lat":37.54333592,"lon":15.09040177,"times":["07:26","08:21","09:21","10:21","11:21","12:26","13:31","15:01","16:11","17:16","18:21","19:26","20:27"]},{"id":"1746","name":"Dell'Ova Nebrodi","lat":37.54511942,"lon":15.09194349,"times":["07:27","08:22","09:22","10:22","11:22","12:27","13:32","15:02","16:12","17:17","18:22","19:27","20:28"]},{"id":"1194","name":"Dell'Ova Est (2)","lat":37.54575841,"lon":15.09318952,"times":["07:27","08:22","09:22","10:22","11:22","12:27","13:32","15:02","16:12","17:17","18:22","19:27","20:28"]},{"id":"1731","name":"Dell'Ova Copernico","lat":37.54670397,"lon":15.09427746,"times":["07:28","08:23","09:23","10:23","11:23","12:28","13:33","15:03","16:13","17:18","18:23","19:28","20:29"]}]},"1":{"feriale":[{"id":"1731","name":"Dell'Ova Copernico","lat":37.54670397,"lon":15.09427746,"times":["06:28","07:23","08:03","08:33","09:13","09:23","09:48","10:23","10:28","11:03","11:23","11:43","12:18","12:28","12:58","13:33","14:13","14:48","15:53","17:03","17:18","18:13","18:23","19:23","19:28","20:28","20:29","21:33","22:30"]},{"id":"1732","name":"San Gregorio Nebrodi","lat":37.54397584,"lon":15.09045915,"times":["06:29","07:25","08:05","08:35","09:15","09:24","09:50","10:24","10:30","11:05","11:24","11:45","12:20","12:29","13:00","13:34","13:35","14:14","14:49","15:55","17:05","17:19","18:15","18:24","19:25","19:29","20:29","20:30","21:34","22:31"]},{"id":"411","name":"Dell'Ova Ovest","lat":37.54219117,"lon":15.09043435,"times":["06:29","07:26","08:06","08:36","09:16","09:25","09:51","10:25","10:31","11:06","11:25","11:46","12:21","12:30","13:01","13:34","13:36","14:15","14:50","15:56","17:06","17:20","18:16","18:25","19:26","19:30","20:30","20:31","21:35","22:32"]},{"id":"412","name":"Dell'Ova Carnazza","lat":37.54032534,"lon":15.09045474,"times":["06:30","07:26","08:06","08:37","09:17","09:25","09:52","10:25","10:32","11:07","11:26","11:47","12:22","12:31","13:02","13:35","13:37","14:16","14:51","15:56","17:06","17:21","18:16","18:26","19:26","19:31","20:31","21:35","22:32"]},{"id":"464","name":"Dell'Ova Canalicchio ","lat":37.53937045,"lon":15.08972914,"times":["06:30","07:27","08:07","08:38","09:18","09:26","09:53","10:26","10:33","11:08","11:27","11:48","12:23","12:32","13:03","13:35","13:38","14:17","14:52","15:57","17:07","17:22","18:17","18:27","19:27","19:32","20:32","21:36","22:33"]},{"id":"434","name":"Dell'Ova Novelli","lat":37.5377401,"lon":15.08824437,"times":["06:31","07:28","08:08","08:39","09:19","09:27","09:54","10:27","10:34","11:09","11:27","11:49","12:24","12:32","13:04","13:36","13:39","14:17","14:52","15:58","17:08","17:22","18:18","18:27","19:28","19:32","20:32","20:33","21:37","22:33"]},{"id":"465","name":"Dell'Ova Ferro Fabiani","lat":37.53584762,"lon":15.08774411,"times":["06:31","07:29","08:09","08:40","09:20","09:27","09:55","10:27","10:35","11:10","11:28","11:50","12:25","12:33","13:05","13:36","13:40","14:18","14:53","15:59","17:09","17:23","18:19","18:28","19:29","19:33","20:33","21:37","22:34"]},{"id":"466","name":"Morelli Dell'Ova Sud","lat":37.53502723,"lon":15.08794689,"times":["06:32","07:30","08:10","08:41","09:21","09:28","09:56","10:28","10:36","11:11","11:29","11:51","12:26","12:34","13:06","13:37","13:41","14:19","14:54","16:00","17:10","17:24","18:20","18:29","19:30","19:34","20:34","21:38","22:34"]},{"id":"467","name":"Morelli Sud","lat":37.53442182,"lon":15.08993826,"times":["06:32","07:31","08:11","08:42","09:22","09:28","09:57","10:28","10:37","11:12","11:29","11:52","12:27","12:34","13:07","13:37","13:41","14:19","14:54","16:01","17:11","17:24","18:21","18:29","19:31","19:34","20:34","21:38","22:35"]},{"id":"1196","name":"Costituzione Sud","lat":37.53605919,"lon":15.09392449,"times":["06:34","07:34","08:14","08:45","09:25","09:31","10:00","10:31","10:40","11:15","11:32","11:55","12:30","12:37","13:10","13:39","13:45","14:22","14:57","16:04","17:14","17:27","18:24","18:32","19:34","19:37","20:36","20:37","21:41","22:37"]},{"id":"443","name":"Costituzione Cristallo Ovest","lat":37.53494782,"lon":15.09425515,"times":["06:35","07:34","08:14","08:46","09:26","09:31","10:01","10:31","10:41","11:16","11:33","11:56","12:31","12:38","13:11","13:40","13:46","14:23","14:58","16:04","17:14","17:28","18:24","18:33","19:34","19:38","20:37","20:38","21:41","22:37"]},{"id":"643","name":"Costituzione","lat":37.5345276,"lon":15.09301708,"times":["06:35","07:35","08:15","08:47","09:27","09:32","10:02","10:32","10:42","11:17","11:33","11:57","12:32","12:38","13:12","13:40","13:46","14:23","14:58","16:05","17:15","17:28","18:25","18:33","19:35","19:38","20:37","20:38","21:42","22:38"]},{"id":"468","name":"La Salle Ovest","lat":37.53266359,"lon":15.09068317,"times":["06:36","07:36","08:16","08:48","09:28","09:33","10:03","10:33","10:43","11:18","11:34","11:58","12:33","12:39","13:13","13:41","13:48","14:24","14:59","16:06","17:16","17:29","18:26","18:34","19:36","19:39","20:38","20:39","21:43","22:39"]},{"id":"469","name":"Millo Caneva","lat":37.53089677,"lon":15.09088476,"times":["06:36","07:37","08:17","08:49","09:29","09:33","10:04","10:33","10:44","11:19","11:35","11:59","12:34","12:40","13:14","13:41","13:49","14:25","15:00","16:07","17:17","17:30","18:27","18:35","19:37","19:40","20:39","20:40","21:43","22:39"]},{"id":"470","name":"Bormida Caneva Nord","lat":37.53005913,"lon":15.09006884,"times":["06:37","07:38","08:18","08:50","09:30","09:34","10:05","10:34","10:45","11:20","11:36","12:00","12:35","12:41","13:15","13:42","13:50","14:26","15:01","16:08","17:18","17:31","18:28","18:36","19:38","19:41","20:39","20:41","21:44","22:40"]},{"id":"471","name":"Bormida Braille Nord","lat":37.53054705,"lon":15.08850753,"times":["06:37","07:39","08:19","08:51","09:31","09:34","10:06","10:34","10:46","11:21","11:37","12:01","12:36","12:42","13:16","13:42","13:51","14:27","15:02","16:09","17:19","17:32","18:29","18:37","19:39","19:42","20:40","20:42","21:44","22:41"]},{"id":"205","name":"Braille Da Bormida","lat":37.5303494,"lon":15.08762449,"times":["06:37","07:39","08:19","08:52","09:32","09:35","10:07","10:35","10:47","11:22","11:37","12:02","12:37","12:42","13:17","13:42","13:51","14:27","15:02","16:09","17:19","17:32","18:29","18:37","19:39","19:42","20:40","20:42","21:45","22:41"]},{"id":"206","name":"Braille Grasso","lat":37.5294137,"lon":15.0852919,"times":["06:38","07:40","08:20","08:53","09:33","09:36","10:08","10:36","10:48","11:23","11:38","12:03","12:38","12:43","13:18","13:43","13:52","14:28","15:03","16:10","17:20","17:33","18:30","18:38","19:40","19:43","20:41","20:43","21:46","22:42"]},{"id":"207","name":"Braille Pordenone","lat":37.5277835,"lon":15.08351317,"times":["06:39","07:41","08:21","08:54","09:34","09:36","10:09","10:36","10:49","11:24","11:39","12:04","12:39","12:44","13:19","13:44","13:54","14:29","15:04","16:11","17:21","17:34","18:31","18:39","19:41","19:44","20:42","20:44","21:46","22:42"]},{"id":"712","name":"Doria Gioeni ","lat":37.52624529,"lon":15.07898448,"times":["06:40","07:43","08:23","08:56","09:36","09:38","10:11","10:38","10:51","11:26","11:41","12:06","12:41","12:46","13:21","13:45","13:56","14:31","15:06","16:13","17:23","17:36","18:33","18:41","19:43","19:46","20:43","20:46","21:48","22:44"]},{"id":"713","name":"Doria Passo Gravina Nord","lat":37.52602059,"lon":15.07802226,"times":["06:40","07:44","08:24","08:57","09:37","09:38","10:12","10:38","10:52","11:27","11:41","12:07","12:42","12:46","13:22","13:45","13:56","14:31","15:06","16:14","17:24","17:36","18:34","18:41","19:44","19:46","20:44","20:46","21:48","22:44"]},{"id":"871","name":"Doria Fleming ","lat":37.52477199,"lon":15.07494131,"times":["06:42","07:47","08:27","09:00","09:40","10:15","10:40","10:55","11:30","11:44","12:10","12:45","12:49","13:25","13:47","13:59","14:34","15:09","16:17","17:27","17:39","18:37","18:44","19:47","19:49","20:46","20:49","21:50","22:46"]},{"id":"872","name":"Doria Passo Gravina Sud","lat":37.52593916,"lon":15.07848619,"times":["06:43","07:48","08:28","09:02","09:41","09:42","10:17","10:41","10:57","11:32","11:45","12:12","12:47","12:50","13:27","13:48","14:01","14:35","15:10","16:18","17:28","17:40","18:38","18:45","19:48","19:50","20:47","20:50","21:51","22:47"]},{"id":"1008","name":"Gioeni Etnea","lat":37.52632494,"lon":15.08114619,"times":["06:44","07:49","08:29","09:03","09:42","09:43","10:18","10:42","10:58","11:33","11:46","12:13","12:48","12:51","13:28","13:49","14:02","14:36","15:11","16:19","17:29","17:41","18:39","18:46","19:49","19:51","20:47","20:51","21:52","22:48"]},{"id":"177","name":"Gioeni","lat":37.52502648,"lon":15.08186909,"times":["06:44","07:50","08:30","09:04","09:43","09:44","10:19","10:43","10:59","11:34","11:46","12:14","12:49","12:51","13:29","13:49","14:03","14:36","15:11","16:20","17:30","17:41","18:40","18:46","19:50","19:51","20:48","20:51","21:53","22:48"]},{"id":"178","name":"Etnea Ingegnere Ovest","lat":37.52326853,"lon":15.08229722,"times":["06:45","07:51","08:31","09:05","09:43","09:45","10:20","10:43","11:00","11:35","11:47","12:15","12:50","12:52","13:30","13:50","14:04","14:37","15:12","16:21","17:31","17:42","18:41","18:47","19:51","19:52","20:49","20:52","21:53","22:49"]},{"id":"1496","name":"BORGO METRO ","lat":37.52151057,"lon":15.08272532,"times":["06:45","07:52","08:32","09:06","09:44","09:46","10:21","10:44","11:01","11:36","11:48","12:16","12:51","12:53","13:31","13:50","14:05","14:38","15:13","16:22","17:32","17:43","18:42","18:48","19:52","19:53","20:49","20:53","21:54","22:49"]},{"id":"179","name":"Etnea Badiella","lat":37.52030255,"lon":15.0830069,"times":["06:45","07:53","08:33","09:07","09:44","09:47","10:22","10:44","11:02","11:37","11:49","12:17","12:52","12:54","13:32","13:50","14:06","14:39","15:14","16:23","17:33","17:44","18:43","18:49","19:53","19:54","20:50","20:54","21:54","22:50"]},{"id":"180","name":"CAVOUR","lat":37.51723732,"lon":15.0838409,"times":["06:46","07:54","08:34","09:08","09:46","09:48","10:23","10:46","11:03","11:38","11:50","12:18","12:53","12:55","13:33","13:51","14:08","14:40","15:15","16:24","17:34","17:45","18:44","18:50","19:54","19:55","20:51","20:55","21:56","22:51"]},{"id":"181","name":"Etnea Orto Botanico","lat":37.51573183,"lon":15.08414474,"times":["06:47","07:55","08:35","09:09","09:46","09:49","10:24","10:46","11:04","11:39","11:51","12:19","12:54","12:56","13:34","13:52","14:08","14:41","15:16","16:25","17:35","17:46","18:45","18:51","19:55","19:56","20:51","20:56","21:56","22:51"]},{"id":"112","name":"VIALE","lat":37.51254948,"lon":15.08488798,"times":["06:48","07:56","08:36","09:11","09:47","09:51","10:26","10:47","11:06","11:41","11:52","12:21","12:56","12:57","13:36","13:53","14:10","14:42","15:17","16:26","17:36","17:47","18:46","18:52","19:56","19:57","20:52","20:57","21:57","22:52"]},{"id":"113","name":"Etnea Poste","lat":37.51012437,"lon":15.08549625,"times":["06:48","07:58","08:38","09:12","09:48","09:52","10:27","10:48","11:07","11:42","11:53","12:22","12:57","12:58","13:37","13:53","14:12","14:43","15:18","16:28","17:38","17:48","18:48","18:53","19:58","20:53","20:58","21:58","22:53"]},{"id":"114","name":"STESICORO","lat":37.5081861,"lon":15.08595794,"times":["06:49","07:59","08:39","09:14","09:49","09:54","10:29","10:49","11:09","11:44","11:54","12:24","12:59","13:39","13:54","14:13","14:44","15:19","16:29","17:39","17:49","18:49","18:54","19:59","20:54","20:59","21:59","22:54"]},{"id":"307","name":"Terminal Borsa","lat":37.50769098,"lon":15.08508615,"times":["06:50","08:00","08:40","09:15","09:50","09:55","10:30","10:50","11:10","11:45","11:55","12:25","13:00","13:40","13:55","14:14","14:45","15:20","16:30","17:40","17:50","18:50","18:55","20:00","20:55","21:00","22:00","22:55"]}],"sabato":[{"id":"1731","name":"Dell'Ova Copernico","lat":37.54670397,"lon":15.09427746,"times":["06:28","07:23","08:03","08:33","09:13","09:48","10:28","11:03","11:43","12:18","12:58","13:33","14:13","14:48","15:53","17:03","18:13","19:23","20:28","21:33","22:30"]},{"id":"1732","name":"San Gregorio Nebrodi","lat":37.54397584,"lon":15.09045915,"times":["06:29","07:25","08:05","08:35","09:15","09:50","10:30","11:05","11:45","12:20","13:00","13:35","14:14","14:49","15:55","17:05","18:15","19:25","20:29","21:34","22:31"]},{"id":"411","name":"Dell'Ova Ovest","lat":37.54219117,"lon":15.09043435,"times":["06:29","07:26","08:06","08:36","09:16","09:51","10:31","11:06","11:46","12:21","13:01","13:36","14:15","14:50","15:56","17:06","18:16","19:26","20:30","21:35","22:32"]},{"id":"412","name":"Dell'Ova Carnazza","lat":37.54032534,"lon":15.09045474,"times":["06:30","07:26","08:06","08:37","09:17","09:52","10:32","11:07","11:47","12:22","13:02","13:37","14:16","14:51","15:56","17:06","18:16","19:26","20:31","21:35","22:32"]},{"id":"464","name":"Dell'Ova Canalicchio ","lat":37.53937045,"lon":15.08972914,"times":["06:30","07:27","08:07","08:38","09:18","09:53","10:33","11:08","11:48","12:23","13:03","13:38","14:17","14:52","15:57","17:07","18:17","19:27","20:32","21:36","22:33"]},{"id":"434","name":"Dell'Ova Novelli","lat":37.5377401,"lon":15.08824437,"times":["06:31","07:28","08:08","08:39","09:19","09:54","10:34","11:09","11:49","12:24","13:04","13:39","14:17","14:52","15:58","17:08","18:18","19:28","20:32","21:37","22:33"]},{"id":"465","name":"Dell'Ova Ferro Fabiani","lat":37.53584762,"lon":15.08774411,"times":["06:31","07:29","08:09","08:40","09:20","09:55","10:35","11:10","11:50","12:25","13:05","13:40","14:18","14:53","15:59","17:09","18:19","19:29","20:33","21:37","22:34"]},{"id":"466","name":"Morelli Dell'Ova Sud","lat":37.53502723,"lon":15.08794689,"times":["06:32","07:30","08:10","08:41","09:21","09:56","10:36","11:11","11:51","12:26","13:06","13:41","14:19","14:54","16:00","17:10","18:20","19:30","20:34","21:38","22:34"]},{"id":"467","name":"Morelli Sud","lat":37.53442182,"lon":15.08993826,"times":["06:32","07:31","08:11","08:42","09:22","09:57","10:37","11:12","11:52","12:27","13:07","13:41","14:19","14:54","16:01","17:11","18:21","19:31","20:34","21:38","22:35"]},{"id":"1196","name":"Costituzione Sud","lat":37.53605919,"lon":15.09392449,"times":["06:34","07:34","08:14","08:45","09:25","10:00","10:40","11:15","11:55","12:30","13:10","13:45","14:22","14:57","16:04","17:14","18:24","19:34","20:37","21:41","22:37"]},{"id":"443","name":"Costituzione Cristallo Ovest","lat":37.53494782,"lon":15.09425515,"times":["06:35","07:34","08:14","08:46","09:26","10:01","10:41","11:16","11:56","12:31","13:11","13:46","14:23","14:58","16:04","17:14","18:24","19:34","20:38","21:41","22:37"]},{"id":"643","name":"Costituzione","lat":37.5345276,"lon":15.09301708,"times":["06:35","07:35","08:15","08:47","09:27","10:02","10:42","11:17","11:57","12:32","13:12","13:46","14:23","14:58","16:05","17:15","18:25","19:35","20:38","21:42","22:38"]},{"id":"468","name":"La Salle Ovest","lat":37.53266359,"lon":15.09068317,"times":["06:36","07:36","08:16","08:48","09:28","10:03","10:43","11:18","11:58","12:33","13:13","13:48","14:24","14:59","16:06","17:16","18:26","19:36","20:39","21:43","22:39"]},{"id":"469","name":"Millo Caneva","lat":37.53089677,"lon":15.09088476,"times":["06:36","07:37","08:17","08:49","09:29","10:04","10:44","11:19","11:59","12:34","13:14","13:49","14:25","15:00","16:07","17:17","18:27","19:37","20:40","21:43","22:39"]},{"id":"470","name":"Bormida Caneva Nord","lat":37.53005913,"lon":15.09006884,"times":["06:37","07:38","08:18","08:50","09:30","10:05","10:45","11:20","12:00","12:35","13:15","13:50","14:26","15:01","16:08","17:18","18:28","19:38","20:41","21:44","22:40"]},{"id":"471","name":"Bormida Braille Nord","lat":37.53054705,"lon":15.08850753,"times":["06:37","07:39","08:19","08:51","09:31","10:06","10:46","11:21","12:01","12:36","13:16","13:51","14:27","15:02","16:09","17:19","18:29","19:39","20:42","21:44","22:41"]},{"id":"205","name":"Braille Da Bormida","lat":37.5303494,"lon":15.08762449,"times":["06:37","07:39","08:19","08:52","09:32","10:07","10:47","11:22","12:02","12:37","13:17","13:51","14:27","15:02","16:09","17:19","18:29","19:39","20:42","21:45","22:41"]},{"id":"206","name":"Braille Grasso","lat":37.5294137,"lon":15.0852919,"times":["06:38","07:40","08:20","08:53","09:33","10:08","10:48","11:23","12:03","12:38","13:18","13:52","14:28","15:03","16:10","17:20","18:30","19:40","20:43","21:46","22:42"]},{"id":"207","name":"Braille Pordenone","lat":37.5277835,"lon":15.08351317,"times":["06:39","07:41","08:21","08:54","09:34","10:09","10:49","11:24","12:04","12:39","13:19","13:54","14:29","15:04","16:11","17:21","18:31","19:41","20:44","21:46","22:42"]},{"id":"712","name":"Doria Gioeni ","lat":37.52624529,"lon":15.07898448,"times":["06:40","07:43","08:23","08:56","09:36","10:11","10:51","11:26","12:06","12:41","13:21","13:56","14:31","15:06","16:13","17:23","18:33","19:43","20:46","21:48","22:44"]},{"id":"713","name":"Doria Passo Gravina Nord","lat":37.52602059,"lon":15.07802226,"times":["06:40","07:44","08:24","08:57","09:37","10:12","10:52","11:27","12:07","12:42","13:22","13:56","14:31","15:06","16:14","17:24","18:34","19:44","20:46","21:48","22:44"]},{"id":"871","name":"Doria Fleming ","lat":37.52477199,"lon":15.07494131,"times":["06:42","07:47","08:27","09:00","09:40","10:15","10:55","11:30","12:10","12:45","13:25","13:59","14:34","15:09","16:17","17:27","18:37","19:47","20:49","21:50","22:46"]},{"id":"872","name":"Doria Passo Gravina Sud","lat":37.52593916,"lon":15.07848619,"times":["06:43","07:48","08:28","09:02","09:42","10:17","10:57","11:32","12:12","12:47","13:27","14:01","14:35","15:10","16:18","17:28","18:38","19:48","20:50","21:51","22:47"]},{"id":"1008","name":"Gioeni Etnea","lat":37.52632494,"lon":15.08114619,"times":["06:44","07:49","08:29","09:03","09:43","10:18","10:58","11:33","12:13","12:48","13:28","14:02","14:36","15:11","16:19","17:29","18:39","19:49","20:51","21:52","22:48"]},{"id":"177","name":"Gioeni","lat":37.52502648,"lon":15.08186909,"times":["06:44","07:50","08:30","09:04","09:44","10:19","10:59","11:34","12:14","12:49","13:29","14:03","14:36","15:11","16:20","17:30","18:40","19:50","20:51","21:53","22:48"]},{"id":"178","name":"Etnea Ingegnere Ovest","lat":37.52326853,"lon":15.08229722,"times":["06:45","07:51","08:31","09:05","09:45","10:20","11:00","11:35","12:15","12:50","13:30","14:04","14:37","15:12","16:21","17:31","18:41","19:51","20:52","21:53","22:49"]},{"id":"1496","name":"BORGO METRO ","lat":37.52151057,"lon":15.08272532,"times":["06:45","07:52","08:32","09:06","09:46","10:21","11:01","11:36","12:16","12:51","13:31","14:05","14:38","15:13","16:22","17:32","18:42","19:52","20:53","21:54","22:49"]},{"id":"179","name":"Etnea Badiella","lat":37.52030255,"lon":15.0830069,"times":["06:45","07:53","08:33","09:07","09:47","10:22","11:02","11:37","12:17","12:52","13:32","14:06","14:39","15:14","16:23","17:33","18:43","19:53","20:54","21:54","22:50"]},{"id":"180","name":"CAVOUR","lat":37.51723732,"lon":15.0838409,"times":["06:46","07:54","08:34","09:08","09:48","10:23","11:03","11:38","12:18","12:53","13:33","14:08","14:40","15:15","16:24","17:34","18:44","19:54","20:55","21:56","22:51"]},{"id":"181","name":"Etnea Orto Botanico","lat":37.51573183,"lon":15.08414474,"times":["06:47","07:55","08:35","09:09","09:49","10:24","11:04","11:39","12:19","12:54","13:34","14:08","14:41","15:16","16:25","17:35","18:45","19:55","20:56","21:56","22:51"]},{"id":"112","name":"VIALE","lat":37.51254948,"lon":15.08488798,"times":["06:48","07:56","08:36","09:11","09:51","10:26","11:06","11:41","12:21","12:56","13:36","14:10","14:42","15:17","16:26","17:36","18:46","19:56","20:57","21:57","22:52"]},{"id":"113","name":"Etnea Poste","lat":37.51012437,"lon":15.08549625,"times":["06:48","07:58","08:38","09:12","09:52","10:27","11:07","11:42","12:22","12:57","13:37","14:12","14:43","15:18","16:28","17:38","18:48","19:58","20:58","21:58","22:53"]},{"id":"114","name":"STESICORO","lat":37.5081861,"lon":15.08595794,"times":["06:49","07:59","08:39","09:14","09:54","10:29","11:09","11:44","12:24","12:59","13:39","14:13","14:44","15:19","16:29","17:39","18:49","19:59","20:59","21:59","22:54"]},{"id":"307","name":"Terminal Borsa","lat":37.50769098,"lon":15.08508615,"times":["06:50","08:00","08:40","09:15","09:55","10:30","11:10","11:45","12:25","13:00","13:40","14:14","14:45","15:20","16:30","17:40","18:50","20:00","21:00","22:00","22:55"]}],"domenica":[{"id":"1731","name":"Dell'Ova Copernico","lat":37.54670397,"lon":15.09427746,"times":["07:28","08:23","09:23","10:23","11:23","12:28","13:33","15:03","16:13","17:18","18:23","19:28","20:29"]},{"id":"1732","name":"San Gregorio Nebrodi","lat":37.54397584,"lon":15.09045915,"times":["07:29","08:24","09:24","10:24","11:24","12:29","13:34","15:05","16:14","17:19","18:24","19:29","20:30"]},{"id":"411","name":"Dell'Ova Ovest","lat":37.54219117,"lon":15.09043435,"times":["07:29","08:25","09:25","10:25","11:25","12:30","13:34","15:06","16:15","17:20","18:25","19:30","20:31"]},{"id":"412","name":"Dell'Ova Carnazza","lat":37.54032534,"lon":15.09045474,"times":["07:30","08:25","09:25","10:25","11:26","12:31","13:35","15:06","16:16","17:21","18:26","19:31","20:31"]},{"id":"464","name":"Dell'Ova Canalicchio ","lat":37.53937045,"lon":15.08972914,"times":["07:30","08:26","09:26","10:26","11:27","12:32","13:35","15:07","16:17","17:22","18:27","19:32","20:32"]},{"id":"434","name":"Dell'Ova Novelli","lat":37.5377401,"lon":15.08824437,"times":["07:31","08:27","09:27","10:27","11:27","12:32","13:36","15:08","16:17","17:22","18:27","19:32","20:33"]},{"id":"465","name":"Dell'Ova Ferro Fabiani","lat":37.53584762,"lon":15.08774411,"times":["07:31","08:27","09:27","10:27","11:28","12:33","13:36","15:09","16:18","17:23","18:28","19:33","20:33"]},{"id":"466","name":"Morelli Dell'Ova Sud","lat":37.53502723,"lon":15.08794689,"times":["07:32","08:28","09:28","10:28","11:29","12:34","13:37","15:10","16:19","17:24","18:29","19:34","20:34"]},{"id":"467","name":"Morelli Sud","lat":37.53442182,"lon":15.08993826,"times":["07:32","08:28","09:28","10:28","11:29","12:34","13:37","15:11","16:19","17:24","18:29","19:34","20:34"]},{"id":"1196","name":"Costituzione Sud","lat":37.53605919,"lon":15.09392449,"times":["07:34","08:31","09:31","10:31","11:32","12:37","13:39","15:14","16:22","17:27","18:32","19:37","20:36"]},{"id":"443","name":"Costituzione Cristallo Ovest","lat":37.53494782,"lon":15.09425515,"times":["07:35","08:31","09:31","10:31","11:33","12:38","13:40","15:14","16:23","17:28","18:33","19:38","20:37"]},{"id":"643","name":"Costituzione","lat":37.5345276,"lon":15.09301708,"times":["07:35","08:32","09:32","10:32","11:33","12:38","13:40","15:15","16:23","17:28","18:33","19:38","20:37"]},{"id":"468","name":"La Salle Ovest","lat":37.53266359,"lon":15.09068317,"times":["07:36","08:33","09:33","10:33","11:34","12:39","13:41","15:16","16:24","17:29","18:34","19:39","20:38"]},{"id":"469","name":"Millo Caneva","lat":37.53089677,"lon":15.09088476,"times":["07:36","08:33","09:33","10:33","11:35","12:40","13:41","15:17","16:25","17:30","18:35","19:40","20:39"]},{"id":"470","name":"Bormida Caneva Nord","lat":37.53005913,"lon":15.09006884,"times":["07:37","08:34","09:34","10:34","11:36","12:41","13:42","15:18","16:26","17:31","18:36","19:41","20:39"]},{"id":"471","name":"Bormida Braille Nord","lat":37.53054705,"lon":15.08850753,"times":["07:37","08:34","09:34","10:34","11:37","12:42","13:42","15:19","16:27","17:32","18:37","19:42","20:40"]},{"id":"205","name":"Braille Da Bormida","lat":37.5303494,"lon":15.08762449,"times":["07:37","08:35","09:35","10:35","11:37","12:42","13:42","15:19","16:27","17:32","18:37","19:42","20:40"]},{"id":"206","name":"Braille Grasso","lat":37.5294137,"lon":15.0852919,"times":["07:38","08:36","09:36","10:36","11:38","12:43","13:43","15:20","16:28","17:33","18:38","19:43","20:41"]},{"id":"207","name":"Braille Pordenone","lat":37.5277835,"lon":15.08351317,"times":["07:39","08:36","09:36","10:36","11:39","12:44","13:44","15:21","16:29","17:34","18:39","19:44","20:42"]},{"id":"712","name":"Doria Gioeni ","lat":37.52624529,"lon":15.07898448,"times":["07:40","08:38","09:38","10:38","11:41","12:46","13:45","15:23","16:31","17:36","18:41","19:46","20:43"]},{"id":"713","name":"Doria Passo Gravina Nord","lat":37.52602059,"lon":15.07802226,"times":["07:40","08:38","09:38","10:38","11:41","12:46","13:45","15:24","16:31","17:36","18:41","19:46","20:44"]},{"id":"871","name":"Doria Fleming ","lat":37.52477199,"lon":15.07494131,"times":["07:42","08:40","09:40","10:40","11:44","12:49","13:47","15:27","16:34","17:39","18:44","19:49","20:46"]},{"id":"872","name":"Doria Passo Gravina Sud","lat":37.52593916,"lon":15.07848619,"times":["07:43","08:41","09:41","10:41","11:45","12:50","13:48","15:28","16:35","17:40","18:45","19:50","20:47"]},{"id":"1008","name":"Gioeni Etnea","lat":37.52632494,"lon":15.08114619,"times":["07:44","08:42","09:42","10:42","11:46","12:51","13:49","15:29","16:36","17:41","18:46","19:51","20:47"]},{"id":"177","name":"Gioeni","lat":37.52502648,"lon":15.08186909,"times":["07:44","08:43","09:43","10:43","11:46","12:51","13:49","15:30","16:36","17:41","18:46","19:51","20:48"]},{"id":"178","name":"Etnea Ingegnere Ovest","lat":37.52326853,"lon":15.08229722,"times":["07:45","08:43","09:43","10:43","11:47","12:52","13:50","15:31","16:37","17:42","18:47","19:52","20:49"]},{"id":"1496","name":"BORGO METRO ","lat":37.52151057,"lon":15.08272532,"times":["07:45","08:44","09:44","10:44","11:48","12:53","13:50","15:32","16:38","17:43","18:48","19:53","20:49"]},{"id":"179","name":"Etnea Badiella","lat":37.52030255,"lon":15.0830069,"times":["07:45","08:44","09:44","10:44","11:49","12:54","13:50","15:33","16:39","17:44","18:49","19:54","20:50"]},{"id":"180","name":"CAVOUR","lat":37.51723732,"lon":15.0838409,"times":["07:46","08:46","09:46","10:46","11:50","12:55","13:51","15:34","16:40","17:45","18:50","19:55","20:51"]},{"id":"181","name":"Etnea Orto Botanico","lat":37.51573183,"lon":15.08414474,"times":["07:47","08:46","09:46","10:46","11:51","12:56","13:52","15:35","16:41","17:46","18:51","19:56","20:51"]},{"id":"112","name":"VIALE","lat":37.51254948,"lon":15.08488798,"times":["07:48","08:47","09:47","10:47","11:52","12:57","13:53","15:36","16:42","17:47","18:52","19:57","20:52"]},{"id":"113","name":"Etnea Poste","lat":37.51012437,"lon":15.08549625,"times":["07:48","08:48","09:48","10:48","11:53","12:58","13:53","15:38","16:43","17:48","18:53","19:58","20:53"]},{"id":"114","name":"STESICORO","lat":37.5081861,"lon":15.08595794,"times":["07:49","08:49","09:49","10:49","11:54","12:59","13:54","15:39","16:44","17:49","18:54","19:59","20:54"]},{"id":"307","name":"Terminal Borsa","lat":37.50769098,"lon":15.08508615,"times":["07:50","08:50","09:50","10:50","11:55","13:00","13:55","15:40","16:45","17:50","18:55","20:00","20:55"]}]}}}