{"id":"802N","directions":{"0":{"feriale":[{"id":"1867","name":"Parcheggio Fontanarossa Librino","lat":37.47908979,"lon":15.06837029,"times":["07:00","07:50","08:40","09:30","10:20","11:10","12:00","12:50","14:30","15:20","16:10","17:00","17:50","18:40","19:30","20:20","21:10"]},{"id":"960","name":"Castagnola Librino Ovest ","lat":37.48026032,"lon":15.05887121,"times":["07:07","07:57","08:47","09:37","10:27","11:17","12:07","12:57","14:36","15:27","16:17","17:07","17:57","18:47","19:37","20:27","21:17"]},{"id":"961","name":"Castagnola Sisinna","lat":37.47962139,"lon":15.05673304,"times":["07:08","07:58","08:48","09:38","10:28","11:18","12:08","12:58","14:36","15:28","16:18","17:08","17:58","18:48","19:38","20:28","21:18"]},{"id":"962","name":"Castagnola Vigo Ovest","lat":37.47868474,"lon":15.05509234,"times":["07:09","07:59","08:49","09:39","10:29","11:19","12:09","12:59","14:37","15:29","16:19","17:09","17:59","18:49","19:39","20:29","21:19"]},{"id":"858","name":"Gelso Bianco Vigo Nord","lat":37.47630493,"lon":15.05550906,"times":["07:10","08:00","08:50","09:40","10:30","11:20","12:10","13:00","14:38","15:30","16:20","17:10","18:00","18:50","19:40","20:30","21:20"]},{"id":"1781","name":"Gelso Bianco Agrumi","lat":37.47414822,"lon":15.05098368,"times":["07:12","08:02","08:52","09:42","10:32","11:22","12:12","13:02","14:40","15:32","16:22","17:12","18:02","18:52","19:42","20:32","21:22"]},{"id":"816","name":"Gelso Bianco Vigo Sud","lat":37.4761968,"lon":15.05544112,"times":["07:14","08:04","08:54","09:44","10:34","11:24","12:14","13:04","14:41","15:34","16:24","17:14","18:04","18:54","19:44","20:34","21:24"]},{"id":"963","name":"Castagnola Vigo","lat":37.47783886,"lon":15.05199274,"times":["07:17","08:07","08:57","09:47","10:37","11:27","12:17","13:07","14:43","15:37","16:27","17:17","18:07","18:57","19:47","20:37","21:27"]},{"id":"964","name":"Castagnola Vigo Nord (1)","lat":37.47768622,"lon":15.05063542,"times":["07:17","08:07","08:57","09:47","10:37","11:27","12:17","13:07","14:44","15:37","16:27","17:17","18:07","18:57","19:47","20:37","21:27"]},{"id":"965","name":"Castagnola Vigo Nord (2)","lat":37.4778671,"lon":15.04919915,"times":["07:18","08:08","08:58","09:48","10:38","11:28","12:18","13:08","14:44","15:38","16:28","17:18","18:08","18:58","19:48","20:38","21:28"]},{"id":"1335","name":"Bummacaro Circonvallazione Librino Est","lat":37.47972528,"lon":15.04581855,"times":["07:19","08:09","08:59","09:49","10:39","11:29","12:19","13:09","14:45","15:39","16:29","17:19","18:09","18:59","19:49","20:39","21:29"]},{"id":"1336","name":"Bummacaro Nord San Marco","lat":37.48069924,"lon":15.04454105,"times":["07:20","08:10","09:00","09:50","10:40","11:30","12:20","13:10","14:46","15:40","16:30","17:20","18:10","19:00","19:50","20:40","21:30"]},{"id":"1341","name":"Moncada","lat":37.48234991,"lon":15.04136369,"times":["07:21","08:11","09:01","09:51","10:41","11:31","12:21","13:11","14:47","15:41","16:31","17:21","18:11","19:01","19:51","20:41","21:31"]},{"id":"1342","name":"Moncada (1)","lat":37.48371186,"lon":15.03875159,"times":["07:22","08:12","09:02","09:52","10:42","11:32","12:22","13:12","14:48","15:42","16:32","17:22","18:12","19:02","19:52","20:42","21:32"]},{"id":"1343","name":"Moncada (2)","lat":37.48518822,"lon":15.03800842,"times":["07:23","08:13","09:03","09:53","10:43","11:33","12:23","13:13","14:48","15:43","16:33","17:23","18:13","19:03","19:53","20:43","21:33"]},{"id":"1344","name":"Moncada (3)","lat":37.48713709,"lon":15.03865156,"times":["07:25","08:15","09:05","09:55","10:45","11:35","12:25","13:15","14:50","15:45","16:35","17:25","18:15","19:05","19:55","20:45","21:35"]}],"sabato":[{"id":"1867","name":"Parcheggio Fontanarossa Librino","lat":37.47908979,"lon":15.06837029,"times":["07:00","07:50","08:40","09:30","10:20","11:10","12:00","12:50","14:30","15:20","16:10","17:00","17:50","18:40","19:30","20:20","21:10"]},{"id":"960","name":"Castagnola Librino Ovest ","lat":37.48026032,"lon":15.05887121,"times":["07:07","07:57","08:47","09:37","10:27","11:17","12:07","12:57","14:36","15:27","16:17","17:07","17:57","18:47","19:37","20:27","21:17"]},{"id":"961","name":"Castagnola Sisinna","lat":37.47962139,"lon":15.05673304,"times":["07:08","07:58","08:48","09:38","10:28","11:18","12:08","12:58","14:36","15:28","16:18","17:08","17:58","18:48","19:38","20:28","21:18"]},{"id":"962","name":"Castagnola Vigo Ovest","lat":37.47868474,"lon":15.05509234,"times":["07:09","07:59","08:49","09:39","10:29","11:19","12:09","12:59","14:37","15:29","16:19","17:09","17:59","18:49","19:39","20:29","21:19"]},{"id":"858","name":"Gelso Bianco Vigo Nord","lat":37.47630493,"lon":15.05550906,"times":["07:10","08:00","08:50","09:40","10:30","11:20","12:10","13:00","14:38","15:30","16:20","17:10","18:00","18:50","19:40","20:30","21:20"]},{"id":"1781","name":"Gelso Bianco Agrumi","lat":37.47414822,"lon":15.05098368,"times":["07:12","08:02","08:52","09:42","10:32","11:22","12:12","13:02","14:40","15:32","16:22","17:12","18:02","18:52","19:42","20:32","21:22"]},{"id":"816","name":"Gelso Bianco Vigo Sud","lat":37.4761968,"lon":15.05544112,"times":["07:14","08:04","08:54","09:44","10:34","11:24","12:14","13:04","14:41","15:34","16:24","17:14","18:04","18:54","19:44","20:34","21:24"]},{"id":"963","name":"Castagnola Vigo","lat":37.47783886,"lon":15.05199274,"times":["07:17","08:07","08:57","09:47","10:37","11:27","12:17","13:07","14:43","15:37","16:27","17:17","18:07","18:57","19:47","20:37","21:27"]},{"id":"964","name":"Castagnola Vigo Nord (1)","lat":37.47768622,"lon":15.05063542,"times":["07:17","08:07","08:57","09:47","10:37","11:27","12:17","13:07","14:44","15:37","16:27","17:17","18:07","18:57","19:47","20:37","21:27"]},{"id":"965","name":"Castagnola Vigo Nord (2)","lat":37.4778671,"lon":15.04919915,"times":["07:18","08:08","08:58","09:48","10:38","11:28","12:18","13:08","14:44","15:38","16:28","17:18","18:08","18:58","19:48","20:38","21:28"]},{"id":"1335","name":"Bummacaro Circonvallazione Librino Est","lat":37.47972528,"lon":15.04581855,"times":["07:19","08:09","08:59","09:49","10:39","11:29","12:19","13:09","14:45","15:39","16:29","17:19","18:09","18:59","19:49","20:39","21:29"]},{"id":"1336","name":"Bummacaro Nord San Marco","lat":37.48069924,"lon":15.04454105,"times":["07:20","08:10","09:00","09:50","10:40","11:30","12:20","13:10","14:46","15:40","16:30","17:20","18:10","19:00","19:50","20:40","21:30"]},{"id":"1341","name":"Moncada","lat":37.48234991,"lon":15.04136369,"times":["07:21","08:11","09:01","09:51","10:41","11:31","12:21","13:11","14:47","15:41","16:31","17:21","18:11","19:01","19:51","20:41","21:31"]},{"id":"1342","name":"Moncada (1)","lat":37.48371186,"lon":15.03875159,"times":["07:22","08:12","09:02","09:52","10:42","11:32","12:22","13:12","14:48","15:42","16:32","17:22","18:12","19:02","19:52","20:42","21:32"]},{"id":"1343","name":"Moncada (2)","lat":37.48518822,"lon":15.03800842,"times":["07:23","08:13","09:03","09:53","10:43","11:33","12:23","13:13","14:48","15:43","16:33","17:23","18:13","19:03","19:53","20:43","21:33"]},{"id":"1344","name":"Moncada (3)","lat":37.48713709,"lon":15.03865156,"times":["07:25","08:15","09:05","09:55","10:45","11:35","12:25","13:15","14:50","15:45","16:35","17:25","18:15","19:05","19:55","20:45","21:35"]}],"domenica":[]},"1":{"feriale":[{"id":"1344","name":"Moncada (3)","lat":37.48713709,"lon":15.03865156,"times":["07:25","08:15","09:05","09:55","10:45","11:35","12:25","13:15","14:50","15:45","16:35","17:25","18:15","19:05","19:55","20:45","21:35"]},{"id":"1326","name":"Moncada (4)","lat":37.48636143,"lon":15.04009902,"times":["07:25","08:15","09:05","09:55","10:45","11:35","12:25","13:15","14:50","15:45","16:35","17:25","18:15","19:05","19:55","20:45","21:35"]},{"id":"1327","name":"Moncada San Teodoro (1)","lat":37.4862857,"lon":15.04188507,"times":["07:25","08:15","09:05","09:55","10:45","11:35","12:25","13:15","14:51","15:45","16:35","17:25","18:15","19:05","19:55","20:45","21:35"]},{"id":"1328","name":"Moncada San Teodoro (2)","lat":37.48631979,"lon":15.04331826,"times":["07:26","08:16","09:06","09:56","10:46","11:36","12:26","13:16","14:51","15:46","16:36","17:26","18:16","19:06","19:56","20:46","21:35"]},{"id":"1329","name":"Moncada San Teodoro (3)","lat":37.48589992,"lon":15.04512102,"times":["07:26","08:16","09:06","09:56","10:46","11:36","12:26","13:16","14:52","15:46","16:36","17:26","18:16","19:06","19:56","20:46","21:36"]},{"id":"1330","name":"Bummacaro Moncada Sud","lat":37.48496183,"lon":15.04685107,"times":["07:27","08:17","09:07","09:57","10:47","11:37","12:27","13:17","14:52","15:47","16:37","17:27","18:17","19:07","19:57","20:47","21:36"]},{"id":"1331","name":"Bummacaro San Teodoro Sud (1)","lat":37.48501538,"lon":15.04816321,"times":["07:27","08:17","09:07","09:57","10:47","11:37","12:27","13:17","14:53","15:47","16:37","17:27","18:17","19:07","19:57","20:47","21:36"]},{"id":"1332","name":"Bummacaro San Teodoro Sud (2)","lat":37.48468099,"lon":15.0503008,"times":["07:28","08:18","09:08","09:58","10:48","11:38","12:28","13:18","14:53","15:48","16:38","17:28","18:18","19:08","19:58","20:48","21:36"]},{"id":"1333","name":"Bummacaro Elefante Sud","lat":37.483716,"lon":15.05151044,"times":["07:28","08:18","09:08","09:58","10:48","11:38","12:28","13:18","14:54","15:48","16:38","17:28","18:18","19:08","19:58","20:48","21:37"]},{"id":"1754","name":"Librino Asse attrezzato Librino","lat":37.48367877,"lon":15.05414588,"times":["07:29","08:19","09:09","09:59","10:49","11:39","12:29","13:19","14:55","15:49","16:39","17:29","18:19","19:09","19:59","20:49","21:37"]},{"id":"1673","name":"Librino Asse attrezzato Nitta","lat":37.48549882,"lon":15.05568553,"times":["07:30","08:20","09:10","10:00","10:50","11:40","12:30","13:20","14:56","15:50","16:40","17:30","18:20","19:10","20:00","20:50","21:38"]},{"id":"1501","name":"Nitta Asse Attrezzato (1)","lat":37.48640893,"lon":15.05624047,"times":["07:30","08:20","09:10","10:00","10:50","11:40","12:30","13:20","14:56","15:50","16:40","17:30","18:20","19:10","20:00","20:50","21:38"]},{"id":"811","name":"Nitta Asse Attrezzato (2)","lat":37.48833749,"lon":15.05702242,"times":["07:31","08:21","09:11","10:01","10:51","11:41","12:31","13:21","14:57","15:51","16:41","17:31","18:21","19:11","20:01","20:51","21:38"]},{"id":"812","name":"San Teodoro Asse Attrezzato","lat":37.49031108,"lon":15.05786101,"times":["07:31","08:21","09:11","10:01","10:51","11:41","12:31","13:21","14:58","15:51","16:41","17:31","18:21","19:11","20:01","20:51","21:39"]},{"id":"447","name":"Terminal Villaggio Sant'Agata","lat":37.4907071,"lon":15.05903777,"times":["07:32","08:22","09:12","10:02","10:52","11:42","12:32","13:22","14:58","15:52","16:42","17:32","18:22","19:12","20:02","20:52","21:39"]},{"id":"356","name":"Verrazzano Grimaldi (2)","lat":37.49085248,"lon":15.05665103,"times":["07:33","08:23","09:13","10:03","10:53","11:43","12:33","13:23","15:00","15:53","16:43","17:33","18:23","19:13","20:03","20:53","21:40"]},{"id":"1724","name":"Verrazzano Grimaldi (1)","lat":37.49226827,"lon":15.05529462,"times":["07:34","08:24","09:14","10:04","10:54","11:44","12:34","13:24","15:00","15:54","16:44","17:34","18:24","19:14","20:04","20:54","21:40"]},{"id":"357","name":"Colonna Grimaldi (1)","lat":37.49362049,"lon":15.05494493,"times":["07:34","08:24","09:14","10:04","10:54","11:44","12:34","13:24","15:01","15:54","16:44","17:34","18:24","19:14","20:04","20:54","21:40"]},{"id":"358","name":"Colonna Grimaldi (2)","lat":37.4941619,"lon":15.05365569,"times":["07:34","08:24","09:14","10:04","10:54","11:44","12:34","13:24","15:01","15:54","16:44","17:34","18:24","19:14","20:04","20:54","21:40"]},{"id":"359","name":"Colonna Grimaldi (3)","lat":37.49406391,"lon":15.05104241,"times":["07:35","08:25","09:15","10:05","10:55","11:45","12:35","13:25","15:02","15:55","16:45","17:35","18:25","19:15","20:05","20:55","21:41"]},{"id":"1570","name":"Pecorino Ovest","lat":37.49309085,"lon":15.05006888,"times":["07:36","08:26","09:16","10:06","10:56","11:46","12:36","13:26","15:03","15:56","16:46","17:36","18:26","19:16","20:06","20:56","21:41"]},{"id":"1571","name":"Pecorino Grimaldi Nord","lat":37.4914604,"lon":15.04757911,"times":["07:36","08:26","09:16","10:06","10:56","11:46","12:36","13:26","15:04","15:56","16:46","17:36","18:26","19:16","20:06","20:56","21:42"]},{"id":"1461","name":"Pecorino San Teodoro Nord ","lat":37.49135373,"lon":15.04372159,"times":["07:37","08:27","09:17","10:07","10:57","11:47","12:37","13:27","15:05","15:57","16:47","17:37","18:27","19:17","20:07","20:57","21:42"]},{"id":"1475","name":"Pecorino San Teodoro Sud  ","lat":37.4912276,"lon":15.04355183,"times":["07:38","08:28","09:18","10:08","10:58","11:48","12:38","13:28","15:06","15:58","16:48","17:38","18:28","19:18","20:08","20:58","21:43"]},{"id":"1572","name":"Pecorino Grimaldi Sud","lat":37.49135226,"lon":15.04752248,"times":["07:39","08:29","09:19","10:09","10:59","11:49","12:39","13:29","15:07","15:59","16:49","17:39","18:29","19:19","20:09","20:59","21:43"]},{"id":"1506","name":"San Teodoro Grimaldi (2)","lat":37.49046791,"lon":15.04997663,"times":["07:40","08:30","09:20","10:10","11:00","11:50","12:40","13:30","15:08","16:00","16:50","17:40","18:30","19:20","20:10","21:00","21:44"]},{"id":"1507","name":"San Teodoro Grimaldi (1)","lat":37.48799731,"lon":15.05195453,"times":["07:40","08:30","09:20","10:10","11:00","11:50","12:40","13:30","15:09","16:00","16:50","17:40","18:30","19:20","20:10","21:00","21:44"]},{"id":"1711","name":"Librino Nitta (1)","lat":37.48507441,"lon":15.0572801,"times":["07:42","08:32","09:22","10:12","11:02","11:52","12:42","13:32","15:11","16:02","16:52","17:42","18:32","19:22","20:12","21:02","21:45"]},{"id":"1712","name":"Librino Nitta (2)","lat":37.48339461,"lon":15.06058063,"times":["07:43","08:33","09:23","10:13","11:03","11:53","12:43","13:33","15:12","16:03","16:53","17:43","18:33","19:23","20:13","21:03","21:46"]},{"id":"1710","name":"Librino Bonaventura","lat":37.48268274,"lon":15.06010655,"times":["07:43","08:33","09:23","10:13","11:03","11:53","12:43","13:33","15:12","16:03","16:53","17:43","18:33","19:23","20:13","21:03","21:46"]},{"id":"1867","name":"Parcheggio Fontanarossa Librino","lat":37.47908979,"lon":15.06837029,"times":["07:50","08:40","09:30","10:20","11:10","12:00","12:50","13:40","15:20","16:10","17:00","17:50","18:40","19:30","20:20","21:10","21:50"]}],"sabato":[{"id":"1344","name":"Moncada (3)","lat":37.48713709,"lon":15.03865156,"times":["07:25","08:15","09:05","09:55","10:45","11:35","12:25","13:15","14:50","15:45","16:35","17:25","18:15","19:05","19:55","20:45","21:35"]},{"id":"1326","name":"Moncada (4)","lat":37.48636143,"lon":15.04009902,"times":["07:25","08:15","09:05","09:55","10:45","11:35","12:25","13:15","14:50","15:45","16:35","17:25","18:15","19:05","19:55","20:45","21:35"]},{"id":"1327","name":"Moncada San Teodoro (1)","lat":37.4862857,"lon":15.04188507,"times":["07:25","08:15","09:05","09:55","10:45","11:35","12:25","13:15","14:51","15:45","16:35","17:25","18:15","19:05","19:55","20:45","21:35"]},{"id":"1328","name":"Moncada San Teodoro (2)","lat":37.48631979,"lon":15.04331826,"times":["07:26","08:16","09:06","09:56","10:46","11:36","12:26","13:16","14:51","15:46","16:36","17:26","18:16","19:06","19:56","20:46","21:35"]},{"id":"1329","name":"Moncada San Teodoro (3)","lat":37.48589992,"lon":15.04512102,"times":["07:26","08:16","09:06","09:56","10:46","11:36","12:26","13:16","14:52","15:46","16:36","17:26","18:16","19:06","19:56","20:46","21:36"]},{"id":"1330","name":"Bummacaro Moncada Sud","lat":37.48496183,"lon":15.04685107,"times":["07:27","08:17","09:07","09:57","10:47","11:37","12:27","13:17","14:52","15:47","16:37","17:27","18:17","19:07","19:57","20:47","21:36"]},{"id":"1331","name":"Bummacaro San Teodoro Sud (1)","lat":37.48501538,"lon":15.04816321,"times":["07:27","08:17","09:07","09:57","10:47","11:37","12:27","13:17","14:53","15:47","16:37","17:27","18:17","19:07","19:57","20:47","21:36"]},{"id":"1332","name":"Bummacaro San Teodoro Sud (2)","lat":37.48468099,"lon":15.0503008,"times":["07:28","08:18","09:08","09:58","10:48","11:38","12:28","13:18","14:53","15:48","16:38","17:28","18:18","19:08","19:58","20:48","21:36"]},{"id":"1333","name":"Bummacaro Elefante Sud","lat":37.483716,"lon":15.05151044,"times":["07:28","08:18","09:08","09:58","10:48","11:38","12:28","13:18","14:54","15:48","16:38","17:28","18:18","19:08","19:58","20:48","21:37"]},{"id":"1754","name":"Librino Asse attrezzato Librino","lat":37.48367877,"lon":15.05414588,"times":["07:29","08:19","09:09","09:59","10:49","11:39","12:29","13:19","14:55","15:49","16:39","17:29","18:19","19:09","19:59","20:49","21:37"]},{"id":"1673","name":"Librino Asse attrezzato Nitta","lat":37.48549882,"lon":15.05568553,"times":["07:30","08:20","09:10","10:00","10:50","11:40","12:30","13:20","14:56","15:50","16:40","17:30","18:20","19:10","20:00","20:50","21:38"]},{"id":"1501","name":"Nitta Asse Attrezzato (1)","lat":37.48640893,"lon":15.05624047,"times":["07:30","08:20","09:10","10:00","10:50","11:40","12:30","13:20","14:56","15:50","16:40","17:30","18:20","19:10","20:00","20:50","21:38"]},{"id":"811","name":"Nitta Asse Attrezzato (2)","lat":37.48833749,"lon":15.05702242,"times":["07:31","08:21","09:11","10:01","10:51","11:41","12:31","13:21","14:57","15:51","16:41","17:31","18:21","19:11","20:01","20:51","21:38"]},{"id":"812","name":"San Teodoro Asse Attrezzato","lat":37.49031108,"lon":15.05786101,"times":["07:31","08:21","09:11","10:01","10:51","11:41","12:31","13:21","14:58","15:51","16:41","17:31","18:21","19:11","20:01","20:51","21:39"]},{"id":"447","name":"Terminal Villaggio Sant'Agata","lat":37.4907071,"lon":15.05903777,"times":["07:32","08:22","09:12","10:02","10:52","11:42","12:32","13:22","14:58","15:52","16:42","17:32","18:22","19:12","20:02","20:52","21:39"]},{"id":"356","name":"Verrazzano Grimaldi (2)","lat":37.49085248,"lon":15.05665103,"times":["07:33","08:23","09:13","10:03","10:53","11:43","12:33","13:23","15:00","15:53","16:43","17:33","18:23","19:13","20:03","20:53","21:40"]},{"id":"1724","name":"Verrazzano Grimaldi (1)","lat":37.49226827,"lon":15.05529462,"times":["07:34","08:24","09:14","10:04","10:54","11:44","12:34","13:24","15:00","15:54","16:44","17:34","18:24","19:14","20:04","20:54","21:40"]},{"id":"357","name":"Colonna Grimaldi (1)","lat":37.49362049,"lon":15.05494493,"times":["07:34","08:24","09:14","10:04","10:54","11:44","12:34","13:24","15:01","15:54","16:44","17:34","18:24","19:14","20:04","20:54","21:40"]},{"id":"358","name":"Colonna Grimaldi (2)","lat":37.4941619,"lon":15.05365569,"times":["07:34","08:24","09:14","10:04","10:54","11:44","12:34","13:24","15:01","15:54","16:44","17:34","18:24","19:14","20:04","20:54","21:40"]},{"id":"359","name":"Colonna Grimaldi (3)","lat":37.49406391,"lon":15.05104241,"times":["07:35","08:25","09:15","10:05","10:55","11:45","12:35","13:25","15:02","15:55","16:45","17:35","18:25","19:15","20:05","20:55","21:41"]},{"id":"1570","name":"Pecorino Ovest","lat":37.49309085,"lon":15.05006888,"times":["07:36","08:26","09:16","10:06","10:56","11:46","12:36","13:26","15:03","15:56","16:46","17:36","18:26","19:16","20:06","20:56","21:41"]},{"id":"1571","name":"Pecorino Grimaldi Nord","lat":37.4914604,"lon":15.04757911,"times":["07:36","08:26","09:16","10:06","10:56","11:46","12:36","13:26","15:04","15:56","16:46","17:36","18:26","19:16","20:06","20:56","21:42"]},{"id":"1461","name":"Pecorino San Teodoro Nord ","lat":37.49135373,"lon":15.04372159,"times":["07:37","08:27","09:17","10:07","10:57","11:47","12:37","13:27","15:05","15:57","16:47","17:37","18:27","19:17","20:07","20:57","21:42"]},{"id":"1475","name":"Pecorino San Teodoro Sud  ","lat":37.4912276,"lon":15.04355183,"times":["07:38","08:28","09:18","10:08","10:58","11:48","12:38","13:28","15:06","15:58","16:48","17:38","18:28","19:18","20:08","20:58","21:43"]},{"id":"1572","name":"Pecorino Grimaldi Sud","lat":37.49135226,"lon":15.04752248,"times":["07:39","08:29","09:19","10:09","10:59","11:49","12:39","13:29","15:07","15:59","16:49","17:39","18:29","19:19","20:09","20:59","21:43"]},{"id":"1506","name":"San Teodoro Grimaldi (2)","lat":37.49046791,"lon":15.04997663,"times":["07:40","08:30","09:20","10:10","11:00","11:50","12:40","13:30","15:08","16:00","16:50","17:40","18:30","19:20","20:10","21:00","21:44"]},{"id":"1507","name":"San Teodoro Grimaldi (1)","lat":37.48799731,"lon":15.05195453,"times":["07:40","08:30","09:20","10:10","11:00","11:50","12:40","13:30","15:09","16:00","16:50","17:40","18:30","19:20","20:10","21:00","21:44"]},{"id":"1711","name":"Librino Nitta (1)","lat":37.48507441,"lon":15.0572801,"times":["07:42","08:32","09:22","10:12","11:02","11:52","12:42","13:32","15:11","16:02","16:52","17:42","18:32","19:22","20:12","21:02","21:45"]},{"id":"1712","name":"Librino Nitta (2)","lat":37.48339461,"lon":15.06058063,"times":["07:43","08:33","09:23","10:13","11:03","11:53","12:43","13:33","15:12","16:03","16:53","17:43","18:33","19:23","20:13","21:03","21:46"]},{"id":"1710","name":"Librino Bonaventura","lat":37.48268274,"lon":15.06010655,"times":["07:43","08:33","09:23","10:13","11:03","11:53","12:43","13:33","15:12","16:03","16:53","17:43","18:33","19:23","20:13","21:03","21:46"]},{"id":"1867","name":"Parcheggio Fontanarossa Librino","lat":37.47908979,"lon":15.06837029,"times":["07:50","08:40","09:30","10:20","11:10","12:00","12:50","13:40","15:20","16:10","17:00","17:50","18:40","19:30","20:20","21:10","21:50"]}],"domenica":[]}}}